<?xml version="1.0" encoding="UTF-8"?>
<kml xmlns="http://www.opengis.net/kml/2.2">
  <Document>
    <name>US Military Tracker</name>
    <description>Generated: 2026-03-02T22:14:43Z | Chairman: groq | Score: 0.00</description>
    <Folder>
      <name>Aircraft (374 tracked)</name>
      <Folder>
        <name>Unknown</name>
        <Placemark>
          <name>359081 (Unknown Type)</name>
          <description>Type: Unknown Type&#xA;Hex: 359081&#xA;Altitude: 33300 ft&#xA;Speed: 0.0 kts&#xA;Heading: 0.0&#xA;Source: adsb.lol</description>
          <Point>
            <coordinates>0,0,33300</coordinates>
          </Point>
        </Placemark>
        <Placemark>
          <name>BLZR208 (Unknown Type)</name>
          <description>Type: Unknown Type&#xA;Callsign: BLZR208&#xA;Hex: ae6265&#xA;Altitude: 0 ft&#xA;Speed: 412.4 kts&#xA;Heading: 71.9&#xA;Source: adsb.lol</description>
          <Point>
            <coordinates>-98.589777,28.305817,0</coordinates>
          </Point>
        </Placemark>
        <Placemark>
          <name>ae07ac (KC-135 Stratotanker)</name>
          <description>Type: KC-135 Stratotanker&#xA;Hex: ae07ac&#xA;Altitude: 0 ft&#xA;Speed: 0.0 kts&#xA;Heading: 0.0&#xA;Source: adsb.lol</description>
          <Point>
            <coordinates>0,0,0</coordinates>
          </Point>
        </Placemark>
        <Placemark>
          <name>ae685b (Unknown Type)</name>
          <description>Type: Unknown Type&#xA;Hex: ae685b&#xA;Altitude: 2725 ft&#xA;Speed: 175.3 kts&#xA;Heading: 124.8&#xA;Source: adsb.one</description>
          <Point>
            <coordinates>-84.185314,35.700714,2725</coordinates>
          </Point>
        </Placemark>
        <Placemark>
          <name>ae5a69 (EC45)</name>
          <description>Type: EC45&#xA;Hex: ae5a69&#xA;Altitude: 0 ft&#xA;Speed: 90.1 kts&#xA;Heading: 271.9&#xA;Source: adsb.lol</description>
          <Point>
            <coordinates>0,0,0</coordinates>
          </Point>
        </Placemark>
        <Placemark>
          <name>RCH460 (C-17 Globemaster III)</name>
          <description>Type: C-17 Globemaster III&#xA;Callsign: RCH460&#xA;Hex: ae07f4&#xA;Altitude: 34400 ft&#xA;Speed: 0.0 kts&#xA;Heading: 0.0&#xA;Source: adsb.lol</description>
          <Point>
            <coordinates>0,0,34400</coordinates>
          </Point>
        </Placemark>
        <Placemark>
          <name>40002d (Unknown Type)</name>
          <description>Type: Unknown Type&#xA;Hex: 40002d&#xA;Altitude: 0 ft&#xA;Speed: 0.0 kts&#xA;Heading: 0.0&#xA;Source: adsb.one</description>
          <Point>
            <coordinates>0,0,0</coordinates>
          </Point>
        </Placemark>
        <Placemark>
          <name>SAM218 (GLF5)</name>
          <description>Type: GLF5&#xA;Callsign: SAM218&#xA;Hex: ae6cf2&#xA;Altitude: 41000 ft&#xA;Speed: 550.9 kts&#xA;Heading: 97.6&#xA;Source: adsb.one</description>
          <Point>
            <coordinates>-104.57571,34.762092,41000</coordinates>
          </Point>
        </Placemark>
        <Placemark>
          <name>SMASH35 (Unknown Type)</name>
          <description>Type: Unknown Type&#xA;Callsign: SMASH35&#xA;Hex: ae188b&#xA;Altitude: 11375 ft&#xA;Speed: 253.0 kts&#xA;Heading: 329.1&#xA;Source: adsb.one</description>
          <Point>
            <coordinates>-98.124733,34.058781,11375</coordinates>
          </Point>
        </Placemark>
        <Placemark>
          <name>ROVE33 (TEX2)</name>
          <description>Type: TEX2&#xA;Callsign: ROVE33&#xA;Hex: ae13fd&#xA;Altitude: 2050 ft&#xA;Speed: 161.3 kts&#xA;Heading: 80.4&#xA;Source: adsb.lol</description>
          <Point>
            <coordinates>-96.465077,30.790237,2050</coordinates>
          </Point>
        </Placemark>
        <Placemark>
          <name>C2310 (CN35)</name>
          <description>Type: CN35&#xA;Callsign: C2310&#xA;Hex: ae2708&#xA;Altitude: 800 ft&#xA;Speed: 128.7 kts&#xA;Heading: 197.2&#xA;Source: adsb.lol</description>
          <Point>
            <coordinates>-89.456769,30.349457,800</coordinates>
          </Point>
        </Placemark>
        <Placemark>
          <name>ae0145 (KC-135 Stratotanker)</name>
          <description>Type: KC-135 Stratotanker&#xA;Hex: ae0145&#xA;Altitude: 29000 ft&#xA;Speed: 485.0 kts&#xA;Heading: 87.0&#xA;Source: adsb.lol</description>
          <Point>
            <coordinates>-89.37249,39.729929,29000</coordinates>
          </Point>
        </Placemark>
        <Placemark>
          <name>TALON49 (HAWK)</name>
          <description>Type: HAWK&#xA;Callsign: TALON49&#xA;Hex: ae62c7&#xA;Altitude: 18675 ft&#xA;Speed: 252.0 kts&#xA;Heading: 270.7&#xA;Source: adsb.lol</description>
          <Point>
            <coordinates>-89.152091,32.630046,18675</coordinates>
          </Point>
        </Placemark>
        <Placemark>
          <name>JANET10 (B350)</name>
          <description>Type: B350&#xA;Callsign: JANET10&#xA;Hex: ac96df&#xA;Altitude: 7675 ft&#xA;Speed: 197.2 kts&#xA;Heading: 6.4&#xA;Source: adsb.lol</description>
          <Point>
            <coordinates>-114.968147,36.0336,7675</coordinates>
          </Point>
        </Placemark>
        <Placemark>
          <name>SHARK52 (SR20)</name>
          <description>Type: SR20&#xA;Callsign: SHARK52&#xA;Hex: ae4edc&#xA;Altitude: 8675 ft&#xA;Speed: 150.4 kts&#xA;Heading: 142.3&#xA;Source: adsb.lol</description>
          <Point>
            <coordinates>-105.047388,39.422745,8675</coordinates>
          </Point>
        </Placemark>
        <Placemark>
          <name>BLZR219 (HAWK)</name>
          <description>Type: HAWK&#xA;Callsign: BLZR219&#xA;Hex: ae626f&#xA;Altitude: 14925 ft&#xA;Speed: 417.8 kts&#xA;Heading: 60.6&#xA;Source: adsb.one</description>
          <Point>
            <coordinates>-98.589101,28.306693,14925</coordinates>
          </Point>
        </Placemark>
        <Placemark>
          <name>ae6834 (Unknown Type)</name>
          <description>Type: Unknown Type&#xA;Hex: ae6834&#xA;Altitude: 24700 ft&#xA;Speed: 448.6 kts&#xA;Heading: 96.1&#xA;Source: adsb.lol</description>
          <Point>
            <coordinates>-93.650647,32.228714,24700</coordinates>
          </Point>
        </Placemark>
        <Placemark>
          <name>KATT19 (TEX2)</name>
          <description>Type: TEX2&#xA;Callsign: KATT19&#xA;Hex: ae1148&#xA;Altitude: 3250 ft&#xA;Speed: 269.9 kts&#xA;Heading: 155.7&#xA;Source: adsb.one</description>
          <Point>
            <coordinates>-87.938556,30.387909,3250</coordinates>
          </Point>
        </Placemark>
        <Placemark>
          <name>7cfa94 (B38M)</name>
          <description>Type: B38M&#xA;Hex: 7cfa94&#xA;Altitude: 0 ft&#xA;Speed: 0.0 kts&#xA;Heading: 0.0&#xA;Source: adsb.lol</description>
          <Point>
            <coordinates>149.199668,-35.303821,0</coordinates>
          </Point>
        </Placemark>
        <Placemark>
          <name>RAVN32 (PC21)</name>
          <description>Type: PC21&#xA;Callsign: RAVN32&#xA;Hex: 7cfa05&#xA;Altitude: 2800 ft&#xA;Speed: 233.3 kts&#xA;Heading: 240.5&#xA;Source: adsb.lol</description>
          <Point>
            <coordinates>151.976736,-32.711513,2800</coordinates>
          </Point>
        </Placemark>
        <Placemark>
          <name>HAF356C (C-130 Hercules)</name>
          <description>Type: C-130 Hercules&#xA;Callsign: HAF356C&#xA;Hex: 4682ef&#xA;Altitude: 600 ft&#xA;Speed: 136.0 kts&#xA;Heading: 353.0&#xA;Source: adsb.one</description>
          <Point>
            <coordinates>23.553854,38.009358,600</coordinates>
          </Point>
        </Placemark>
        <Placemark>
          <name>ICY10 (H-60 Black Hawk)</name>
          <description>Type: H-60 Black Hawk&#xA;Callsign: ICY10&#xA;Hex: ae64ac&#xA;Altitude: 500 ft&#xA;Speed: 104.9 kts&#xA;Heading: 259.0&#xA;Source: adsb.lol</description>
          <Point>
            <coordinates>-150.054703,61.358139,500</coordinates>
          </Point>
        </Placemark>
        <Placemark>
          <name>CFC3823 (CL60)</name>
          <description>Type: CL60&#xA;Callsign: CFC3823&#xA;Hex: c2c1f1&#xA;Altitude: 35875 ft&#xA;Speed: 457.1 kts&#xA;Heading: 94.0&#xA;Source: adsb.one</description>
          <Point>
            <coordinates>-145.833639,61.211584,35875</coordinates>
          </Point>
        </Placemark>
        <Placemark>
          <name>BLADE31 (TEX2)</name>
          <description>Type: TEX2&#xA;Callsign: BLADE31&#xA;Hex: ae1e92&#xA;Altitude: 11050 ft&#xA;Speed: 295.2 kts&#xA;Heading: 5.2&#xA;Source: adsb.lol</description>
          <Point>
            <coordinates>-98.632164,34.431478,11050</coordinates>
          </Point>
        </Placemark>
        <Placemark>
          <name>SHOOT35 (T-38 Talon)</name>
          <description>Type: T-38 Talon&#xA;Callsign: SHOOT35&#xA;Hex: ae0034&#xA;Altitude: 5050 ft&#xA;Speed: 309.8 kts&#xA;Heading: 343.5&#xA;Source: adsb.lol</description>
          <Point>
            <coordinates>-97.380402,35.215622,5050</coordinates>
          </Point>
        </Placemark>
        <Placemark>
          <name>MNTNA57 (BE9L)</name>
          <description>Type: BE9L&#xA;Callsign: MNTNA57&#xA;Hex: ae14ae&#xA;Altitude: 4900 ft&#xA;Speed: 180.3 kts&#xA;Heading: 356.5&#xA;Source: adsb.lol</description>
          <Point>
            <coordinates>-96.467231,30.530869,4900</coordinates>
          </Point>
        </Placemark>
        <Placemark>
          <name>RN163 (TEX2)</name>
          <description>Type: TEX2&#xA;Callsign: RN163&#xA;Hex: ae4a2c&#xA;Altitude: 4775 ft&#xA;Speed: 218.5 kts&#xA;Heading: 45.6&#xA;Source: adsb.lol</description>
          <Point>
            <coordinates>-86.78903,30.730591,4775</coordinates>
          </Point>
        </Placemark>
        <Placemark>
          <name>adf7d6 (Unknown Type)</name>
          <description>Type: Unknown Type&#xA;Hex: adf7d6&#xA;Altitude: 0 ft&#xA;Speed: 0.0 kts&#xA;Heading: 0.0&#xA;Source: adsb.one</description>
          <Point>
            <coordinates>0,0,0</coordinates>
          </Point>
        </Placemark>
        <Placemark>
          <name>ae0245 (C30J)</name>
          <description>Type: C30J&#xA;Hex: ae0245&#xA;Altitude: 1500 ft&#xA;Speed: 0.0 kts&#xA;Heading: 0.0&#xA;Source: adsb.lol</description>
          <Point>
            <coordinates>0,0,1500</coordinates>
          </Point>
        </Placemark>
        <Placemark>
          <name>VOID01 (T-38 Talon)</name>
          <description>Type: T-38 Talon&#xA;Callsign: VOID01&#xA;Hex: ae0081&#xA;Altitude: 15500 ft&#xA;Speed: 442.2 kts&#xA;Heading: 160.6&#xA;Source: adsb.one</description>
          <Point>
            <coordinates>-99.701697,33.272232,15500</coordinates>
          </Point>
        </Placemark>
        <Placemark>
          <name>BLZR238 (HAWK)</name>
          <description>Type: HAWK&#xA;Callsign: BLZR238&#xA;Hex: ae627e&#xA;Altitude: 0 ft&#xA;Speed: 292.6 kts&#xA;Heading: 213.8&#xA;Source: adsb.lol</description>
          <Point>
            <coordinates>-98.256226,26.750977,0</coordinates>
          </Point>
        </Placemark>
        <Placemark>
          <name>TACK1 (T-38 Talon)</name>
          <description>Type: T-38 Talon&#xA;Callsign: TACK1&#xA;Hex: ae00e9&#xA;Altitude: 2550 ft&#xA;Speed: 322.9 kts&#xA;Heading: 327.4&#xA;Source: adsb.lol</description>
          <Point>
            <coordinates>-98.194216,29.565857,2550</coordinates>
          </Point>
        </Placemark>
        <Placemark>
          <name>REEF51 (Unknown Type)</name>
          <description>Type: Unknown Type&#xA;Callsign: REEF51&#xA;Hex: adff7b&#xA;Altitude: 10550 ft&#xA;Speed: 315.7 kts&#xA;Heading: 217.9&#xA;Source: adsb.one</description>
          <Point>
            <coordinates>-88.054747,34.080414,10550</coordinates>
          </Point>
        </Placemark>
        <Placemark>
          <name>KATT27 (TEX2)</name>
          <description>Type: TEX2&#xA;Callsign: KATT27&#xA;Hex: ae113c&#xA;Altitude: 800 ft&#xA;Speed: 241.0 kts&#xA;Heading: 257.9&#xA;Source: adsb.one</description>
          <Point>
            <coordinates>-87.098892,30.33502,800</coordinates>
          </Point>
        </Placemark>
        <Placemark>
          <name>MESSY13 (EC45)</name>
          <description>Type: EC45&#xA;Callsign: MESSY13&#xA;Hex: ae2065&#xA;Altitude: 225 ft&#xA;Speed: 82.0 kts&#xA;Heading: 0.7&#xA;Source: adsb.one</description>
          <Point>
            <coordinates>-85.712967,31.269138,225</coordinates>
          </Point>
        </Placemark>
        <Placemark>
          <name>C2309 (CN35)</name>
          <description>Type: CN35&#xA;Callsign: C2309&#xA;Hex: ae2707&#xA;Altitude: 175 ft&#xA;Speed: 119.6 kts&#xA;Heading: 12.1&#xA;Source: adsb.one</description>
          <Point>
            <coordinates>-69.113202,44.01915,175</coordinates>
          </Point>
        </Placemark>
        <Placemark>
          <name>PAT393 (BE20)</name>
          <description>Type: BE20&#xA;Callsign: PAT393&#xA;Hex: adfe91&#xA;Altitude: 14900 ft&#xA;Speed: 234.6 kts&#xA;Heading: 83.4&#xA;Source: adsb.lol</description>
          <Point>
            <coordinates>-120.269508,35.37886,14900</coordinates>
          </Point>
        </Placemark>
        <Placemark>
          <name>STGN05 (G120)</name>
          <description>Type: G120&#xA;Callsign: STGN05&#xA;Hex: c02835&#xA;Altitude: 1800 ft&#xA;Speed: 98.9 kts&#xA;Heading: 7.6&#xA;Source: adsb.lol</description>
          <Point>
            <coordinates>-98.252973,49.935104,1800</coordinates>
          </Point>
        </Placemark>
        <Placemark>
          <name>SQF961 (GL5T)</name>
          <description>Type: GL5T&#xA;Callsign: SQF961&#xA;Hex: 505fa1&#xA;Altitude: 12225 ft&#xA;Speed: 326.8 kts&#xA;Heading: 82.4&#xA;Source: adsb.one</description>
          <Point>
            <coordinates>17.562491,48.248291,12225</coordinates>
          </Point>
        </Placemark>
        <Placemark>
          <name>APLQ3 (TEX2)</name>
          <description>Type: TEX2&#xA;Callsign: APLQ3&#xA;Hex: c2b0ad&#xA;Altitude: 5100 ft&#xA;Speed: 196.4 kts&#xA;Heading: 173.3&#xA;Source: adsb.one</description>
          <Point>
            <coordinates>-105.437453,50.284607,5100</coordinates>
          </Point>
        </Placemark>
        <Placemark>
          <name>RUDY36 (V-22 Osprey)</name>
          <description>Type: V-22 Osprey&#xA;Callsign: RUDY36&#xA;Hex: ae6b9c&#xA;Altitude: 9475 ft&#xA;Speed: 289.3 kts&#xA;Heading: 142.0&#xA;Source: adsb.lol</description>
          <Point>
            <coordinates>-119.64145,34.675003,9475</coordinates>
          </Point>
        </Placemark>
        <Placemark>
          <name>PAIN81 (TEX2)</name>
          <description>Type: TEX2&#xA;Callsign: PAIN81&#xA;Hex: ae08a1&#xA;Altitude: 9650 ft&#xA;Speed: 211.3 kts&#xA;Heading: 289.6&#xA;Source: adsb.one</description>
          <Point>
            <coordinates>-100.374369,29.110519,9650</coordinates>
          </Point>
        </Placemark>
        <Placemark>
          <name>TORO52 (T-38 Talon)</name>
          <description>Type: T-38 Talon&#xA;Callsign: TORO52&#xA;Hex: ae006b&#xA;Altitude: 2975 ft&#xA;Speed: 215.6 kts&#xA;Heading: 121.9&#xA;Source: adsb.one</description>
          <Point>
            <coordinates>-97.926746,31.255498,2975</coordinates>
          </Point>
        </Placemark>
        <Placemark>
          <name>BB158 (TEX2)</name>
          <description>Type: TEX2&#xA;Callsign: BB158&#xA;Hex: ae4a27&#xA;Altitude: 800 ft&#xA;Speed: 232.6 kts&#xA;Heading: 44.8&#xA;Source: adsb.lol</description>
          <Point>
            <coordinates>-89.895414,29.942551,800</coordinates>
          </Point>
        </Placemark>
        <Placemark>
          <name>VM802 (GLF5)</name>
          <description>Type: GLF5&#xA;Callsign: VM802&#xA;Hex: ae152c&#xA;Altitude: 11825 ft&#xA;Speed: 382.4 kts&#xA;Heading: 201.0&#xA;Source: adsb.one</description>
          <Point>
            <coordinates>-89.560439,30.887009,11825</coordinates>
          </Point>
        </Placemark>
        <Placemark>
          <name>RAIDR71 (C30J)</name>
          <description>Type: C30J&#xA;Callsign: RAIDR71&#xA;Hex: ae6c1f&#xA;Altitude: 23000 ft&#xA;Speed: 330.4 kts&#xA;Heading: 98.2&#xA;Source: adsb.one</description>
          <Point>
            <coordinates>-84.34148,34.07254,23000</coordinates>
          </Point>
        </Placemark>
        <Placemark>
          <name>TEST1234 (TWR)</name>
          <description>Type: TWR&#xA;Callsign: TEST1234&#xA;Hex: 400025&#xA;Altitude: 0 ft&#xA;Speed: 0.0 kts&#xA;Heading: 0.0&#xA;Source: adsb.lol</description>
          <Point>
            <coordinates>0,0,0</coordinates>
          </Point>
        </Placemark>
        <Placemark>
          <name>MAMUT33 (A400M Atlas)</name>
          <description>Type: A400M Atlas&#xA;Callsign: MAMUT33&#xA;Hex: 3532c1&#xA;Altitude: 5550 ft&#xA;Speed: 295.0 kts&#xA;Heading: 204.6&#xA;Source: adsb.one</description>
          <Point>
            <coordinates>-0.541016,41.04213,5550</coordinates>
          </Point>
        </Placemark>
        <Placemark>
          <name>GEARS96 (CH-47 Chinook)</name>
          <description>Type: CH-47 Chinook&#xA;Callsign: GEARS96&#xA;Hex: ae5243&#xA;Altitude: 1300 ft&#xA;Speed: 81.0 kts&#xA;Heading: 69.8&#xA;Source: adsb.one</description>
          <Point>
            <coordinates>-85.385138,31.506974,1300</coordinates>
          </Point>
        </Placemark>
        <Placemark>
          <name>ae5975 (AH-64 Apache)</name>
          <description>Type: AH-64 Apache&#xA;Hex: ae5975&#xA;Altitude: 2900 ft&#xA;Speed: 0.0 kts&#xA;Heading: 0.0&#xA;Source: adsb.lol</description>
          <Point>
            <coordinates>0,0,2900</coordinates>
          </Point>
        </Placemark>
        <Placemark>
          <name>KNIFE12 (H-60 Black Hawk)</name>
          <description>Type: H-60 Black Hawk&#xA;Callsign: KNIFE12&#xA;Hex: ae6017&#xA;Altitude: 5200 ft&#xA;Speed: 98.1 kts&#xA;Heading: 272.9&#xA;Source: adsb.one</description>
          <Point>
            <coordinates>-117.597712,33.564468,5200</coordinates>
          </Point>
        </Placemark>
        <Placemark>
          <name>BRCAT14 (TEX2)</name>
          <description>Type: TEX2&#xA;Callsign: BRCAT14&#xA;Hex: ae58e6&#xA;Altitude: 6950 ft&#xA;Speed: 248.2 kts&#xA;Heading: 45.8&#xA;Source: adsb.one</description>
          <Point>
            <coordinates>-103.184547,32.705973,6950</coordinates>
          </Point>
        </Placemark>
        <Placemark>
          <name>SOLID61 (T-38 Talon)</name>
          <description>Type: T-38 Talon&#xA;Callsign: SOLID61&#xA;Hex: ae001d&#xA;Altitude: 4725 ft&#xA;Speed: 336.0 kts&#xA;Heading: 96.3&#xA;Source: adsb.lol</description>
          <Point>
            <coordinates>-98.344688,36.105377,4725</coordinates>
          </Point>
        </Placemark>
        <Placemark>
          <name>BGST307 (BE20)</name>
          <description>Type: BE20&#xA;Callsign: BGST307&#xA;Hex: af20c1&#xA;Altitude: 15700 ft&#xA;Speed: 206.9 kts&#xA;Heading: 236.2&#xA;Source: adsb.one</description>
          <Point>
            <coordinates>-95.98945,28.627991,15700</coordinates>
          </Point>
        </Placemark>
        <Placemark>
          <name>HAWK295 (HAWK)</name>
          <description>Type: HAWK&#xA;Callsign: HAWK295&#xA;Hex: ae6306&#xA;Altitude: 5425 ft&#xA;Speed: 0.0 kts&#xA;Heading: 0.0&#xA;Source: adsb.lol</description>
          <Point>
            <coordinates>0,0,5425</coordinates>
          </Point>
        </Placemark>
        <Placemark>
          <name>SLASH71 (TEX2)</name>
          <description>Type: TEX2&#xA;Callsign: SLASH71&#xA;Hex: ae1721&#xA;Altitude: 7300 ft&#xA;Speed: 110.0 kts&#xA;Heading: 0.0&#xA;Source: adsb.one</description>
          <Point>
            <coordinates>-88.747108,34.011932,7300</coordinates>
          </Point>
        </Placemark>
        <Placemark>
          <name>VV7E642 (A119)</name>
          <description>Type: A119&#xA;Callsign: VV7E642&#xA;Hex: ae73de&#xA;Altitude: 625 ft&#xA;Speed: 81.0 kts&#xA;Heading: 327.9&#xA;Source: adsb.one</description>
          <Point>
            <coordinates>-87.178505,30.807678,625</coordinates>
          </Point>
        </Placemark>
        <Placemark>
          <name>ae6797 (Unknown Type)</name>
          <description>Type: Unknown Type&#xA;Hex: ae6797&#xA;Altitude: 21000 ft&#xA;Speed: 265.0 kts&#xA;Heading: 304.0&#xA;Source: adsb.one</description>
          <Point>
            <coordinates>-80.991939,28.324953,21000</coordinates>
          </Point>
        </Placemark>
        <Placemark>
          <name>FUJCG (A332)</name>
          <description>Type: A332&#xA;Callsign: FUJCG&#xA;Hex: 3b75dd&#xA;Altitude: 100 ft&#xA;Speed: 118.1 kts&#xA;Heading: 152.8&#xA;Source: adsb.lol</description>
          <Point>
            <coordinates>4.903957,43.550782,100</coordinates>
          </Point>
        </Placemark>
        <Placemark>
          <name>JOKER49 (Unknown Type)</name>
          <description>Type: Unknown Type&#xA;Callsign: JOKER49&#xA;Hex: 3f6f33&#xA;Altitude: 1500 ft&#xA;Speed: 61.4 kts&#xA;Heading: 73.9&#xA;Source: adsb.one</description>
          <Point>
            <coordinates>9.938401,49.388214,1500</coordinates>
          </Point>
        </Placemark>
        <Placemark>
          <name>3bb44e (Unknown Type)</name>
          <description>Type: Unknown Type&#xA;Hex: 3bb44e&#xA;Altitude: 0 ft&#xA;Speed: 0.0 kts&#xA;Heading: 0.0&#xA;Source: adsb.lol</description>
          <Point>
            <coordinates>0,0,0</coordinates>
          </Point>
        </Placemark>
        <Placemark>
          <name>ae0421 (KC-135 Stratotanker)</name>
          <description>Type: KC-135 Stratotanker&#xA;Hex: ae0421&#xA;Altitude: 22000 ft&#xA;Speed: 416.0 kts&#xA;Heading: 84.2&#xA;Source: adsb.lol</description>
          <Point>
            <coordinates>0,0,22000</coordinates>
          </Point>
        </Placemark>
        <Placemark>
          <name>TEST1234 (Unknown Type)</name>
          <description>Type: Unknown Type&#xA;Callsign: TEST1234&#xA;Hex: adfbe1&#xA;Altitude: 0 ft&#xA;Speed: 0.0 kts&#xA;Heading: 0.0&#xA;Source: adsb.lol</description>
          <Point>
            <coordinates>0,0,0</coordinates>
          </Point>
        </Placemark>
        <Placemark>
          <name>adf8c3 (Unknown Type)</name>
          <description>Type: Unknown Type&#xA;Hex: adf8c3&#xA;Altitude: 83000 ft&#xA;Speed: 0.0 kts&#xA;Heading: 0.0&#xA;Source: adsb.lol</description>
          <Point>
            <coordinates>0,0,83000</coordinates>
          </Point>
        </Placemark>
        <Placemark>
          <name>SKULL82 (H-60 Black Hawk)</name>
          <description>Type: H-60 Black Hawk&#xA;Callsign: SKULL82&#xA;Hex: ae6da4&#xA;Altitude: 0 ft&#xA;Speed: 8.2 kts&#xA;Heading: 0.0&#xA;Source: adsb.lol</description>
          <Point>
            <coordinates>-106.595893,35.047737,0</coordinates>
          </Point>
        </Placemark>
        <Placemark>
          <name>ae0583 (C-5M Super Galaxy)</name>
          <description>Type: C-5M Super Galaxy&#xA;Hex: ae0583&#xA;Altitude: 1250 ft&#xA;Speed: 162.0 kts&#xA;Heading: 169.0&#xA;Source: adsb.lol</description>
          <Point>
            <coordinates>-98.606295,29.450768,1250</coordinates>
          </Point>
        </Placemark>
        <Placemark>
          <name>ae5f3a (P-8A Poseidon)</name>
          <description>Type: P-8A Poseidon&#xA;Hex: ae5f3a&#xA;Altitude: 31075 ft&#xA;Speed: 377.2 kts&#xA;Heading: 271.8&#xA;Source: adsb.lol</description>
          <Point>
            <coordinates>-85.734827,30.804153,31075</coordinates>
          </Point>
        </Placemark>
        <Placemark>
          <name>RN223 (TEX2)</name>
          <description>Type: TEX2&#xA;Callsign: RN223&#xA;Hex: ae54f1&#xA;Altitude: 2700 ft&#xA;Speed: 196.8 kts&#xA;Heading: 47.9&#xA;Source: adsb.one</description>
          <Point>
            <coordinates>-87.15899,31.533695,2700</coordinates>
          </Point>
        </Placemark>
        <Placemark>
          <name>SH190 (TEX2)</name>
          <description>Type: TEX2&#xA;Callsign: SH190&#xA;Hex: ae4ea8&#xA;Altitude: 5850 ft&#xA;Speed: 217.2 kts&#xA;Heading: 218.1&#xA;Source: adsb.lol</description>
          <Point>
            <coordinates>-85.56804,31.200256,5850</coordinates>
          </Point>
        </Placemark>
        <Placemark>
          <name>WIDGET47 (DH8A)</name>
          <description>Type: DH8A&#xA;Callsign: WIDGET47&#xA;Hex: ae27a6&#xA;Altitude: 7775 ft&#xA;Speed: 168.1 kts&#xA;Heading: 202.8&#xA;Source: adsb.one</description>
          <Point>
            <coordinates>-85.146209,29.139175,7775</coordinates>
          </Point>
        </Placemark>
        <Placemark>
          <name>RIPMO29 (C30J)</name>
          <description>Type: C30J&#xA;Callsign: RIPMO29&#xA;Hex: ae220b&#xA;Altitude: 5150 ft&#xA;Speed: 233.6 kts&#xA;Heading: 155.2&#xA;Source: adsb.lol</description>
          <Point>
            <coordinates>139.483681,35.449173,5150</coordinates>
          </Point>
        </Placemark>
        <Placemark>
          <name>PAT123 (BE20)</name>
          <description>Type: BE20&#xA;Callsign: PAT123&#xA;Hex: ae0631&#xA;Altitude: 0 ft&#xA;Speed: 29.5 kts&#xA;Heading: 0.0&#xA;Source: adsb.one</description>
          <Point>
            <coordinates>-97.588952,35.390128,0</coordinates>
          </Point>
        </Placemark>
        <Placemark>
          <name>RNGR715 (TEX2)</name>
          <description>Type: TEX2&#xA;Callsign: RNGR715&#xA;Hex: ae4a13&#xA;Altitude: 12925 ft&#xA;Speed: 188.1 kts&#xA;Heading: 272.1&#xA;Source: adsb.lol</description>
          <Point>
            <coordinates>-97.32928,27.260056,12925</coordinates>
          </Point>
        </Placemark>
        <Placemark>
          <name>WEIRD86 (EC45)</name>
          <description>Type: EC45&#xA;Callsign: WEIRD86&#xA;Hex: ae5a74&#xA;Altitude: 825 ft&#xA;Speed: 88.5 kts&#xA;Heading: 354.2&#xA;Source: adsb.one</description>
          <Point>
            <coordinates>-85.696765,31.182691,825</coordinates>
          </Point>
        </Placemark>
        <Placemark>
          <name>ROVE17 (TEX2)</name>
          <description>Type: TEX2&#xA;Callsign: ROVE17&#xA;Hex: ae1e87&#xA;Altitude: 9475 ft&#xA;Speed: 266.9 kts&#xA;Heading: 150.4&#xA;Source: adsb.one</description>
          <Point>
            <coordinates>-100.680596,31.388672,9475</coordinates>
          </Point>
        </Placemark>
        <Placemark>
          <name>SYS52 (EC35)</name>
          <description>Type: EC35&#xA;Callsign: SYS52&#xA;Hex: 43c8f9&#xA;Altitude: 0 ft&#xA;Speed: 1.0 kts&#xA;Heading: 260.8&#xA;Source: adsb.one</description>
          <Point>
            <coordinates>-2.662929,52.794613,0</coordinates>
          </Point>
        </Placemark>
        <Placemark>
          <name>SCRCH51 (V-22 Osprey)</name>
          <description>Type: V-22 Osprey&#xA;Callsign: SCRCH51&#xA;Hex: ae6ba1&#xA;Altitude: 1450 ft&#xA;Speed: 224.1 kts&#xA;Heading: 177.9&#xA;Source: adsb.one</description>
          <Point>
            <coordinates>-117.350632,32.803034,1450</coordinates>
          </Point>
        </Placemark>
        <Placemark>
          <name>BLUFF91 (TEX2)</name>
          <description>Type: TEX2&#xA;Callsign: BLUFF91&#xA;Hex: ae1e96&#xA;Altitude: 13025 ft&#xA;Speed: 276.5 kts&#xA;Heading: 146.7&#xA;Source: adsb.lol</description>
          <Point>
            <coordinates>-100.479126,29.039286,13025</coordinates>
          </Point>
        </Placemark>
        <Placemark>
          <name>RAIDR72 (C30J)</name>
          <description>Type: C30J&#xA;Callsign: RAIDR72&#xA;Hex: ae2f99&#xA;Altitude: 21000 ft&#xA;Speed: 330.8 kts&#xA;Heading: 71.7&#xA;Source: adsb.lol</description>
          <Point>
            <coordinates>-85.866394,33.959976,21000</coordinates>
          </Point>
        </Placemark>
        <Placemark>
          <name>TEST1234 (Unknown Type)</name>
          <description>Type: Unknown Type&#xA;Callsign: TEST1234&#xA;Hex: adf994&#xA;Altitude: 0 ft&#xA;Speed: 0.0 kts&#xA;Heading: 0.0&#xA;Source: adsb.lol</description>
          <Point>
            <coordinates>0,0,0</coordinates>
          </Point>
        </Placemark>
        <Placemark>
          <name>adfb0f (Unknown Type)</name>
          <description>Type: Unknown Type&#xA;Hex: adfb0f&#xA;Altitude: 83000 ft&#xA;Speed: 0.0 kts&#xA;Heading: 0.0&#xA;Source: adsb.one</description>
          <Point>
            <coordinates>0,0,83000</coordinates>
          </Point>
        </Placemark>
        <Placemark>
          <name>MNTNA65 (BE9L)</name>
          <description>Type: BE9L&#xA;Callsign: MNTNA65&#xA;Hex: ae14ba&#xA;Altitude: 3975 ft&#xA;Speed: 178.0 kts&#xA;Heading: 315.0&#xA;Source: adsb.one</description>
          <Point>
            <coordinates>-97.815453,27.713291,3975</coordinates>
          </Point>
        </Placemark>
        <Placemark>
          <name>GOAT03 (TEX2)</name>
          <description>Type: TEX2&#xA;Callsign: GOAT03&#xA;Hex: ae1e68&#xA;Altitude: 675 ft&#xA;Speed: 118.5 kts&#xA;Heading: 99.2&#xA;Source: adsb.one</description>
          <Point>
            <coordinates>-98.485323,29.339408,675</coordinates>
          </Point>
        </Placemark>
        <Placemark>
          <name>PREY21 (TEX2)</name>
          <description>Type: TEX2&#xA;Callsign: PREY21&#xA;Hex: ae01eb&#xA;Altitude: 9150 ft&#xA;Speed: 246.3 kts&#xA;Heading: 2.8&#xA;Source: adsb.lol</description>
          <Point>
            <coordinates>-98.073874,28.873979,9150</coordinates>
          </Point>
        </Placemark>
        <Placemark>
          <name>BALL57 (TEX2)</name>
          <description>Type: TEX2&#xA;Callsign: BALL57&#xA;Hex: ae172a&#xA;Altitude: 2975 ft&#xA;Speed: 202.9 kts&#xA;Heading: 125.6&#xA;Source: adsb.lol</description>
          <Point>
            <coordinates>-97.259275,35.451438,2975</coordinates>
          </Point>
        </Placemark>
        <Placemark>
          <name>GRZL44 (DH8A)</name>
          <description>Type: DH8A&#xA;Callsign: GRZL44&#xA;Hex: c2b2dd&#xA;Altitude: 11900 ft&#xA;Speed: 237.7 kts&#xA;Heading: 184.3&#xA;Source: adsb.lol</description>
          <Point>
            <coordinates>-97.078684,50.075218,11900</coordinates>
          </Point>
        </Placemark>
        <Placemark>
          <name>MESSY35 (EC45)</name>
          <description>Type: EC45&#xA;Callsign: MESSY35&#xA;Hex: ae1f84&#xA;Altitude: 800 ft&#xA;Speed: 96.2 kts&#xA;Heading: 290.7&#xA;Source: adsb.one</description>
          <Point>
            <coordinates>-85.576794,31.210017,800</coordinates>
          </Point>
        </Placemark>
        <Placemark>
          <name>00000000 (Unknown Type)</name>
          <description>Type: Unknown Type&#xA;Callsign: 00000000&#xA;Hex: adf8ce&#xA;Altitude: 70000 ft&#xA;Speed: 0.7 kts&#xA;Heading: 0.0&#xA;Source: adsb.lol</description>
          <Point>
            <coordinates>0,0,70000</coordinates>
          </Point>
        </Placemark>
        <Placemark>
          <name>35152b (Unknown Type)</name>
          <description>Type: Unknown Type&#xA;Hex: 35152b&#xA;Altitude: 75400 ft&#xA;Speed: 0.0 kts&#xA;Heading: 0.0&#xA;Source: adsb.lol</description>
          <Point>
            <coordinates>0,0,75400</coordinates>
          </Point>
        </Placemark>
        <Placemark>
          <name>LS30 (H-60 Black Hawk)</name>
          <description>Type: H-60 Black Hawk&#xA;Callsign: LS30&#xA;Hex: ae2762&#xA;Altitude: 0 ft&#xA;Speed: 38.3 kts&#xA;Heading: 105.1&#xA;Source: adsb.lol</description>
          <Point>
            <coordinates>-117.111621,32.566269,0</coordinates>
          </Point>
        </Placemark>
        <Placemark>
          <name>DUKE88 (TEX2)</name>
          <description>Type: TEX2&#xA;Callsign: DUKE88&#xA;Hex: ae13ca&#xA;Altitude: 5950 ft&#xA;Speed: 210.2 kts&#xA;Heading: 177.6&#xA;Source: adsb.one</description>
          <Point>
            <coordinates>-97.66222,36.70816,5950</coordinates>
          </Point>
        </Placemark>
        <Placemark>
          <name>445566 (Unknown Type)</name>
          <description>Type: Unknown Type&#xA;Hex: 445566&#xA;Altitude: 0 ft&#xA;Speed: 0.0 kts&#xA;Heading: 0.0&#xA;Source: adsb.one</description>
          <Point>
            <coordinates>0,0,0</coordinates>
          </Point>
        </Placemark>
        <Placemark>
          <name>CHAOS17 (AH-64 Apache)</name>
          <description>Type: AH-64 Apache&#xA;Callsign: CHAOS17&#xA;Hex: ae6dc4&#xA;Altitude: 500 ft&#xA;Speed: 109.3 kts&#xA;Heading: 214.6&#xA;Source: adsb.one</description>
          <Point>
            <coordinates>-81.153764,33.898727,500</coordinates>
          </Point>
        </Placemark>
        <Placemark>
          <name>CATMAN2 (T-38 Talon)</name>
          <description>Type: T-38 Talon&#xA;Callsign: CATMAN2&#xA;Hex: ae003b&#xA;Altitude: 16125 ft&#xA;Speed: 465.7 kts&#xA;Heading: 141.8&#xA;Source: adsb.one</description>
          <Point>
            <coordinates>-99.295134,29.728538,16125</coordinates>
          </Point>
        </Placemark>
        <Placemark>
          <name>KATT22 (TEX2)</name>
          <description>Type: TEX2&#xA;Callsign: KATT22&#xA;Hex: ae114d&#xA;Altitude: 4325 ft&#xA;Speed: 305.0 kts&#xA;Heading: 101.3&#xA;Source: adsb.one</description>
          <Point>
            <coordinates>-87.89321,30.328033,4325</coordinates>
          </Point>
        </Placemark>
        <Placemark>
          <name>TEST1234 (Unknown Type)</name>
          <description>Type: Unknown Type&#xA;Callsign: TEST1234&#xA;Hex: 40003e&#xA;Altitude: 0 ft&#xA;Speed: 0.0 kts&#xA;Heading: 0.0&#xA;Source: adsb.one</description>
          <Point>
            <coordinates>0,0,0</coordinates>
          </Point>
        </Placemark>
        <Placemark>
          <name>35fe69 (Unknown Type)</name>
          <description>Type: Unknown Type&#xA;Hex: 35fe69&#xA;Altitude: 75000 ft&#xA;Speed: 0.0 kts&#xA;Heading: 0.0&#xA;Source: adsb.lol</description>
          <Point>
            <coordinates>0,0,75000</coordinates>
          </Point>
        </Placemark>
        <Placemark>
          <name>adfe71 (C-130 Hercules)</name>
          <description>Type: C-130 Hercules&#xA;Hex: adfe71&#xA;Altitude: 1700 ft&#xA;Speed: 0.0 kts&#xA;Heading: 0.0&#xA;Source: adsb.lol</description>
          <Point>
            <coordinates>0,0,1700</coordinates>
          </Point>
        </Placemark>
        <Placemark>
          <name>400032 (Unknown Type)</name>
          <description>Type: Unknown Type&#xA;Hex: 400032&#xA;Altitude: 0 ft&#xA;Speed: 0.0 kts&#xA;Heading: 0.0&#xA;Source: adsb.one</description>
          <Point>
            <coordinates>0,0,0</coordinates>
          </Point>
        </Placemark>
        <Placemark>
          <name>40002e (Unknown Type)</name>
          <description>Type: Unknown Type&#xA;Hex: 40002e&#xA;Altitude: 0 ft&#xA;Speed: 157.5 kts&#xA;Heading: 208.1&#xA;Source: adsb.lol</description>
          <Point>
            <coordinates>0,0,0</coordinates>
          </Point>
        </Placemark>
        <Placemark>
          <name>N43128 (P28A)</name>
          <description>Type: P28A&#xA;Callsign: N43128&#xA;Hex: a52994&#xA;Altitude: 1700 ft&#xA;Speed: 109.2 kts&#xA;Heading: 155.1&#xA;Source: adsb.lol</description>
          <Point>
            <coordinates>-71.352206,42.54213,1700</coordinates>
          </Point>
        </Placemark>
        <Placemark>
          <name>GHOST41 (TEX2)</name>
          <description>Type: TEX2&#xA;Callsign: GHOST41&#xA;Hex: ae0899&#xA;Altitude: 10125 ft&#xA;Speed: 219.9 kts&#xA;Heading: 40.6&#xA;Source: adsb.one</description>
          <Point>
            <coordinates>-98.341656,34.236564,10125</coordinates>
          </Point>
        </Placemark>
        <Placemark>
          <name>SKULL44 (TEX2)</name>
          <description>Type: TEX2&#xA;Callsign: SKULL44&#xA;Hex: ae1741&#xA;Altitude: 10925 ft&#xA;Speed: 244.2 kts&#xA;Heading: 340.4&#xA;Source: adsb.lol</description>
          <Point>
            <coordinates>-97.844238,34.273773,10925</coordinates>
          </Point>
        </Placemark>
        <Placemark>
          <name>BOBCT51 (HAWK)</name>
          <description>Type: HAWK&#xA;Callsign: BOBCT51&#xA;Hex: ae62ac&#xA;Altitude: 15850 ft&#xA;Speed: 377.3 kts&#xA;Heading: 32.5&#xA;Source: adsb.lol</description>
          <Point>
            <coordinates>-89.282582,31.868498,15850</coordinates>
          </Point>
        </Placemark>
        <Placemark>
          <name>KY3 (T-38 Talon)</name>
          <description>Type: T-38 Talon&#xA;Callsign: KY3&#xA;Hex: ae00e6&#xA;Altitude: 12675 ft&#xA;Speed: 335.4 kts&#xA;Heading: 255.7&#xA;Source: adsb.lol</description>
          <Point>
            <coordinates>-87.989616,33.746322,12675</coordinates>
          </Point>
        </Placemark>
        <Placemark>
          <name>ae6793 (Unknown Type)</name>
          <description>Type: Unknown Type&#xA;Hex: ae6793&#xA;Altitude: 3375 ft&#xA;Speed: 150.0 kts&#xA;Heading: 156.0&#xA;Source: adsb.one</description>
          <Point>
            <coordinates>-119.397011,47.335831,3375</coordinates>
          </Point>
        </Placemark>
        <Placemark>
          <name>MNTNA34 (BE9L)</name>
          <description>Type: BE9L&#xA;Callsign: MNTNA34&#xA;Hex: ae14c2&#xA;Altitude: 6925 ft&#xA;Speed: 182.0 kts&#xA;Heading: 39.2&#xA;Source: adsb.one</description>
          <Point>
            <coordinates>-97.221195,28.148509,6925</coordinates>
          </Point>
        </Placemark>
        <Placemark>
          <name>SH224 (TEX2)</name>
          <description>Type: TEX2&#xA;Callsign: SH224&#xA;Hex: ae54f2&#xA;Altitude: 1775 ft&#xA;Speed: 216.8 kts&#xA;Heading: 230.8&#xA;Source: adsb.lol</description>
          <Point>
            <coordinates>-88.256297,30.644348,1775</coordinates>
          </Point>
        </Placemark>
        <Placemark>
          <name>RN110 (TEX2)</name>
          <description>Type: TEX2&#xA;Callsign: RN110&#xA;Hex: ae2eeb&#xA;Altitude: 2875 ft&#xA;Speed: 207.4 kts&#xA;Heading: 194.2&#xA;Source: adsb.lol</description>
          <Point>
            <coordinates>-88.071199,30.556915,2875</coordinates>
          </Point>
        </Placemark>
        <Placemark>
          <name>FOXX373 (BE20)</name>
          <description>Type: BE20&#xA;Callsign: FOXX373&#xA;Hex: ae06e4&#xA;Altitude: 19125 ft&#xA;Speed: 168.3 kts&#xA;Heading: 209.2&#xA;Source: adsb.lol</description>
          <Point>
            <coordinates>-74.742554,39.552131,19125</coordinates>
          </Point>
        </Placemark>
        <Placemark>
          <name>HAWK282 (Unknown Type)</name>
          <description>Type: Unknown Type&#xA;Callsign: HAWK282&#xA;Hex: ae62fa&#xA;Altitude: 4450 ft&#xA;Speed: 202.0 kts&#xA;Heading: 74.2&#xA;Source: adsb.one</description>
          <Point>
            <coordinates>-97.579559,27.294554,4450</coordinates>
          </Point>
        </Placemark>
        <Placemark>
          <name>DEVIL73 (TEX2)</name>
          <description>Type: TEX2&#xA;Callsign: DEVIL73&#xA;Hex: ae1117&#xA;Altitude: 8175 ft&#xA;Speed: 182.0 kts&#xA;Heading: 100.5&#xA;Source: adsb.lol</description>
          <Point>
            <coordinates>-100.51747,28.967642,8175</coordinates>
          </Point>
        </Placemark>
        <Placemark>
          <name>JOKEY11 (EC45)</name>
          <description>Type: EC45&#xA;Callsign: JOKEY11&#xA;Hex: ae5a78&#xA;Altitude: 1300 ft&#xA;Speed: 99.0 kts&#xA;Heading: 348.4&#xA;Source: adsb.one</description>
          <Point>
            <coordinates>-86.343915,31.090331,1300</coordinates>
          </Point>
        </Placemark>
        <Placemark>
          <name>GAFTT07 (Unknown Type)</name>
          <description>Type: Unknown Type&#xA;Callsign: GAFTT07&#xA;Hex: 3ea3b0&#xA;Altitude: 62700 ft&#xA;Speed: 0.0 kts&#xA;Heading: 0.0&#xA;Source: adsb.one</description>
          <Point>
            <coordinates>0,0,62700</coordinates>
          </Point>
        </Placemark>
        <Placemark>
          <name>R43532 (AH-64 Apache)</name>
          <description>Type: AH-64 Apache&#xA;Callsign: R43532&#xA;Hex: af09ce&#xA;Altitude: 4400 ft&#xA;Speed: 126.0 kts&#xA;Heading: 98.5&#xA;Source: adsb.one</description>
          <Point>
            <coordinates>-106.155342,31.99284,4400</coordinates>
          </Point>
        </Placemark>
        <Placemark>
          <name>C6597 (AS65)</name>
          <description>Type: AS65&#xA;Callsign: C6597&#xA;Hex: ae26b7&#xA;Altitude: 125 ft&#xA;Speed: 45.9 kts&#xA;Heading: 343.5&#xA;Source: adsb.one</description>
          <Point>
            <coordinates>-80.970062,29.964512,125</coordinates>
          </Point>
        </Placemark>
        <Placemark>
          <name>BRCAT01 (TEX2)</name>
          <description>Type: TEX2&#xA;Callsign: BRCAT01&#xA;Hex: ae4ea1&#xA;Altitude: 12025 ft&#xA;Speed: 89.5 kts&#xA;Heading: 244.9&#xA;Source: adsb.lol</description>
          <Point>
            <coordinates>-104.86893,33.21558,12025</coordinates>
          </Point>
        </Placemark>
        <Placemark>
          <name>BASHA91 (T-38 Talon)</name>
          <description>Type: T-38 Talon&#xA;Callsign: BASHA91&#xA;Hex: ae00a0&#xA;Altitude: 10400 ft&#xA;Speed: 479.6 kts&#xA;Heading: 6.0&#xA;Source: adsb.lol</description>
          <Point>
            <coordinates>-99.3052,33.538467,10400</coordinates>
          </Point>
        </Placemark>
        <Placemark>
          <name>BLZR289 (HAWK)</name>
          <description>Type: HAWK&#xA;Callsign: BLZR289&#xA;Hex: ae6300&#xA;Altitude: 14950 ft&#xA;Speed: 279.3 kts&#xA;Heading: 213.5&#xA;Source: adsb.lol</description>
          <Point>
            <coordinates>-98.262511,26.754968,14950</coordinates>
          </Point>
        </Placemark>
        <Placemark>
          <name>ELDER1 (T-38 Talon)</name>
          <description>Type: T-38 Talon&#xA;Callsign: ELDER1&#xA;Hex: ae00fa&#xA;Altitude: 11775 ft&#xA;Speed: 335.3 kts&#xA;Heading: 177.8&#xA;Source: adsb.one</description>
          <Point>
            <coordinates>-98.223491,34.594894,11775</coordinates>
          </Point>
        </Placemark>
        <Placemark>
          <name>LOOT88 (TEX2)</name>
          <description>Type: TEX2&#xA;Callsign: LOOT88&#xA;Hex: ae13a1&#xA;Altitude: 5875 ft&#xA;Speed: 266.0 kts&#xA;Heading: 329.0&#xA;Source: adsb.one</description>
          <Point>
            <coordinates>-97.582226,35.835068,5875</coordinates>
          </Point>
        </Placemark>
        <Placemark>
          <name>ae0388 (KC-135 Stratotanker)</name>
          <description>Type: KC-135 Stratotanker&#xA;Hex: ae0388&#xA;Altitude: 35025 ft&#xA;Speed: 0.0 kts&#xA;Heading: 0.0&#xA;Source: adsb.lol</description>
          <Point>
            <coordinates>0,0,35025</coordinates>
          </Point>
        </Placemark>
        <Placemark>
          <name>XA405 (A332)</name>
          <description>Type: A332&#xA;Callsign: XA405&#xA;Hex: 7cf867&#xA;Altitude: 30000 ft&#xA;Speed: 492.0 kts&#xA;Heading: 207.8&#xA;Source: adsb.one</description>
          <Point>
            <coordinates>-163.181992,14.088421,30000</coordinates>
          </Point>
        </Placemark>
        <Placemark>
          <name>SHOOT08 (T-38 Talon)</name>
          <description>Type: T-38 Talon&#xA;Callsign: SHOOT08&#xA;Hex: ae0036&#xA;Altitude: 0 ft&#xA;Speed: 0.0 kts&#xA;Heading: 0.0&#xA;Source: adsb.one</description>
          <Point>
            <coordinates>0,0,0</coordinates>
          </Point>
        </Placemark>
        <Placemark>
          <name>LUZON41 (TEX2)</name>
          <description>Type: TEX2&#xA;Callsign: LUZON41&#xA;Hex: ae0898&#xA;Altitude: 9525 ft&#xA;Speed: 217.4 kts&#xA;Heading: 206.2&#xA;Source: adsb.lol</description>
          <Point>
            <coordinates>-97.957588,29.116379,9525</coordinates>
          </Point>
        </Placemark>
        <Placemark>
          <name>TEXN086 (TEX2)</name>
          <description>Type: TEX2&#xA;Callsign: TEXN086&#xA;Hex: ae2ed3&#xA;Altitude: 10800 ft&#xA;Speed: 229.6 kts&#xA;Heading: 245.6&#xA;Source: adsb.one</description>
          <Point>
            <coordinates>-89.449607,30.074203,10800</coordinates>
          </Point>
        </Placemark>
        <Placemark>
          <name>R20938 (H-60 Black Hawk)</name>
          <description>Type: H-60 Black Hawk&#xA;Callsign: R20938&#xA;Hex: ae6019&#xA;Altitude: 150 ft&#xA;Speed: 56.1 kts&#xA;Heading: 58.9&#xA;Source: adsb.one</description>
          <Point>
            <coordinates>-75.768716,44.072586,150</coordinates>
          </Point>
        </Placemark>
        <Placemark>
          <name>TEST1234 (TWR)</name>
          <description>Type: TWR&#xA;Callsign: TEST1234&#xA;Hex: adfbde&#xA;Altitude: 0 ft&#xA;Speed: 0.0 kts&#xA;Heading: 0.0&#xA;Source: adsb.lol</description>
          <Point>
            <coordinates>0,0,0</coordinates>
          </Point>
        </Placemark>
        <Placemark>
          <name>TEST1234 (Unknown Type)</name>
          <description>Type: Unknown Type&#xA;Callsign: TEST1234&#xA;Hex: adf992&#xA;Altitude: 0 ft&#xA;Speed: 0.0 kts&#xA;Heading: 0.0&#xA;Source: adsb.lol</description>
          <Point>
            <coordinates>0,0,0</coordinates>
          </Point>
        </Placemark>
        <Placemark>
          <name>TEST1234 (TWR)</name>
          <description>Type: TWR&#xA;Callsign: TEST1234&#xA;Hex: adfbdd&#xA;Altitude: 0 ft&#xA;Speed: 0.0 kts&#xA;Heading: 0.0&#xA;Source: adsb.lol</description>
          <Point>
            <coordinates>0,0,0</coordinates>
          </Point>
        </Placemark>
        <Placemark>
          <name>ae223b (CN35)</name>
          <description>Type: CN35&#xA;Hex: ae223b&#xA;Altitude: 1475 ft&#xA;Speed: 184.0 kts&#xA;Heading: 180.0&#xA;Source: adsb.one</description>
          <Point>
            <coordinates>0,0,1475</coordinates>
          </Point>
        </Placemark>
        <Placemark>
          <name>ae67b5 (Unknown Type)</name>
          <description>Type: Unknown Type&#xA;Hex: ae67b5&#xA;Altitude: 0 ft&#xA;Speed: 9.8 kts&#xA;Heading: 0.0&#xA;Source: adsb.one</description>
          <Point>
            <coordinates>-122.651837,48.341543,0</coordinates>
          </Point>
        </Placemark>
        <Placemark>
          <name>37b66e (Unknown Type)</name>
          <description>Type: Unknown Type&#xA;Hex: 37b66e&#xA;Altitude: 44875 ft&#xA;Speed: 0.0 kts&#xA;Heading: 0.0&#xA;Source: adsb.lol</description>
          <Point>
            <coordinates>0,0,44875</coordinates>
          </Point>
        </Placemark>
        <Placemark>
          <name>36ab6d (Unknown Type)</name>
          <description>Type: Unknown Type&#xA;Hex: 36ab6d&#xA;Altitude: 0 ft&#xA;Speed: 0.0 kts&#xA;Heading: 0.0&#xA;Source: adsb.lol</description>
          <Point>
            <coordinates>0,0,0</coordinates>
          </Point>
        </Placemark>
        <Placemark>
          <name>ae04e6 (KC-135 Stratotanker)</name>
          <description>Type: KC-135 Stratotanker&#xA;Hex: ae04e6&#xA;Altitude: 33000 ft&#xA;Speed: 0.0 kts&#xA;Heading: 0.0&#xA;Source: adsb.lol</description>
          <Point>
            <coordinates>0,0,33000</coordinates>
          </Point>
        </Placemark>
        <Placemark>
          <name>MAKO10 (H-60 Black Hawk)</name>
          <description>Type: H-60 Black Hawk&#xA;Callsign: MAKO10&#xA;Hex: ae6031&#xA;Altitude: 6900 ft&#xA;Speed: 127.9 kts&#xA;Heading: 28.0&#xA;Source: adsb.one</description>
          <Point>
            <coordinates>-120.622501,35.421707,6900</coordinates>
          </Point>
        </Placemark>
        <Placemark>
          <name>BLUFF72 (TEX2)</name>
          <description>Type: TEX2&#xA;Callsign: BLUFF72&#xA;Hex: ae1115&#xA;Altitude: 10225 ft&#xA;Speed: 250.2 kts&#xA;Heading: 56.2&#xA;Source: adsb.one</description>
          <Point>
            <coordinates>-100.252021,29.409097,10225</coordinates>
          </Point>
        </Placemark>
        <Placemark>
          <name>TACK3 (T-38 Talon)</name>
          <description>Type: T-38 Talon&#xA;Callsign: TACK3&#xA;Hex: ae00d7&#xA;Altitude: 2475 ft&#xA;Speed: 294.8 kts&#xA;Heading: 121.3&#xA;Source: adsb.lol</description>
          <Point>
            <coordinates>-98.274976,29.537567,2475</coordinates>
          </Point>
        </Placemark>
        <Placemark>
          <name>PAT979 (SW4)</name>
          <description>Type: SW4&#xA;Callsign: PAT979&#xA;Hex: adfd80&#xA;Altitude: 15925 ft&#xA;Speed: 289.7 kts&#xA;Heading: 239.3&#xA;Source: adsb.one</description>
          <Point>
            <coordinates>-96.64975,30.838856,15925</coordinates>
          </Point>
        </Placemark>
        <Placemark>
          <name>CHAMP55 (H-60 Black Hawk)</name>
          <description>Type: H-60 Black Hawk&#xA;Callsign: CHAMP55&#xA;Hex: ae77ce&#xA;Altitude: 1350 ft&#xA;Speed: 104.0 kts&#xA;Heading: 144.8&#xA;Source: adsb.one</description>
          <Point>
            <coordinates>-88.30025,30.757622,1350</coordinates>
          </Point>
        </Placemark>
        <Placemark>
          <name>WEIRD42 (EC45)</name>
          <description>Type: EC45&#xA;Callsign: WEIRD42&#xA;Hex: ae5a71&#xA;Altitude: 775 ft&#xA;Speed: 87.0 kts&#xA;Heading: 268.7&#xA;Source: adsb.one</description>
          <Point>
            <coordinates>-85.735275,31.165234,775</coordinates>
          </Point>
        </Placemark>
        <Placemark>
          <name>G9526652 (H-60 Black Hawk)</name>
          <description>Type: H-60 Black Hawk&#xA;Callsign: G9526652&#xA;Hex: ae0e3d&#xA;Altitude: 3900 ft&#xA;Speed: 0.0 kts&#xA;Heading: 0.0&#xA;Source: adsb.lol</description>
          <Point>
            <coordinates>0,0,3900</coordinates>
          </Point>
        </Placemark>
        <Placemark>
          <name>MRPHY89 (Unknown Type)</name>
          <description>Type: Unknown Type&#xA;Callsign: MRPHY89&#xA;Hex: 3f7949&#xA;Altitude: 700 ft&#xA;Speed: 0.0 kts&#xA;Heading: 0.0&#xA;Source: adsb.one</description>
          <Point>
            <coordinates>0,0,700</coordinates>
          </Point>
        </Placemark>
        <Placemark>
          <name>BALL52 (TEX2)</name>
          <description>Type: TEX2&#xA;Callsign: BALL52&#xA;Hex: ae141a&#xA;Altitude: 2850 ft&#xA;Speed: 165.0 kts&#xA;Heading: 0.3&#xA;Source: adsb.lol</description>
          <Point>
            <coordinates>-97.382696,35.417827,2850</coordinates>
          </Point>
        </Placemark>
        <Placemark>
          <name>PAT375 (BE20)</name>
          <description>Type: BE20&#xA;Callsign: PAT375&#xA;Hex: ae03fa&#xA;Altitude: 26000 ft&#xA;Speed: 235.5 kts&#xA;Heading: 249.1&#xA;Source: adsb.lol</description>
          <Point>
            <coordinates>-91.176658,32.375731,26000</coordinates>
          </Point>
        </Placemark>
        <Placemark>
          <name>BELLS80 (EC45)</name>
          <description>Type: EC45&#xA;Callsign: BELLS80&#xA;Hex: ae6335&#xA;Altitude: 1250 ft&#xA;Speed: 103.1 kts&#xA;Heading: 199.8&#xA;Source: adsb.lol</description>
          <Point>
            <coordinates>-85.359838,31.233856,1250</coordinates>
          </Point>
        </Placemark>
        <Placemark>
          <name>R33507 (AH-64 Apache)</name>
          <description>Type: AH-64 Apache&#xA;Callsign: R33507&#xA;Hex: af53b8&#xA;Altitude: 1400 ft&#xA;Speed: 77.1 kts&#xA;Heading: 45.5&#xA;Source: adsb.lol</description>
          <Point>
            <coordinates>-79.452957,35.187698,1400</coordinates>
          </Point>
        </Placemark>
        <Placemark>
          <name>ae1e94 (TEX2)</name>
          <description>Type: TEX2&#xA;Hex: ae1e94&#xA;Altitude: 0 ft&#xA;Speed: 0.0 kts&#xA;Heading: 0.0&#xA;Source: adsb.one</description>
          <Point>
            <coordinates>0,0,0</coordinates>
          </Point>
        </Placemark>
        <Placemark>
          <name>DEALS98 (EC45)</name>
          <description>Type: EC45&#xA;Callsign: DEALS98&#xA;Hex: ae5a89&#xA;Altitude: 1950 ft&#xA;Speed: 87.0 kts&#xA;Heading: 49.4&#xA;Source: adsb.one</description>
          <Point>
            <coordinates>-86.028816,31.212799,1950</coordinates>
          </Point>
        </Placemark>
        <Placemark>
          <name>ae4130 (Unknown Type)</name>
          <description>Type: Unknown Type&#xA;Hex: ae4130&#xA;Altitude: 0 ft&#xA;Speed: 108.9 kts&#xA;Heading: 100.6&#xA;Source: adsb.one</description>
          <Point>
            <coordinates>0,0,0</coordinates>
          </Point>
        </Placemark>
        <Placemark>
          <name>NUKED35 (EC45)</name>
          <description>Type: EC45&#xA;Callsign: NUKED35&#xA;Hex: ae1fc3&#xA;Altitude: 750 ft&#xA;Speed: 67.0 kts&#xA;Heading: 60.5&#xA;Source: adsb.one</description>
          <Point>
            <coordinates>-85.709618,31.149639,750</coordinates>
          </Point>
        </Placemark>
        <Placemark>
          <name>TACO19 (C30J)</name>
          <description>Type: C30J&#xA;Callsign: TACO19&#xA;Hex: ae596d&#xA;Altitude: 20000 ft&#xA;Speed: 292.4 kts&#xA;Heading: 306.5&#xA;Source: adsb.one</description>
          <Point>
            <coordinates>-82.206654,28.736883,20000</coordinates>
          </Point>
        </Placemark>
        <Placemark>
          <name>TEST1234 (Unknown Type)</name>
          <description>Type: Unknown Type&#xA;Callsign: TEST1234&#xA;Hex: adf996&#xA;Altitude: 0 ft&#xA;Speed: 0.0 kts&#xA;Heading: 0.0&#xA;Source: adsb.lol</description>
          <Point>
            <coordinates>0,0,0</coordinates>
          </Point>
        </Placemark>
        <Placemark>
          <name>TALON55 (HAWK)</name>
          <description>Type: HAWK&#xA;Callsign: TALON55&#xA;Hex: ae62f4&#xA;Altitude: 0 ft&#xA;Speed: 0.0 kts&#xA;Heading: 0.0&#xA;Source: adsb.one</description>
          <Point>
            <coordinates>0,0,0</coordinates>
          </Point>
        </Placemark>
        <Placemark>
          <name>MNTNA23 (BE9L)</name>
          <description>Type: BE9L&#xA;Callsign: MNTNA23&#xA;Hex: ae14a1&#xA;Altitude: 1525 ft&#xA;Speed: 110.0 kts&#xA;Heading: 134.7&#xA;Source: adsb.one</description>
          <Point>
            <coordinates>-97.365753,27.759798,1525</coordinates>
          </Point>
        </Placemark>
        <Placemark>
          <name>KNOBBY1 (T-38 Talon)</name>
          <description>Type: T-38 Talon&#xA;Callsign: KNOBBY1&#xA;Hex: ae00bb&#xA;Altitude: 16925 ft&#xA;Speed: 446.9 kts&#xA;Heading: 212.5&#xA;Source: adsb.one</description>
          <Point>
            <coordinates>-88.507597,33.926697,16925</coordinates>
          </Point>
        </Placemark>
        <Placemark>
          <name>C6585 (AS65)</name>
          <description>Type: AS65&#xA;Callsign: C6585&#xA;Hex: ae26ab&#xA;Altitude: 300 ft&#xA;Speed: 81.2 kts&#xA;Heading: 356.5&#xA;Source: adsb.lol</description>
          <Point>
            <coordinates>-88.10321,30.335859,300</coordinates>
          </Point>
        </Placemark>
        <Placemark>
          <name>ae048c (KC-135 Stratotanker)</name>
          <description>Type: KC-135 Stratotanker&#xA;Hex: ae048c&#xA;Altitude: 17775 ft&#xA;Speed: 460.0 kts&#xA;Heading: 120.0&#xA;Source: adsb.one</description>
          <Point>
            <coordinates>-72.100294,43.628552,17775</coordinates>
          </Point>
        </Placemark>
        <Placemark>
          <name>BOMR736 (TEX2)</name>
          <description>Type: TEX2&#xA;Callsign: BOMR736&#xA;Hex: ae1ed1&#xA;Altitude: 1600 ft&#xA;Speed: 153.0 kts&#xA;Heading: 191.6&#xA;Source: adsb.one</description>
          <Point>
            <coordinates>-97.390945,27.834641,1600</coordinates>
          </Point>
        </Placemark>
        <Placemark>
          <name>RCH549 (C-17 Globemaster III)</name>
          <description>Type: C-17 Globemaster III&#xA;Callsign: RCH549&#xA;Hex: ae123d&#xA;Altitude: 21075 ft&#xA;Speed: 349.0 kts&#xA;Heading: 283.0&#xA;Source: adsb.lol</description>
          <Point>
            <coordinates>-6.029141,55.486713,21075</coordinates>
          </Point>
        </Placemark>
        <Placemark>
          <name>REY00 (BE20)</name>
          <description>Type: BE20&#xA;Callsign: REY00&#xA;Hex: ae06db&#xA;Altitude: 16100 ft&#xA;Speed: 239.1 kts&#xA;Heading: 284.0&#xA;Source: adsb.one</description>
          <Point>
            <coordinates>-115.425714,32.776978,16100</coordinates>
          </Point>
        </Placemark>
        <Placemark>
          <name>WATTS74 (EC45)</name>
          <description>Type: EC45&#xA;Callsign: WATTS74&#xA;Hex: ae1f4b&#xA;Altitude: 4000 ft&#xA;Speed: 98.5 kts&#xA;Heading: 302.6&#xA;Source: adsb.one</description>
          <Point>
            <coordinates>-111.83869,32.848562,4000</coordinates>
          </Point>
        </Placemark>
        <Placemark>
          <name>TOPCT26 (RC-135 Rivet Joint)</name>
          <description>Type: RC-135 Rivet Joint&#xA;Callsign: TOPCT26&#xA;Hex: ae1253&#xA;Altitude: 2325 ft&#xA;Speed: 193.6 kts&#xA;Heading: 303.2&#xA;Source: adsb.lol</description>
          <Point>
            <coordinates>-95.985596,41.115143,2325</coordinates>
          </Point>
        </Placemark>
        <Placemark>
          <name>43c700 (A332)</name>
          <description>Type: A332&#xA;Hex: 43c700&#xA;Altitude: 24000 ft&#xA;Speed: 0.0 kts&#xA;Heading: 0.0&#xA;Source: adsb.lol</description>
          <Point>
            <coordinates>0,0,24000</coordinates>
          </Point>
        </Placemark>
        <Placemark>
          <name>R26344 (H-60 Black Hawk)</name>
          <description>Type: H-60 Black Hawk&#xA;Callsign: R26344&#xA;Hex: ae0cc7&#xA;Altitude: 6100 ft&#xA;Speed: 132.5 kts&#xA;Heading: 41.6&#xA;Source: adsb.one</description>
          <Point>
            <coordinates>-116.511497,34.873026,6100</coordinates>
          </Point>
        </Placemark>
        <Placemark>
          <name>TEST1234 (Unknown Type)</name>
          <description>Type: Unknown Type&#xA;Callsign: TEST1234&#xA;Hex: adf997&#xA;Altitude: 0 ft&#xA;Speed: 0.0 kts&#xA;Heading: 0.0&#xA;Source: adsb.one</description>
          <Point>
            <coordinates>0,0,0</coordinates>
          </Point>
        </Placemark>
        <Placemark>
          <name>PAT486 (BE20)</name>
          <description>Type: BE20&#xA;Callsign: PAT486&#xA;Hex: adfecc&#xA;Altitude: 0 ft&#xA;Speed: 10.8 kts&#xA;Heading: 215.0&#xA;Source: adsb.lol</description>
          <Point>
            <coordinates>-106.086388,35.62001,0</coordinates>
          </Point>
        </Placemark>
        <Placemark>
          <name>BOLT54 (C172)</name>
          <description>Type: C172&#xA;Callsign: BOLT54&#xA;Hex: aa7e89&#xA;Altitude: 10350 ft&#xA;Speed: 69.9 kts&#xA;Heading: 256.8&#xA;Source: adsb.lol</description>
          <Point>
            <coordinates>-103.939979,39.033829,10350</coordinates>
          </Point>
        </Placemark>
        <Placemark>
          <name>SWOOP11 (TEX2)</name>
          <description>Type: TEX2&#xA;Callsign: SWOOP11&#xA;Hex: ae112b&#xA;Altitude: 8175 ft&#xA;Speed: 200.1 kts&#xA;Heading: 261.7&#xA;Source: adsb.one</description>
          <Point>
            <coordinates>-100.265773,29.224136,8175</coordinates>
          </Point>
        </Placemark>
        <Placemark>
          <name>SOLID62 (T-38 Talon)</name>
          <description>Type: T-38 Talon&#xA;Callsign: SOLID62&#xA;Hex: ae0005&#xA;Altitude: 3875 ft&#xA;Speed: 331.5 kts&#xA;Heading: 81.7&#xA;Source: adsb.one</description>
          <Point>
            <coordinates>-98.288191,36.05792,3875</coordinates>
          </Point>
        </Placemark>
        <Placemark>
          <name>ZORRO67 (AT8T)</name>
          <description>Type: AT8T&#xA;Callsign: ZORRO67&#xA;Hex: aaec24&#xA;Altitude: 5450 ft&#xA;Speed: 143.1 kts&#xA;Heading: 304.5&#xA;Source: adsb.lol</description>
          <Point>
            <coordinates>-97.937797,35.563349,5450</coordinates>
          </Point>
        </Placemark>
        <Placemark>
          <name>LOGIC510 (C-295)</name>
          <description>Type: C-295&#xA;Callsign: LOGIC510&#xA;Hex: c2bd0f&#xA;Altitude: 5850 ft&#xA;Speed: 215.8 kts&#xA;Heading: 142.0&#xA;Source: adsb.one</description>
          <Point>
            <coordinates>-97.784482,50.363563,5850</coordinates>
          </Point>
        </Placemark>
        <Placemark>
          <name>KATT25 (TEX2)</name>
          <description>Type: TEX2&#xA;Callsign: KATT25&#xA;Hex: ae114e&#xA;Altitude: 2850 ft&#xA;Speed: 121.8 kts&#xA;Heading: 96.6&#xA;Source: adsb.one</description>
          <Point>
            <coordinates>-88.083929,30.637378,2850</coordinates>
          </Point>
        </Placemark>
        <Placemark>
          <name>CFC3360 (A310)</name>
          <description>Type: A310&#xA;Callsign: CFC3360&#xA;Hex: c2b37d&#xA;Altitude: 0 ft&#xA;Speed: 0.0 kts&#xA;Heading: 0.0&#xA;Source: adsb.lol</description>
          <Point>
            <coordinates>-147.857437,64.821477,0</coordinates>
          </Point>
        </Placemark>
        <Placemark>
          <name>VOID02 (T-38 Talon)</name>
          <description>Type: T-38 Talon&#xA;Callsign: VOID02&#xA;Hex: ae0088&#xA;Altitude: 14800 ft&#xA;Speed: 435.7 kts&#xA;Heading: 158.7&#xA;Source: adsb.one</description>
          <Point>
            <coordinates>-99.716847,33.264786,14800</coordinates>
          </Point>
        </Placemark>
        <Placemark>
          <name>JINX31 (TEX2)</name>
          <description>Type: TEX2&#xA;Callsign: JINX31&#xA;Hex: ae1424&#xA;Altitude: 10100 ft&#xA;Speed: 213.5 kts&#xA;Heading: 294.0&#xA;Source: adsb.one</description>
          <Point>
            <coordinates>-97.652732,29.119775,10100</coordinates>
          </Point>
        </Placemark>
        <Placemark>
          <name>adfb1a (Unknown Type)</name>
          <description>Type: Unknown Type&#xA;Hex: adfb1a&#xA;Altitude: 0 ft&#xA;Speed: 0.0 kts&#xA;Heading: 0.0&#xA;Source: adsb.lol</description>
          <Point>
            <coordinates>0,0,0</coordinates>
          </Point>
        </Placemark>
        <Placemark>
          <name>ae01d0 (RC-135 Rivet Joint)</name>
          <description>Type: RC-135 Rivet Joint&#xA;Hex: ae01d0&#xA;Altitude: 0 ft&#xA;Speed: 0.0 kts&#xA;Heading: 0.0&#xA;Source: adsb.one</description>
          <Point>
            <coordinates>0,0,0</coordinates>
          </Point>
        </Placemark>
        <Placemark>
          <name>GAF903 (A359)</name>
          <description>Type: A359&#xA;Callsign: GAF903&#xA;Hex: 3f5d91&#xA;Altitude: 43000 ft&#xA;Speed: 451.5 kts&#xA;Heading: 221.1&#xA;Source: adsb.lol</description>
          <Point>
            <coordinates>-65.535399,49.284249,43000</coordinates>
          </Point>
        </Placemark>
        <Placemark>
          <name>BALL64 (TEX2)</name>
          <description>Type: TEX2&#xA;Callsign: BALL64&#xA;Hex: ae1e60&#xA;Altitude: 12050 ft&#xA;Speed: 249.7 kts&#xA;Heading: 327.3&#xA;Source: adsb.one</description>
          <Point>
            <coordinates>-97.632866,35.945847,12050</coordinates>
          </Point>
        </Placemark>
        <Placemark>
          <name>BOLT55 (C172)</name>
          <description>Type: C172&#xA;Callsign: BOLT55&#xA;Hex: aa7eac&#xA;Altitude: 10200 ft&#xA;Speed: 74.5 kts&#xA;Heading: 229.9&#xA;Source: adsb.lol</description>
          <Point>
            <coordinates>-104.177259,39.214279,10200</coordinates>
          </Point>
        </Placemark>
        <Placemark>
          <name>ROVE76 (TEX2)</name>
          <description>Type: TEX2&#xA;Callsign: ROVE76&#xA;Hex: ae111c&#xA;Altitude: 5450 ft&#xA;Speed: 230.0 kts&#xA;Heading: 80.0&#xA;Source: adsb.one</description>
          <Point>
            <coordinates>-101.837601,32.156662,5450</coordinates>
          </Point>
        </Placemark>
        <Placemark>
          <name>SHOOT44 (T-38 Talon)</name>
          <description>Type: T-38 Talon&#xA;Callsign: SHOOT44&#xA;Hex: ae0015&#xA;Altitude: 9950 ft&#xA;Speed: 274.9 kts&#xA;Heading: 290.2&#xA;Source: adsb.lol</description>
          <Point>
            <coordinates>-96.960869,35.409851,9950</coordinates>
          </Point>
        </Placemark>
        <Placemark>
          <name>TALON21 (HAWK)</name>
          <description>Type: HAWK&#xA;Callsign: TALON21&#xA;Hex: ae62d5&#xA;Altitude: 14800 ft&#xA;Speed: 298.4 kts&#xA;Heading: 314.5&#xA;Source: adsb.one</description>
          <Point>
            <coordinates>-89.148505,32.867203,14800</coordinates>
          </Point>
        </Placemark>
        <Placemark>
          <name>0aca88 (AC90)</name>
          <description>Type: AC90&#xA;Hex: 0aca88&#xA;Altitude: 0 ft&#xA;Speed: 219.2 kts&#xA;Heading: 17.5&#xA;Source: adsb.lol</description>
          <Point>
            <coordinates>0,0,0</coordinates>
          </Point>
        </Placemark>
        <Placemark>
          <name>ae050a (KC-135 Stratotanker)</name>
          <description>Type: KC-135 Stratotanker&#xA;Hex: ae050a&#xA;Altitude: 25700 ft&#xA;Speed: 408.0 kts&#xA;Heading: 282.3&#xA;Source: adsb.lol</description>
          <Point>
            <coordinates>0,0,25700</coordinates>
          </Point>
        </Placemark>
        <Placemark>
          <name>RN204 (TEX2)</name>
          <description>Type: TEX2&#xA;Callsign: RN204&#xA;Hex: ae54de&#xA;Altitude: 7775 ft&#xA;Speed: 237.5 kts&#xA;Heading: 205.2&#xA;Source: adsb.lol</description>
          <Point>
            <coordinates>-86.68983,31.323715,7775</coordinates>
          </Point>
        </Placemark>
        <Placemark>
          <name>POBOY11 (EC45)</name>
          <description>Type: EC45&#xA;Callsign: POBOY11&#xA;Hex: ae1fb7&#xA;Altitude: 2150 ft&#xA;Speed: 113.2 kts&#xA;Heading: 326.2&#xA;Source: adsb.lol</description>
          <Point>
            <coordinates>-85.850793,31.017104,2150</coordinates>
          </Point>
        </Placemark>
        <Placemark>
          <name>PAT245 (BE20)</name>
          <description>Type: BE20&#xA;Callsign: PAT245&#xA;Hex: ae571b&#xA;Altitude: 4350 ft&#xA;Speed: 220.2 kts&#xA;Heading: 78.7&#xA;Source: adsb.lol</description>
          <Point>
            <coordinates>-75.170892,40.099213,4350</coordinates>
          </Point>
        </Placemark>
        <Placemark>
          <name>TXLU03 (A139)</name>
          <description>Type: A139&#xA;Callsign: TXLU03&#xA;Hex: 4ca331&#xA;Altitude: 0 ft&#xA;Speed: 0.0 kts&#xA;Heading: 0.0&#xA;Source: adsb.lol</description>
          <Point>
            <coordinates>0,0,0</coordinates>
          </Point>
        </Placemark>
        <Placemark>
          <name>RCH199 (C-17 Globemaster III)</name>
          <description>Type: C-17 Globemaster III&#xA;Callsign: RCH199&#xA;Hex: ae49c7&#xA;Altitude: 30000 ft&#xA;Speed: 0.0 kts&#xA;Heading: 0.0&#xA;Source: adsb.lol</description>
          <Point>
            <coordinates>0,0,30000</coordinates>
          </Point>
        </Placemark>
        <Placemark>
          <name>BOMR713 (TEX2)</name>
          <description>Type: TEX2&#xA;Callsign: BOMR713&#xA;Hex: ae1eca&#xA;Altitude: 4950 ft&#xA;Speed: 229.0 kts&#xA;Heading: 357.7&#xA;Source: adsb.one</description>
          <Point>
            <coordinates>-97.428871,27.325186,4950</coordinates>
          </Point>
        </Placemark>
        <Placemark>
          <name>VV1E041 (A119)</name>
          <description>Type: A119&#xA;Callsign: VV1E041&#xA;Hex: ae7417&#xA;Altitude: 400 ft&#xA;Speed: 84.0 kts&#xA;Heading: 330.7&#xA;Source: adsb.one</description>
          <Point>
            <coordinates>-87.028854,30.696079,400</coordinates>
          </Point>
        </Placemark>
        <Placemark>
          <name>G026022 (H-60 Black Hawk)</name>
          <description>Type: H-60 Black Hawk&#xA;Callsign: G026022&#xA;Hex: ae0bec&#xA;Altitude: 0 ft&#xA;Speed: 0.0 kts&#xA;Heading: 0.0&#xA;Source: adsb.one</description>
          <Point>
            <coordinates>0,0,0</coordinates>
          </Point>
        </Placemark>
        <Placemark>
          <name>DUKE32 (Unknown Type)</name>
          <description>Type: Unknown Type&#xA;Callsign: DUKE32&#xA;Hex: ae2216&#xA;Altitude: 3800 ft&#xA;Speed: 160.0 kts&#xA;Heading: 223.0&#xA;Source: adsb.one</description>
          <Point>
            <coordinates>-117.458589,33.362108,3800</coordinates>
          </Point>
        </Placemark>
        <Placemark>
          <name>BALL66 (TEX2)</name>
          <description>Type: TEX2&#xA;Callsign: BALL66&#xA;Hex: ae1e65&#xA;Altitude: 5875 ft&#xA;Speed: 247.7 kts&#xA;Heading: 330.2&#xA;Source: adsb.one</description>
          <Point>
            <coordinates>-97.512245,35.720856,5875</coordinates>
          </Point>
        </Placemark>
        <Placemark>
          <name>ae0253 (C30J)</name>
          <description>Type: C30J&#xA;Hex: ae0253&#xA;Altitude: 1400 ft&#xA;Speed: 0.0 kts&#xA;Heading: 0.0&#xA;Source: adsb.lol</description>
          <Point>
            <coordinates>0,0,1400</coordinates>
          </Point>
        </Placemark>
        <Placemark>
          <name>JOLLY91 (H-60 Black Hawk)</name>
          <description>Type: H-60 Black Hawk&#xA;Callsign: JOLLY91&#xA;Hex: afb23c&#xA;Altitude: 1300 ft&#xA;Speed: 131.0 kts&#xA;Heading: 0.4&#xA;Source: adsb.one</description>
          <Point>
            <coordinates>-122.089512,37.094964,1300</coordinates>
          </Point>
        </Placemark>
        <Placemark>
          <name>GOAT47 (TEX2)</name>
          <description>Type: TEX2&#xA;Callsign: GOAT47&#xA;Hex: ae13f6&#xA;Altitude: 1000 ft&#xA;Speed: 134.0 kts&#xA;Heading: 260.1&#xA;Source: adsb.lol</description>
          <Point>
            <coordinates>-97.162537,30.04379,1000</coordinates>
          </Point>
        </Placemark>
        <Placemark>
          <name>ae68a4 (P8 ?)</name>
          <description>Type: P8 ?&#xA;Hex: ae68a4&#xA;Altitude: 10300 ft&#xA;Speed: 272.2 kts&#xA;Heading: 239.3&#xA;Source: adsb.lol</description>
          <Point>
            <coordinates>-74.974548,39.075483,10300</coordinates>
          </Point>
        </Placemark>
        <Placemark>
          <name>RUDY24 (V-22 Osprey)</name>
          <description>Type: V-22 Osprey&#xA;Callsign: RUDY24&#xA;Hex: ae6ba7&#xA;Altitude: 700 ft&#xA;Speed: 160.2 kts&#xA;Heading: 245.7&#xA;Source: adsb.lol</description>
          <Point>
            <coordinates>-118.596739,33.019968,700</coordinates>
          </Point>
        </Placemark>
        <Placemark>
          <name>QUESO29 (BE20)</name>
          <description>Type: BE20&#xA;Callsign: QUESO29&#xA;Hex: ae08f8&#xA;Altitude: 19975 ft&#xA;Speed: 232.8 kts&#xA;Heading: 274.7&#xA;Source: adsb.lol</description>
          <Point>
            <coordinates>-90.523143,31.430054,19975</coordinates>
          </Point>
        </Placemark>
        <Placemark>
          <name>ae3a65 (Unknown Type)</name>
          <description>Type: Unknown Type&#xA;Hex: ae3a65&#xA;Altitude: 28000 ft&#xA;Speed: 332.0 kts&#xA;Heading: 348.0&#xA;Source: adsb.one</description>
          <Point>
            <coordinates>-82.842046,28.638835,28000</coordinates>
          </Point>
        </Placemark>
        <Placemark>
          <name>EVY34 (FA7X)</name>
          <description>Type: FA7X&#xA;Callsign: EVY34&#xA;Hex: 7cfa71&#xA;Altitude: 0 ft&#xA;Speed: 0.0 kts&#xA;Heading: 0.0&#xA;Source: adsb.lol</description>
          <Point>
            <coordinates>149.19923,-35.303064,0</coordinates>
          </Point>
        </Placemark>
        <Placemark>
          <name>POSSE89 (C-130 Hercules)</name>
          <description>Type: C-130 Hercules&#xA;Callsign: POSSE89&#xA;Hex: adfdd5&#xA;Altitude: 26000 ft&#xA;Speed: 0.0 kts&#xA;Heading: 0.0&#xA;Source: adsb.lol</description>
          <Point>
            <coordinates>0,0,26000</coordinates>
          </Point>
        </Placemark>
        <Placemark>
          <name>BGST413 (BE20)</name>
          <description>Type: BE20&#xA;Callsign: BGST413&#xA;Hex: afa195&#xA;Altitude: 0 ft&#xA;Speed: 33.5 kts&#xA;Heading: 5.6&#xA;Source: adsb.one</description>
          <Point>
            <coordinates>0,0,0</coordinates>
          </Point>
        </Placemark>
        <Placemark>
          <name>BRCAT16 (TEX2)</name>
          <description>Type: TEX2&#xA;Callsign: BRCAT16&#xA;Hex: ae4e95&#xA;Altitude: 6025 ft&#xA;Speed: 160.8 kts&#xA;Heading: 259.2&#xA;Source: adsb.lol</description>
          <Point>
            <coordinates>-103.404364,32.476639,6025</coordinates>
          </Point>
        </Placemark>
        <Placemark>
          <name>ARCAS32 (T-38 Talon)</name>
          <description>Type: T-38 Talon&#xA;Callsign: ARCAS32&#xA;Hex: ae007b&#xA;Altitude: 12250 ft&#xA;Speed: 416.3 kts&#xA;Heading: 200.1&#xA;Source: adsb.one</description>
          <Point>
            <coordinates>-98.652126,33.923859,12250</coordinates>
          </Point>
        </Placemark>
        <Placemark>
          <name>LD503 (B737)</name>
          <description>Type: B737&#xA;Callsign: LD503&#xA;Hex: e200ae&#xA;Altitude: 2950 ft&#xA;Speed: 184.2 kts&#xA;Heading: 303.3&#xA;Source: adsb.one</description>
          <Point>
            <coordinates>-61.911011,-38.819213,2950</coordinates>
          </Point>
        </Placemark>
        <Placemark>
          <name>ae73f6 (Unknown Type)</name>
          <description>Type: Unknown Type&#xA;Hex: ae73f6&#xA;Altitude: 0 ft&#xA;Speed: 0.0 kts&#xA;Heading: 0.0&#xA;Source: adsb.one</description>
          <Point>
            <coordinates>0,0,0</coordinates>
          </Point>
        </Placemark>
        <Placemark>
          <name>C6596 (AS65)</name>
          <description>Type: AS65&#xA;Callsign: C6596&#xA;Hex: ae26b6&#xA;Altitude: 8975 ft&#xA;Speed: 138.7 kts&#xA;Heading: 115.6&#xA;Source: adsb.one</description>
          <Point>
            <coordinates>-101.045576,34.358368,8975</coordinates>
          </Point>
        </Placemark>
        <Placemark>
          <name>JEDDA16 (TEX2)</name>
          <description>Type: TEX2&#xA;Callsign: JEDDA16&#xA;Hex: ae1422&#xA;Altitude: 4025 ft&#xA;Speed: 241.8 kts&#xA;Heading: 321.0&#xA;Source: adsb.one</description>
          <Point>
            <coordinates>-100.961232,29.486001,4025</coordinates>
          </Point>
        </Placemark>
        <Placemark>
          <name>VOID03 (T-38 Talon)</name>
          <description>Type: T-38 Talon&#xA;Callsign: VOID03&#xA;Hex: ae007d&#xA;Altitude: 16250 ft&#xA;Speed: 436.8 kts&#xA;Heading: 159.1&#xA;Source: adsb.one</description>
          <Point>
            <coordinates>-99.675275,33.277954,16250</coordinates>
          </Point>
        </Placemark>
        <Placemark>
          <name>GOAT50 (TEX2)</name>
          <description>Type: TEX2&#xA;Callsign: GOAT50&#xA;Hex: ae13ce&#xA;Altitude: 16525 ft&#xA;Speed: 210.4 kts&#xA;Heading: 286.3&#xA;Source: adsb.one</description>
          <Point>
            <coordinates>-98.747547,29.421066,16525</coordinates>
          </Point>
        </Placemark>
        <Placemark>
          <name>ae6050 (AH-64 Apache)</name>
          <description>Type: AH-64 Apache&#xA;Hex: ae6050&#xA;Altitude: 0 ft&#xA;Speed: 0.0 kts&#xA;Heading: 0.0&#xA;Source: adsb.lol</description>
          <Point>
            <coordinates>0,0,0</coordinates>
          </Point>
        </Placemark>
        <Placemark>
          <name>36b8a9 (Unknown Type)</name>
          <description>Type: Unknown Type&#xA;Hex: 36b8a9&#xA;Altitude: 0 ft&#xA;Speed: 0.0 kts&#xA;Heading: 0.0&#xA;Source: adsb.lol</description>
          <Point>
            <coordinates>0,0,0</coordinates>
          </Point>
        </Placemark>
        <Placemark>
          <name>RCH1848 (C-17 Globemaster III)</name>
          <description>Type: C-17 Globemaster III&#xA;Callsign: RCH1848&#xA;Hex: ae145b&#xA;Altitude: 2625 ft&#xA;Speed: 178.0 kts&#xA;Heading: 126.0&#xA;Source: adsb.one</description>
          <Point>
            <coordinates>-79.980734,32.627718,2625</coordinates>
          </Point>
        </Placemark>
        <Placemark>
          <name>ae6801 (Unknown Type)</name>
          <description>Type: Unknown Type&#xA;Hex: ae6801&#xA;Altitude: 8825 ft&#xA;Speed: 0.0 kts&#xA;Heading: 0.0&#xA;Source: adsb.lol</description>
          <Point>
            <coordinates>0,0,8825</coordinates>
          </Point>
        </Placemark>
        <Placemark>
          <name>RASTA41 (TEX2)</name>
          <description>Type: TEX2&#xA;Callsign: RASTA41&#xA;Hex: ae1415&#xA;Altitude: 9375 ft&#xA;Speed: 217.7 kts&#xA;Heading: 82.9&#xA;Source: adsb.lol</description>
          <Point>
            <coordinates>-100.319701,29.54393,9375</coordinates>
          </Point>
        </Placemark>
        <Placemark>
          <name>KATT23 (TEX2)</name>
          <description>Type: TEX2&#xA;Callsign: KATT23&#xA;Hex: ae113e&#xA;Altitude: 2200 ft&#xA;Speed: 236.0 kts&#xA;Heading: 104.5&#xA;Source: adsb.one</description>
          <Point>
            <coordinates>-87.659752,30.246231,2200</coordinates>
          </Point>
        </Placemark>
        <Placemark>
          <name>MESSY77 (EC45)</name>
          <description>Type: EC45&#xA;Callsign: MESSY77&#xA;Hex: ae204f&#xA;Altitude: 750 ft&#xA;Speed: 87.2 kts&#xA;Heading: 229.2&#xA;Source: adsb.lol</description>
          <Point>
            <coordinates>-85.581719,31.233353,750</coordinates>
          </Point>
        </Placemark>
        <Placemark>
          <name>ae04a3 (KC-135 Stratotanker)</name>
          <description>Type: KC-135 Stratotanker&#xA;Hex: ae04a3&#xA;Altitude: 30000 ft&#xA;Speed: 438.9 kts&#xA;Heading: 281.6&#xA;Source: adsb.lol</description>
          <Point>
            <coordinates>35.032983,31.486072,30000</coordinates>
          </Point>
        </Placemark>
        <Placemark>
          <name>MCUE12 (B762)</name>
          <description>Type: B762&#xA;Callsign: MCUE12&#xA;Hex: ae5faa&#xA;Altitude: 32008 ft&#xA;Speed: 0.0 kts&#xA;Heading: 272.3&#xA;Source: adsb.one</description>
          <Point>
            <coordinates>-8.243179,36.050949,32008</coordinates>
          </Point>
        </Placemark>
        <Placemark>
          <name>VAPOR81 (T-38 Talon)</name>
          <description>Type: T-38 Talon&#xA;Callsign: VAPOR81&#xA;Hex: ae0017&#xA;Altitude: 16825 ft&#xA;Speed: 433.2 kts&#xA;Heading: 178.4&#xA;Source: adsb.one</description>
          <Point>
            <coordinates>-99.015999,36.307022,16825</coordinates>
          </Point>
        </Placemark>
        <Placemark>
          <name>DRAG971 (Unknown Type)</name>
          <description>Type: Unknown Type&#xA;Callsign: DRAG971&#xA;Hex: 3b7b7f&#xA;Altitude: 150 ft&#xA;Speed: 4.5 kts&#xA;Heading: 243.4&#xA;Source: adsb.lol</description>
          <Point>
            <coordinates>-61.524449,16.236099,150</coordinates>
          </Point>
        </Placemark>
        <Placemark>
          <name>ae0500 (KC-135 Stratotanker)</name>
          <description>Type: KC-135 Stratotanker&#xA;Hex: ae0500&#xA;Altitude: 15975 ft&#xA;Speed: 360.0 kts&#xA;Heading: 6.2&#xA;Source: adsb.one</description>
          <Point>
            <coordinates>0,0,15975</coordinates>
          </Point>
        </Placemark>
        <Placemark>
          <name>TESLA99 (H-60 Black Hawk)</name>
          <description>Type: H-60 Black Hawk&#xA;Callsign: TESLA99&#xA;Hex: ae5d5c&#xA;Altitude: 1050 ft&#xA;Speed: 99.0 kts&#xA;Heading: 80.6&#xA;Source: adsb.one</description>
          <Point>
            <coordinates>-85.932205,31.322767,1050</coordinates>
          </Point>
        </Placemark>
        <Placemark>
          <name>4b8295 (E737)</name>
          <description>Type: E737&#xA;Hex: 4b8295&#xA;Altitude: 0 ft&#xA;Speed: 0.0 kts&#xA;Heading: 0.0&#xA;Source: adsb.one</description>
          <Point>
            <coordinates>0,0,0</coordinates>
          </Point>
        </Placemark>
        <Placemark>
          <name>SCRCH54 (V-22 Osprey)</name>
          <description>Type: V-22 Osprey&#xA;Callsign: SCRCH54&#xA;Hex: ae6ba8&#xA;Altitude: 7750 ft&#xA;Speed: 222.7 kts&#xA;Heading: 220.6&#xA;Source: adsb.lol</description>
          <Point>
            <coordinates>-116.565765,32.703323,7750</coordinates>
          </Point>
        </Placemark>
        <Placemark>
          <name>JEDDA63 (TEX2)</name>
          <description>Type: TEX2&#xA;Callsign: JEDDA63&#xA;Hex: ae0892&#xA;Altitude: 4050 ft&#xA;Speed: 209.2 kts&#xA;Heading: 143.0&#xA;Source: adsb.lol</description>
          <Point>
            <coordinates>-98.844575,29.637039,4050</coordinates>
          </Point>
        </Placemark>
        <Placemark>
          <name>SH070 (TEX2)</name>
          <description>Type: TEX2&#xA;Callsign: SH070&#xA;Hex: ae1ecb&#xA;Altitude: 6875 ft&#xA;Speed: 207.5 kts&#xA;Heading: 10.6&#xA;Source: adsb.one</description>
          <Point>
            <coordinates>-89.38035,30.400452,6875</coordinates>
          </Point>
        </Placemark>
        <Placemark>
          <name>35e6eb (Unknown Type)</name>
          <description>Type: Unknown Type&#xA;Hex: 35e6eb&#xA;Altitude: 0 ft&#xA;Speed: 0.0 kts&#xA;Heading: 0.0&#xA;Source: adsb.lol</description>
          <Point>
            <coordinates>0,0,0</coordinates>
          </Point>
        </Placemark>
        <Placemark>
          <name>FAC1222 (B737)</name>
          <description>Type: B737&#xA;Callsign: FAC1222&#xA;Hex: 0acaa7&#xA;Altitude: 37000 ft&#xA;Speed: 455.4 kts&#xA;Heading: 155.1&#xA;Source: adsb.lol</description>
          <Point>
            <coordinates>-84.07783,17.641715,37000</coordinates>
          </Point>
        </Placemark>
        <Placemark>
          <name>FFAB123 (H-60 Black Hawk)</name>
          <description>Type: H-60 Black Hawk&#xA;Callsign: FFAB123&#xA;Hex: ae4f87&#xA;Altitude: 175 ft&#xA;Speed: 72.4 kts&#xA;Heading: 6.3&#xA;Source: adsb.lol</description>
          <Point>
            <coordinates>-81.686426,30.143412,175</coordinates>
          </Point>
        </Placemark>
        <Placemark>
          <name>MNTNA71 (BE9L)</name>
          <description>Type: BE9L&#xA;Callsign: MNTNA71&#xA;Hex: ae1477&#xA;Altitude: 1625 ft&#xA;Speed: 147.0 kts&#xA;Heading: 89.8&#xA;Source: adsb.one</description>
          <Point>
            <coordinates>-97.98056,27.732704,1625</coordinates>
          </Point>
        </Placemark>
        <Placemark>
          <name>SHOOT77 (T-38 Talon)</name>
          <description>Type: T-38 Talon&#xA;Callsign: SHOOT77&#xA;Hex: ae0019&#xA;Altitude: 7925 ft&#xA;Speed: 243.8 kts&#xA;Heading: 229.0&#xA;Source: adsb.one</description>
          <Point>
            <coordinates>-97.185292,35.262343,7925</coordinates>
          </Point>
        </Placemark>
        <Placemark>
          <name>ae05a0 (KC-135 Stratotanker)</name>
          <description>Type: KC-135 Stratotanker&#xA;Hex: ae05a0&#xA;Altitude: 31000 ft&#xA;Speed: 562.0 kts&#xA;Heading: 79.0&#xA;Source: adsb.lol</description>
          <Point>
            <coordinates>-77.843933,43.937114,31000</coordinates>
          </Point>
        </Placemark>
        <Placemark>
          <name>R20873 (H-60 Black Hawk)</name>
          <description>Type: H-60 Black Hawk&#xA;Callsign: R20873&#xA;Hex: ae5d72&#xA;Altitude: 1275 ft&#xA;Speed: 116.0 kts&#xA;Heading: 45.7&#xA;Source: adsb.one</description>
          <Point>
            <coordinates>-75.815847,44.28654,1275</coordinates>
          </Point>
        </Placemark>
        <Placemark>
          <name>G9426581 (H-60 Black Hawk)</name>
          <description>Type: H-60 Black Hawk&#xA;Callsign: G9426581&#xA;Hex: ae0a3f&#xA;Altitude: 2300 ft&#xA;Speed: 0.0 kts&#xA;Heading: 0.0&#xA;Source: adsb.lol</description>
          <Point>
            <coordinates>0,0,2300</coordinates>
          </Point>
        </Placemark>
        <Placemark>
          <name>TALON76 (H-60 Black Hawk)</name>
          <description>Type: H-60 Black Hawk&#xA;Callsign: TALON76&#xA;Hex: ae6a19&#xA;Altitude: 4925 ft&#xA;Speed: 90.8 kts&#xA;Heading: 288.6&#xA;Source: adsb.one</description>
          <Point>
            <coordinates>-115.300206,43.003607,4925</coordinates>
          </Point>
        </Placemark>
        <Placemark>
          <name>GOAT28 (TEX2)</name>
          <description>Type: TEX2&#xA;Callsign: GOAT28&#xA;Hex: ae0206&#xA;Altitude: 825 ft&#xA;Speed: 121.3 kts&#xA;Heading: 111.3&#xA;Source: adsb.one</description>
          <Point>
            <coordinates>-97.174567,30.04244,825</coordinates>
          </Point>
        </Placemark>
        <Placemark>
          <name>NOMAD37 (H-60 Black Hawk)</name>
          <description>Type: H-60 Black Hawk&#xA;Callsign: NOMAD37&#xA;Hex: ae6a73&#xA;Altitude: 1800 ft&#xA;Speed: 93.0 kts&#xA;Heading: 163.6&#xA;Source: adsb.one</description>
          <Point>
            <coordinates>-85.922318,31.220585,1800</coordinates>
          </Point>
        </Placemark>
        <Placemark>
          <name>TROJ16 (C30J)</name>
          <description>Type: C30J&#xA;Callsign: TROJ16&#xA;Hex: 7cf830&#xA;Altitude: 28000 ft&#xA;Speed: 337.9 kts&#xA;Heading: 24.3&#xA;Source: adsb.lol</description>
          <Point>
            <coordinates>152.024636,-29.033066,28000</coordinates>
          </Point>
        </Placemark>
        <Placemark>
          <name>ae1f4f (EC45)</name>
          <description>Type: EC45&#xA;Hex: ae1f4f&#xA;Altitude: 0 ft&#xA;Speed: 78.0 kts&#xA;Heading: 233.9&#xA;Source: adsb.lol</description>
          <Point>
            <coordinates>0,0,0</coordinates>
          </Point>
        </Placemark>
        <Placemark>
          <name>C6058 (H-60 Black Hawk)</name>
          <description>Type: H-60 Black Hawk&#xA;Callsign: C6058&#xA;Hex: ae6cec&#xA;Altitude: 3950 ft&#xA;Speed: 131.0 kts&#xA;Heading: 36.0&#xA;Source: adsb.one</description>
          <Point>
            <coordinates>-119.035206,34.304577,3950</coordinates>
          </Point>
        </Placemark>
        <Placemark>
          <name>TEST1234 (TWR)</name>
          <description>Type: TWR&#xA;Callsign: TEST1234&#xA;Hex: 400008&#xA;Altitude: 0 ft&#xA;Speed: 0.0 kts&#xA;Heading: 0.0&#xA;Source: adsb.lol</description>
          <Point>
            <coordinates>0,0,0</coordinates>
          </Point>
        </Placemark>
        <Placemark>
          <name>SHOOT92 (T-38 Talon)</name>
          <description>Type: T-38 Talon&#xA;Callsign: SHOOT92&#xA;Hex: ae0027&#xA;Altitude: 4850 ft&#xA;Speed: 323.0 kts&#xA;Heading: 298.1&#xA;Source: adsb.one</description>
          <Point>
            <coordinates>-97.955704,36.511368,4850</coordinates>
          </Point>
        </Placemark>
        <Placemark>
          <name>LYRE71 (TEX2)</name>
          <description>Type: TEX2&#xA;Callsign: LYRE71&#xA;Hex: ae1e4c&#xA;Altitude: 8600 ft&#xA;Speed: 194.6 kts&#xA;Heading: 101.0&#xA;Source: adsb.lol</description>
          <Point>
            <coordinates>-97.817987,28.967422,8600</coordinates>
          </Point>
        </Placemark>
        <Placemark>
          <name>EVAL99 (TEX2)</name>
          <description>Type: TEX2&#xA;Callsign: EVAL99&#xA;Hex: ae54c5&#xA;Altitude: 2450 ft&#xA;Speed: 111.1 kts&#xA;Heading: 166.5&#xA;Source: adsb.lol</description>
          <Point>
            <coordinates>-86.714859,34.808458,2450</coordinates>
          </Point>
        </Placemark>
        <Placemark>
          <name>BELLS50 (EC45)</name>
          <description>Type: EC45&#xA;Callsign: BELLS50&#xA;Hex: ae5a77&#xA;Altitude: 2800 ft&#xA;Speed: 120.7 kts&#xA;Heading: 173.8&#xA;Source: adsb.one</description>
          <Point>
            <coordinates>-85.951978,31.424436,2800</coordinates>
          </Point>
        </Placemark>
        <Placemark>
          <name>RCH724 (KC-135 Stratotanker)</name>
          <description>Type: KC-135 Stratotanker&#xA;Callsign: RCH724&#xA;Hex: ae0693&#xA;Altitude: 31000 ft&#xA;Speed: 0.0 kts&#xA;Heading: 0.0&#xA;Source: adsb.one</description>
          <Point>
            <coordinates>0,0,31000</coordinates>
          </Point>
        </Placemark>
        <Placemark>
          <name>G21083 (H-60 Black Hawk)</name>
          <description>Type: H-60 Black Hawk&#xA;Callsign: G21083&#xA;Hex: ae64ae&#xA;Altitude: 4450 ft&#xA;Speed: 1.2 kts&#xA;Heading: 0.0&#xA;Source: adsb.one</description>
          <Point>
            <coordinates>-111.988403,40.612427,4450</coordinates>
          </Point>
        </Placemark>
        <Placemark>
          <name>C6054 (H-60 Black Hawk)</name>
          <description>Type: H-60 Black Hawk&#xA;Callsign: C6054&#xA;Hex: ae6ce8&#xA;Altitude: 300 ft&#xA;Speed: 136.7 kts&#xA;Heading: 196.6&#xA;Source: adsb.one</description>
          <Point>
            <coordinates>-67.433033,18.351684,300</coordinates>
          </Point>
        </Placemark>
        <Placemark>
          <name>WGTL14 (E737)</name>
          <description>Type: E737&#xA;Callsign: WGTL14&#xA;Hex: 7cf8f0&#xA;Altitude: 17950 ft&#xA;Speed: 375.5 kts&#xA;Heading: 12.9&#xA;Source: adsb.lol</description>
          <Point>
            <coordinates>151.843835,-32.5267,17950</coordinates>
          </Point>
        </Placemark>
        <Placemark>
          <name>VGBND19 (LYNX)</name>
          <description>Type: LYNX&#xA;Callsign: VGBND19&#xA;Hex: 43c6c4&#xA;Altitude: 675 ft&#xA;Speed: 0.0 kts&#xA;Heading: 0.0&#xA;Source: adsb.one</description>
          <Point>
            <coordinates>0,0,675</coordinates>
          </Point>
        </Placemark>
        <Placemark>
          <name>GRIM25 (T-38 Talon)</name>
          <description>Type: T-38 Talon&#xA;Callsign: GRIM25&#xA;Hex: ae0025&#xA;Altitude: 2025 ft&#xA;Speed: 174.0 kts&#xA;Heading: 359.8&#xA;Source: adsb.one</description>
          <Point>
            <coordinates>-97.923363,36.280113,2025</coordinates>
          </Point>
        </Placemark>
        <Placemark>
          <name>QUESO82 (C560)</name>
          <description>Type: C560&#xA;Callsign: QUESO82&#xA;Hex: adfec0&#xA;Altitude: 3950 ft&#xA;Speed: 201.7 kts&#xA;Heading: 296.8&#xA;Source: adsb.one</description>
          <Point>
            <coordinates>-97.413249,32.539595,3950</coordinates>
          </Point>
        </Placemark>
        <Placemark>
          <name>CODY06 (C-17 Globemaster III)</name>
          <description>Type: C-17 Globemaster III&#xA;Callsign: CODY06&#xA;Hex: ae07fa&#xA;Altitude: 37025 ft&#xA;Speed: 486.0 kts&#xA;Heading: 101.0&#xA;Source: adsb.one</description>
          <Point>
            <coordinates>-89.110097,34.651208,37025</coordinates>
          </Point>
        </Placemark>
        <Placemark>
          <name>N9358L (C172)</name>
          <description>Type: C172&#xA;Callsign: N9358L&#xA;Hex: acfbb7&#xA;Altitude: 1050 ft&#xA;Speed: 117.0 kts&#xA;Heading: 0.5&#xA;Source: adsb.lol</description>
          <Point>
            <coordinates>-86.494284,30.543045,1050</coordinates>
          </Point>
        </Placemark>
        <Placemark>
          <name>G20686 (H-60 Black Hawk)</name>
          <description>Type: H-60 Black Hawk&#xA;Callsign: G20686&#xA;Hex: ae579e&#xA;Altitude: 3275 ft&#xA;Speed: 126.8 kts&#xA;Heading: 198.9&#xA;Source: adsb.one</description>
          <Point>
            <coordinates>-81.730147,28.752594,3275</coordinates>
          </Point>
        </Placemark>
        <Placemark>
          <name>RCH690 (C-17 Globemaster III)</name>
          <description>Type: C-17 Globemaster III&#xA;Callsign: RCH690&#xA;Hex: ae1459&#xA;Altitude: 27000 ft&#xA;Speed: 429.0 kts&#xA;Heading: 114.0&#xA;Source: adsb.lol</description>
          <Point>
            <coordinates>16.428176,48.940185,27000</coordinates>
          </Point>
        </Placemark>
        <Placemark>
          <name>ae1bf0 (C30J)</name>
          <description>Type: C30J&#xA;Hex: ae1bf0&#xA;Altitude: 1400 ft&#xA;Speed: 0.0 kts&#xA;Heading: 0.0&#xA;Source: adsb.lol</description>
          <Point>
            <coordinates>0,0,1400</coordinates>
          </Point>
        </Placemark>
        <Placemark>
          <name>FANGS96 (TEX2)</name>
          <description>Type: TEX2&#xA;Callsign: FANGS96&#xA;Hex: ae1e54&#xA;Altitude: 1750 ft&#xA;Speed: 215.1 kts&#xA;Heading: 19.3&#xA;Source: adsb.lol</description>
          <Point>
            <coordinates>-98.328112,29.510513,1750</coordinates>
          </Point>
        </Placemark>
        <Placemark>
          <name>RCH659 (C-17 Globemaster III)</name>
          <description>Type: C-17 Globemaster III&#xA;Callsign: RCH659&#xA;Hex: ae1242&#xA;Altitude: 6000 ft&#xA;Speed: 298.0 kts&#xA;Heading: 123.0&#xA;Source: adsb.lol</description>
          <Point>
            <coordinates>7.32645,49.729055,6000</coordinates>
          </Point>
        </Placemark>
        <Placemark>
          <name>TEST1234 (Unknown Type)</name>
          <description>Type: Unknown Type&#xA;Callsign: TEST1234&#xA;Hex: adfbe0&#xA;Altitude: 0 ft&#xA;Speed: 0.0 kts&#xA;Heading: 0.0&#xA;Source: adsb.lol</description>
          <Point>
            <coordinates>0,0,0</coordinates>
          </Point>
        </Placemark>
        <Placemark>
          <name>LUNA305 (Unknown Type)</name>
          <description>Type: Unknown Type&#xA;Callsign: LUNA305&#xA;Hex: 3f7128&#xA;Altitude: 0 ft&#xA;Speed: 0.0 kts&#xA;Heading: 0.0&#xA;Source: adsb.lol</description>
          <Point>
            <coordinates>0,0,0</coordinates>
          </Point>
        </Placemark>
        <Placemark>
          <name>SH246 (TEX2)</name>
          <description>Type: TEX2&#xA;Callsign: SH246&#xA;Hex: ae58eb&#xA;Altitude: 875 ft&#xA;Speed: 127.9 kts&#xA;Heading: 211.6&#xA;Source: adsb.one</description>
          <Point>
            <coordinates>-87.362689,31.440903,875</coordinates>
          </Point>
        </Placemark>
        <Placemark>
          <name>RCH137 (C-17 Globemaster III)</name>
          <description>Type: C-17 Globemaster III&#xA;Callsign: RCH137&#xA;Hex: ae145c&#xA;Altitude: 36000 ft&#xA;Speed: 407.0 kts&#xA;Heading: 310.0&#xA;Source: adsb.one</description>
          <Point>
            <coordinates>20.339576,47.464248,36000</coordinates>
          </Point>
        </Placemark>
        <Placemark>
          <name>BRCAT22 (TEX2)</name>
          <description>Type: TEX2&#xA;Callsign: BRCAT22&#xA;Hex: ae2ef8&#xA;Altitude: 5950 ft&#xA;Speed: 166.8 kts&#xA;Heading: 295.9&#xA;Source: adsb.one</description>
          <Point>
            <coordinates>-102.852516,34.49181,5950</coordinates>
          </Point>
        </Placemark>
        <Placemark>
          <name>AAC319 (AH-64 Apache)</name>
          <description>Type: AH-64 Apache&#xA;Callsign: AAC319&#xA;Hex: 43c94c&#xA;Altitude: 1400 ft&#xA;Speed: 77.8 kts&#xA;Heading: 232.8&#xA;Source: adsb.lol</description>
          <Point>
            <coordinates>1.049118,52.175354,1400</coordinates>
          </Point>
        </Placemark>
        <Placemark>
          <name>ae67c2 (Unknown Type)</name>
          <description>Type: Unknown Type&#xA;Hex: ae67c2&#xA;Altitude: 32000 ft&#xA;Speed: 358.4 kts&#xA;Heading: 267.3&#xA;Source: adsb.one</description>
          <Point>
            <coordinates>-118.06535,48.024173,32000</coordinates>
          </Point>
        </Placemark>
        <Placemark>
          <name>JANET27 (B736)</name>
          <description>Type: B736&#xA;Callsign: JANET27&#xA;Hex: abcac9&#xA;Altitude: 7900 ft&#xA;Speed: 268.1 kts&#xA;Heading: 344.2&#xA;Source: adsb.lol</description>
          <Point>
            <coordinates>-115.29007,36.107758,7900</coordinates>
          </Point>
        </Placemark>
        <Placemark>
          <name>VAPOR82 (T-38 Talon)</name>
          <description>Type: T-38 Talon&#xA;Callsign: VAPOR82&#xA;Hex: ae002a&#xA;Altitude: 16925 ft&#xA;Speed: 435.0 kts&#xA;Heading: 179.3&#xA;Source: adsb.lol</description>
          <Point>
            <coordinates>-98.995582,36.299061,16925</coordinates>
          </Point>
        </Placemark>
        <Placemark>
          <name>0d01e0 (B732)</name>
          <description>Type: B732&#xA;Hex: 0d01e0&#xA;Altitude: 11225 ft&#xA;Speed: 342.7 kts&#xA;Heading: 356.3&#xA;Source: adsb.one</description>
          <Point>
            <coordinates>-98.175761,25.459396,11225</coordinates>
          </Point>
        </Placemark>
        <Placemark>
          <name>COBRA33 (TEX2)</name>
          <description>Type: TEX2&#xA;Callsign: COBRA33&#xA;Hex: ae110a&#xA;Altitude: 11325 ft&#xA;Speed: 228.3 kts&#xA;Heading: 267.0&#xA;Source: adsb.lol</description>
          <Point>
            <coordinates>-98.038788,34.410995,11325</coordinates>
          </Point>
        </Placemark>
        <Placemark>
          <name>CASH51 (TEX2)</name>
          <description>Type: TEX2&#xA;Callsign: CASH51&#xA;Hex: ae11b7&#xA;Altitude: 12950 ft&#xA;Speed: 270.4 kts&#xA;Heading: 75.7&#xA;Source: adsb.lol</description>
          <Point>
            <coordinates>-97.098541,30.67732,12950</coordinates>
          </Point>
        </Placemark>
        <Placemark>
          <name>KATT28 (TEX2)</name>
          <description>Type: TEX2&#xA;Callsign: KATT28&#xA;Hex: ae1142&#xA;Altitude: 7725 ft&#xA;Speed: 280.0 kts&#xA;Heading: 127.9&#xA;Source: adsb.one</description>
          <Point>
            <coordinates>-88.265588,30.413974,7725</coordinates>
          </Point>
        </Placemark>
        <Placemark>
          <name>GOAT20 (TEX2)</name>
          <description>Type: TEX2&#xA;Callsign: GOAT20&#xA;Hex: ae13b6&#xA;Altitude: 15450 ft&#xA;Speed: 225.6 kts&#xA;Heading: 307.1&#xA;Source: adsb.one</description>
          <Point>
            <coordinates>-97.933185,29.137253,15450</coordinates>
          </Point>
        </Placemark>
        <Placemark>
          <name>ae08ae (TEX2)</name>
          <description>Type: TEX2&#xA;Hex: ae08ae&#xA;Altitude: 4850 ft&#xA;Speed: 0.0 kts&#xA;Heading: 0.0&#xA;Source: adsb.one</description>
          <Point>
            <coordinates>-88.422034,33.349869,4850</coordinates>
          </Point>
        </Placemark>
        <Placemark>
          <name>JDGMT88 (A400M Atlas)</name>
          <description>Type: A400M Atlas&#xA;Callsign: JDGMT88&#xA;Hex: 43c5de&#xA;Altitude: 575 ft&#xA;Speed: 269.7 kts&#xA;Heading: 299.8&#xA;Source: adsb.lol</description>
          <Point>
            <coordinates>-4.313322,51.77655,575</coordinates>
          </Point>
        </Placemark>
        <Placemark>
          <name>ae749c (P-8A Poseidon)</name>
          <description>Type: P-8A Poseidon&#xA;Hex: ae749c&#xA;Altitude: 32000 ft&#xA;Speed: 301.0 kts&#xA;Heading: 266.0&#xA;Source: adsb.lol</description>
          <Point>
            <coordinates>-84.825233,30.532033,32000</coordinates>
          </Point>
        </Placemark>
        <Placemark>
          <name>CASTL04 (C-130 Hercules)</name>
          <description>Type: C-130 Hercules&#xA;Callsign: CASTL04&#xA;Hex: adfea3&#xA;Altitude: 0 ft&#xA;Speed: 0.0 kts&#xA;Heading: 0.0&#xA;Source: adsb.one</description>
          <Point>
            <coordinates>-75.449799,40.646404,0</coordinates>
          </Point>
        </Placemark>
        <Placemark>
          <name>MRNR02 (P-8A Poseidon)</name>
          <description>Type: P-8A Poseidon&#xA;Callsign: MRNR02&#xA;Hex: 7cf9d3&#xA;Altitude: 0 ft&#xA;Speed: 0.0 kts&#xA;Heading: 0.0&#xA;Source: adsb.one</description>
          <Point>
            <coordinates>138.627505,-34.7095,0</coordinates>
          </Point>
        </Placemark>
        <Placemark>
          <name>TEST1234 (Unknown Type)</name>
          <description>Type: Unknown Type&#xA;Callsign: TEST1234&#xA;Hex: adf993&#xA;Altitude: 0 ft&#xA;Speed: 0.0 kts&#xA;Heading: 0.0&#xA;Source: adsb.lol</description>
          <Point>
            <coordinates>0,0,0</coordinates>
          </Point>
        </Placemark>
        <Placemark>
          <name>adf7e3 (Unknown Type)</name>
          <description>Type: Unknown Type&#xA;Hex: adf7e3&#xA;Altitude: 0 ft&#xA;Speed: 0.0 kts&#xA;Heading: 0.0&#xA;Source: adsb.lol</description>
          <Point>
            <coordinates>0,0,0</coordinates>
          </Point>
        </Placemark>
        <Placemark>
          <name>IN613 (H-60 Black Hawk)</name>
          <description>Type: H-60 Black Hawk&#xA;Callsign: IN613&#xA;Hex: ae4d45&#xA;Altitude: 300 ft&#xA;Speed: 144.3 kts&#xA;Heading: 7.6&#xA;Source: adsb.lol</description>
          <Point>
            <coordinates>-117.449061,32.792374,300</coordinates>
          </Point>
        </Placemark>
        <Placemark>
          <name>BLADE10 (TEX2)</name>
          <description>Type: TEX2&#xA;Callsign: BLADE10&#xA;Hex: ae10f2&#xA;Altitude: 12550 ft&#xA;Speed: 125.9 kts&#xA;Heading: 325.7&#xA;Source: adsb.lol</description>
          <Point>
            <coordinates>-98.769493,34.515505,12550</coordinates>
          </Point>
        </Placemark>