<?xml version="1.0" encoding="UTF-8"?>
<kml xmlns="http://www.opengis.net/kml/2.2">
  <Document>
    <name>US Military Tracker</name>
    <description>Generated: 2026-03-02T22:05:37Z | Chairman: groq | Score: 0.00</description>
    <Folder>
      <name>Aircraft (384 tracked)</name>
      <Folder>
        <name>USA</name>
        <Placemark>
          <name>PAT393 (BE20)</name>
          <description>Type: BE20&#xA;Callsign: PAT393&#xA;Hex: adfe91&#xA;Branch: USA&#xA;Mission: transport&#xA;Altitude: 2150 ft&#xA;Speed: 152.6 kts&#xA;Heading: 304.3&#xA;Source: airplanes.live</description>
          <Point>
            <coordinates>-120.699577,35.26918,2150</coordinates>
          </Point>
        </Placemark>
        <Placemark>
          <name>BGST360 (BE20)</name>
          <description>Type: BE20&#xA;Callsign: BGST360&#xA;Hex: af3be2&#xA;Branch: USA&#xA;Mission: transport&#xA;Altitude: 21000 ft&#xA;Speed: 301.5 kts&#xA;Heading: 106.6&#xA;Source: airplanes.live</description>
          <Point>
            <coordinates>-94.935333,30.4602,21000</coordinates>
          </Point>
        </Placemark>
        <Placemark>
          <name>BOMR713 (TEX2)</name>
          <description>Type: TEX2&#xA;Callsign: BOMR713&#xA;Hex: ae1eca&#xA;Branch: USA&#xA;Mission: training&#xA;Altitude: 7000 ft&#xA;Speed: 230.0 kts&#xA;Heading: 3.3&#xA;Source: airplanes.live</description>
          <Point>
            <coordinates>-97.416962,26.742645,7000</coordinates>
          </Point>
        </Placemark>
        <Placemark>
          <name>BALL52 (TEX2)</name>
          <description>Type: TEX2&#xA;Callsign: BALL52&#xA;Hex: ae141a&#xA;Branch: USA&#xA;Mission: training&#xA;Altitude: 4975 ft&#xA;Speed: 206.8 kts&#xA;Heading: 175.0&#xA;Source: airplanes.live</description>
          <Point>
            <coordinates>-97.238646,35.411775,4975</coordinates>
          </Point>
        </Placemark>
      </Folder>
      <Folder>
        <name>USAF</name>
        <Placemark>
          <name>STEEL31 (TEX2)</name>
          <description>Type: TEX2&#xA;Callsign: STEEL31&#xA;Hex: ae11c4&#xA;Branch: USAF&#xA;Mission: training&#xA;Altitude: 9875 ft&#xA;Speed: 264.4 kts&#xA;Heading: 102.7&#xA;Source: adsb.lol</description>
          <Point>
            <coordinates>-97.820148,34.046864,9875</coordinates>
          </Point>
        </Placemark>
        <Placemark>
          <name>ae6d88 (C30J)</name>
          <description>Type: C30J&#xA;Hex: ae6d88&#xA;Branch: USAF&#xA;Mission: ISR&#xA;Altitude: 19000 ft&#xA;Speed: 391.0 kts&#xA;Heading: 66.0&#xA;Source: airplanes.live</description>
          <Point>
            <coordinates>-70.622254,43.698749,19000</coordinates>
          </Point>
        </Placemark>
        <Placemark>
          <name>TEX02 (TEX2)</name>
          <description>Type: TEX2&#xA;Callsign: TEX02&#xA;Hex: c87f22&#xA;Branch: USAF&#xA;Mission: transport&#xA;Altitude: 900 ft&#xA;Speed: 115.7 kts&#xA;Heading: 50.3&#xA;Source: airplanes.live</description>
          <Point>
            <coordinates>175.415527,-40.223328,900</coordinates>
          </Point>
        </Placemark>
        <Placemark>
          <name>CASH51 (TEX2)</name>
          <description>Type: TEX2&#xA;Callsign: CASH51&#xA;Hex: ae11b7&#xA;Branch: USAF&#xA;Mission: training&#xA;Altitude: 19075 ft&#xA;Speed: 297.2 kts&#xA;Heading: 77.4&#xA;Source: airplanes.live</description>
          <Point>
            <coordinates>-97.921843,30.527298,19075</coordinates>
          </Point>
        </Placemark>
        <Placemark>
          <name>TALON49 (HAWK)</name>
          <description>Type: HAWK&#xA;Callsign: TALON49&#xA;Hex: ae62c7&#xA;Branch: USAF&#xA;Mission: training&#xA;Altitude: 10875 ft&#xA;Speed: 401.5 kts&#xA;Heading: 272.7&#xA;Source: adsb.lol</description>
          <Point>
            <coordinates>-89.111646,32.584625,10875</coordinates>
          </Point>
        </Placemark>
        <Placemark>
          <name>ae6793 (Unknown Type)</name>
          <description>Type: Unknown Type&#xA;Hex: ae6793&#xA;Branch: USAF&#xA;Mission: ISR&#xA;Altitude: 3875 ft&#xA;Speed: 240.0 kts&#xA;Heading: 344.3&#xA;Source: airplanes.live</description>
          <Point>
            <coordinates>-119.190536,47.428909,3875</coordinates>
          </Point>
        </Placemark>
      </Folder>
      <Folder>
        <name>USN</name>
        <Placemark>
          <name>STAFF2 (T-38 Talon)</name>
          <description>Type: T-38 Talon&#xA;Callsign: STAFF2&#xA;Hex: ae0106&#xA;Branch: USN&#xA;Mission: training&#xA;Altitude: 13950 ft&#xA;Speed: 408.2 kts&#xA;Heading: 247.1&#xA;Source: adsb.lol</description>
          <Point>
            <coordinates>-98.564129,35.124222,13950</coordinates>
          </Point>
        </Placemark>
        <Placemark>
          <name>SHOOT77 (T-38 Talon)</name>
          <description>Type: T-38 Talon&#xA;Callsign: SHOOT77&#xA;Hex: ae0019&#xA;Branch: USN&#xA;Mission: training&#xA;Altitude: 18525 ft&#xA;Speed: 362.3 kts&#xA;Heading: 272.4&#xA;Source: airplanes.live</description>
          <Point>
            <coordinates>-96.268272,35.396027,18525</coordinates>
          </Point>
        </Placemark>
        <Placemark>
          <name>C2310 (CN35)</name>
          <description>Type: CN35&#xA;Callsign: C2310&#xA;Hex: ae2708&#xA;Branch: USN&#xA;Mission: transport&#xA;Altitude: 1150 ft&#xA;Speed: 132.7 kts&#xA;Heading: 59.2&#xA;Source: adsb.lol</description>
          <Point>
            <coordinates>-89.440344,30.334946,1150</coordinates>
          </Point>
        </Placemark>
      </Folder>
      <Folder>
        <name>USCG</name>
        <Placemark>
          <name>BELLS37 (EC45)</name>
          <description>Type: EC45&#xA;Callsign: BELLS37&#xA;Hex: ae5a81&#xA;Branch: USCG&#xA;Mission: search and rescue&#xA;Altitude: 950 ft&#xA;Speed: 88.4 kts&#xA;Heading: 134.5&#xA;Source: airplanes.live</description>
          <Point>
            <coordinates>-85.493505,31.357819,950</coordinates>
          </Point>
        </Placemark>
        <Placemark>
          <name>R20586 (H-60 Black Hawk)</name>
          <description>Type: H-60 Black Hawk&#xA;Callsign: R20586&#xA;Hex: ae56b2&#xA;Branch: USCG&#xA;Mission: search and rescue&#xA;Altitude: 650 ft&#xA;Speed: 96.2 kts&#xA;Heading: 115.2&#xA;Source: airplanes.live</description>
          <Point>
            <coordinates>-122.552284,47.048035,650</coordinates>
          </Point>
        </Placemark>
        <Placemark>
          <name>MESSY77 (EC45)</name>
          <description>Type: EC45&#xA;Callsign: MESSY77&#xA;Hex: ae204f&#xA;Branch: USCG&#xA;Mission: search and rescue&#xA;Altitude: 600 ft&#xA;Speed: 82.1 kts&#xA;Heading: 67.8&#xA;Source: adsb.lol</description>
          <Point>
            <coordinates>-85.566478,31.227722,600</coordinates>
          </Point>
        </Placemark>
        <Placemark>
          <name>MESSY13 (EC45)</name>
          <description>Type: EC45&#xA;Callsign: MESSY13&#xA;Hex: ae2065&#xA;Branch: USCG&#xA;Mission: search and rescue&#xA;Altitude: 750 ft&#xA;Speed: 100.4 kts&#xA;Heading: 255.0&#xA;Source: airplanes.live</description>
          <Point>
            <coordinates>-85.559208,31.187164,750</coordinates>
          </Point>
        </Placemark>
        <Placemark>
          <name>MESSY21 (EC45)</name>
          <description>Type: EC45&#xA;Callsign: MESSY21&#xA;Hex: ae5a80&#xA;Branch: USCG&#xA;Mission: search and rescue&#xA;Altitude: 625 ft&#xA;Speed: 69.2 kts&#xA;Heading: 355.9&#xA;Source: airplanes.live</description>
          <Point>
            <coordinates>-85.544936,31.237885,625</coordinates>
          </Point>
        </Placemark>
        <Placemark>
          <name>VV8E705 (A119)</name>
          <description>Type: A119&#xA;Callsign: VV8E705&#xA;Hex: ae73e6&#xA;Branch: USCG&#xA;Mission: search and rescue&#xA;Altitude: 2775 ft&#xA;Speed: 113.9 kts&#xA;Heading: 218.6&#xA;Source: adsb.lol</description>
          <Point>
            <coordinates>-86.907241,30.716537,2775</coordinates>
          </Point>
        </Placemark>
      </Folder>
      <Folder>
        <name>Unknown</name>
        <Placemark>
          <name>ae0253 (C30J)</name>
          <description>Type: C30J&#xA;Hex: ae0253&#xA;Altitude: 1150 ft&#xA;Speed: 0.0 kts&#xA;Heading: 0.0&#xA;Source: adsb.lol</description>
          <Point>
            <coordinates>0,0,1150</coordinates>
          </Point>
        </Placemark>
        <Placemark>
          <name>3672e4 (Unknown Type)</name>
          <description>Type: Unknown Type&#xA;Hex: 3672e4&#xA;Altitude: 0 ft&#xA;Speed: 22.5 kts&#xA;Heading: 0.0&#xA;Source: adsb.lol</description>
          <Point>
            <coordinates>0,0,0</coordinates>
          </Point>
        </Placemark>
        <Placemark>
          <name>ae5a74 (EC45)</name>
          <description>Type: EC45&#xA;Hex: ae5a74&#xA;Altitude: 750 ft&#xA;Speed: 84.1 kts&#xA;Heading: 295.4&#xA;Source: airplanes.live</description>
          <Point>
            <coordinates>-85.723518,31.166885,750</coordinates>
          </Point>
        </Placemark>
        <Placemark>
          <name>TEST1234 (Unknown Type)</name>
          <description>Type: Unknown Type&#xA;Callsign: TEST1234&#xA;Hex: adfbdf&#xA;Altitude: 0 ft&#xA;Speed: 0.0 kts&#xA;Heading: 0.0&#xA;Source: airplanes.live</description>
          <Point>
            <coordinates>0,0,0</coordinates>
          </Point>
        </Placemark>
        <Placemark>
          <name>VOID01 (T-38 Talon)</name>
          <description>Type: T-38 Talon&#xA;Callsign: VOID01&#xA;Hex: ae0081&#xA;Altitude: 19475 ft&#xA;Speed: 425.6 kts&#xA;Heading: 233.0&#xA;Source: adsb.lol</description>
          <Point>
            <coordinates>-98.996487,33.847108,19475</coordinates>
          </Point>
        </Placemark>
        <Placemark>
          <name>c2f45a (Unknown Type)</name>
          <description>Type: Unknown Type&#xA;Hex: c2f45a&#xA;Altitude: 47300 ft&#xA;Speed: 0.0 kts&#xA;Heading: 0.0&#xA;Source: airplanes.live</description>
          <Point>
            <coordinates>0,0,47300</coordinates>
          </Point>
        </Placemark>
        <Placemark>
          <name>ae05ab (KC-135 Stratotanker)</name>
          <description>Type: KC-135 Stratotanker&#xA;Hex: ae05ab&#xA;Altitude: 36000 ft&#xA;Speed: 0.0 kts&#xA;Heading: 0.0&#xA;Source: adsb.lol</description>
          <Point>
            <coordinates>0,0,36000</coordinates>
          </Point>
        </Placemark>
        <Placemark>
          <name>BOLT56 (C172)</name>
          <description>Type: C172&#xA;Callsign: BOLT56&#xA;Hex: aa7ecf&#xA;Altitude: 7300 ft&#xA;Speed: 108.2 kts&#xA;Heading: 343.9&#xA;Source: adsb.lol</description>
          <Point>
            <coordinates>-104.804853,38.972031,7300</coordinates>
          </Point>
        </Placemark>
        <Placemark>
          <name>af6871 (Unknown Type)</name>
          <description>Type: Unknown Type&#xA;Hex: af6871&#xA;Altitude: 0 ft&#xA;Speed: 0.0 kts&#xA;Heading: 0.0&#xA;Source: adsb.lol</description>
          <Point>
            <coordinates>0,0,0</coordinates>
          </Point>
        </Placemark>
        <Placemark>
          <name>ae68a6 (Unknown Type)</name>
          <description>Type: Unknown Type&#xA;Hex: ae68a6&#xA;Altitude: 34000 ft&#xA;Speed: 363.0 kts&#xA;Heading: 281.3&#xA;Source: airplanes.live</description>
          <Point>
            <coordinates>-119.714996,48.076401,34000</coordinates>
          </Point>
        </Placemark>
        <Placemark>
          <name>CAPE47 (H-60 Black Hawk)</name>
          <description>Type: H-60 Black Hawk&#xA;Callsign: CAPE47&#xA;Hex: ae50e5&#xA;Altitude: 0 ft&#xA;Speed: 98.0 kts&#xA;Heading: 114.5&#xA;Source: airplanes.live</description>
          <Point>
            <coordinates>-85.783722,31.373182,0</coordinates>
          </Point>
        </Placemark>
        <Placemark>
          <name>CASTL04 (C-130 Hercules)</name>
          <description>Type: C-130 Hercules&#xA;Callsign: CASTL04&#xA;Hex: adfea3&#xA;Altitude: 1200 ft&#xA;Speed: 135.0 kts&#xA;Heading: 230.4&#xA;Source: airplanes.live</description>
          <Point>
            <coordinates>-75.424805,40.623962,1200</coordinates>
          </Point>
        </Placemark>
        <Placemark>
          <name>VV8E739 (A119)</name>
          <description>Type: A119&#xA;Callsign: VV8E739&#xA;Hex: ae7426&#xA;Altitude: 1400 ft&#xA;Speed: 72.0 kts&#xA;Heading: 90.8&#xA;Source: airplanes.live</description>
          <Point>
            <coordinates>-87.557427,30.813217,1400</coordinates>
          </Point>
        </Placemark>
        <Placemark>
          <name>CAPE32 (H-60 Black Hawk)</name>
          <description>Type: H-60 Black Hawk&#xA;Callsign: CAPE32&#xA;Hex: ae487a&#xA;Altitude: 0 ft&#xA;Speed: 54.0 kts&#xA;Heading: 121.1&#xA;Source: airplanes.live</description>
          <Point>
            <coordinates>-85.74939,31.36429,0</coordinates>
          </Point>
        </Placemark>
        <Placemark>
          <name>ae1bf0 (C30J)</name>
          <description>Type: C30J&#xA;Hex: ae1bf0&#xA;Altitude: 1425 ft&#xA;Speed: 0.0 kts&#xA;Heading: 0.0&#xA;Source: adsb.lol</description>
          <Point>
            <coordinates>0,0,1425</coordinates>
          </Point>
        </Placemark>
        <Placemark>
          <name>ae0245 (C30J)</name>
          <description>Type: C30J&#xA;Hex: ae0245&#xA;Altitude: 0 ft&#xA;Speed: 0.0 kts&#xA;Heading: 0.0&#xA;Source: airplanes.live</description>
          <Point>
            <coordinates>0,0,0</coordinates>
          </Point>
        </Placemark>
        <Placemark>
          <name>STGN05 (G120)</name>
          <description>Type: G120&#xA;Callsign: STGN05&#xA;Hex: c02835&#xA;Altitude: 1800 ft&#xA;Speed: 103.8 kts&#xA;Heading: 105.6&#xA;Source: adsb.lol</description>
          <Point>
            <coordinates>-98.322589,49.886542,1800</coordinates>
          </Point>
        </Placemark>
        <Placemark>
          <name>c25214 (Unknown Type)</name>
          <description>Type: Unknown Type&#xA;Hex: c25214&#xA;Altitude: 0 ft&#xA;Speed: 0.0 kts&#xA;Heading: 0.0&#xA;Source: adsb.lol</description>
          <Point>
            <coordinates>0,0,0</coordinates>
          </Point>
        </Placemark>
        <Placemark>
          <name>ae46b9 (Unknown Type)</name>
          <description>Type: Unknown Type&#xA;Hex: ae46b9&#xA;Altitude: 0 ft&#xA;Speed: 0.0 kts&#xA;Heading: 0.0&#xA;Source: adsb.lol</description>
          <Point>
            <coordinates>0,0,0</coordinates>
          </Point>
        </Placemark>
        <Placemark>
          <name>BALL64 (TEX2)</name>
          <description>Type: TEX2&#xA;Callsign: BALL64&#xA;Hex: ae1e60&#xA;Altitude: 1625 ft&#xA;Speed: 166.6 kts&#xA;Heading: 323.5&#xA;Source: airplanes.live</description>
          <Point>
            <coordinates>-97.398649,35.421784,1625</coordinates>
          </Point>
        </Placemark>
        <Placemark>
          <name>FUJCG (A332)</name>
          <description>Type: A332&#xA;Callsign: FUJCG&#xA;Hex: 3b75dd&#xA;Altitude: 4375 ft&#xA;Speed: 249.0 kts&#xA;Heading: 163.7&#xA;Source: adsb.lol</description>
          <Point>
            <coordinates>4.574105,43.89755,4375</coordinates>
          </Point>
        </Placemark>
        <Placemark>
          <name>WING14 (BE20)</name>
          <description>Type: BE20&#xA;Callsign: WING14&#xA;Hex: adfe97&#xA;Altitude: 1125 ft&#xA;Speed: 0.0 kts&#xA;Heading: 0.0&#xA;Source: airplanes.live</description>
          <Point>
            <coordinates>0,0,1125</coordinates>
          </Point>
        </Placemark>
        <Placemark>
          <name>NORTH48 (BE20)</name>
          <description>Type: BE20&#xA;Callsign: NORTH48&#xA;Hex: ae04fa&#xA;Altitude: 5450 ft&#xA;Speed: 199.9 kts&#xA;Heading: 64.2&#xA;Source: airplanes.live</description>
          <Point>
            <coordinates>-150.501804,60.791885,5450</coordinates>
          </Point>
        </Placemark>
        <Placemark>
          <name>WATTS74 (EC45)</name>
          <description>Type: EC45&#xA;Callsign: WATTS74&#xA;Hex: ae1f4b&#xA;Altitude: 4575 ft&#xA;Speed: 107.9 kts&#xA;Heading: 302.5&#xA;Source: airplanes.live</description>
          <Point>
            <coordinates>-111.582529,32.711466,4575</coordinates>
          </Point>
        </Placemark>
        <Placemark>
          <name>BLZR289 (HAWK)</name>
          <description>Type: HAWK&#xA;Callsign: BLZR289&#xA;Hex: ae6300&#xA;Altitude: 16350 ft&#xA;Speed: 266.6 kts&#xA;Heading: 134.2&#xA;Source: adsb.lol</description>
          <Point>
            <coordinates>-98.296802,26.641479,16350</coordinates>
          </Point>
        </Placemark>
        <Placemark>
          <name>GOAT20 (TEX2)</name>
          <description>Type: TEX2&#xA;Callsign: GOAT20&#xA;Hex: ae13b6&#xA;Altitude: 15125 ft&#xA;Speed: 123.6 kts&#xA;Heading: 306.8&#xA;Source: airplanes.live</description>
          <Point>
            <coordinates>-97.96419,29.149567,15125</coordinates>
          </Point>
        </Placemark>
        <Placemark>
          <name>PAT123 (BE20)</name>
          <description>Type: BE20&#xA;Callsign: PAT123&#xA;Hex: ae0631&#xA;Altitude: 3625 ft&#xA;Speed: 213.0 kts&#xA;Heading: 0.5&#xA;Source: adsb.lol</description>
          <Point>
            <coordinates>-97.588806,35.266113,3625</coordinates>
          </Point>
        </Placemark>
        <Placemark>
          <name>BOMR736 (TEX2)</name>
          <description>Type: TEX2&#xA;Callsign: BOMR736&#xA;Hex: ae1ed1&#xA;Altitude: 775 ft&#xA;Speed: 133.0 kts&#xA;Heading: 132.1&#xA;Source: airplanes.live</description>
          <Point>
            <coordinates>-97.299484,27.699097,775</coordinates>
          </Point>
        </Placemark>
        <Placemark>
          <name>TALON35 (HAWK)</name>
          <description>Type: HAWK&#xA;Callsign: TALON35&#xA;Hex: ae62b9&#xA;Altitude: 12725 ft&#xA;Speed: 334.2 kts&#xA;Heading: 119.8&#xA;Source: airplanes.live</description>
          <Point>
            <coordinates>-89.0855,32.885804,12725</coordinates>
          </Point>
        </Placemark>
        <Placemark>
          <name>RN116 (TEX2)</name>
          <description>Type: TEX2&#xA;Callsign: RN116&#xA;Hex: ae2ef1&#xA;Altitude: 2375 ft&#xA;Speed: 212.5 kts&#xA;Heading: 288.1&#xA;Source: adsb.lol</description>
          <Point>
            <coordinates>-87.807258,31.115753,2375</coordinates>
          </Point>
        </Placemark>
        <Placemark>
          <name>R26344 (H-60 Black Hawk)</name>
          <description>Type: H-60 Black Hawk&#xA;Callsign: R26344&#xA;Hex: ae0cc7&#xA;Altitude: 6075 ft&#xA;Speed: 128.3 kts&#xA;Heading: 98.1&#xA;Source: airplanes.live</description>
          <Point>
            <coordinates>-116.485234,34.805237,6075</coordinates>
          </Point>
        </Placemark>
        <Placemark>
          <name>afa82a (H-60 Black Hawk)</name>
          <description>Type: H-60 Black Hawk&#xA;Hex: afa82a&#xA;Altitude: 1300 ft&#xA;Speed: 98.1 kts&#xA;Heading: 200.3&#xA;Source: adsb.lol</description>
          <Point>
            <coordinates>-88.175569,30.888153,1300</coordinates>
          </Point>
        </Placemark>
        <Placemark>
          <name>SQUIB33 (EC45)</name>
          <description>Type: EC45&#xA;Callsign: SQUIB33&#xA;Hex: ae1fcc&#xA;Altitude: 850 ft&#xA;Speed: 62.0 kts&#xA;Heading: 1.2&#xA;Source: airplanes.live</description>
          <Point>
            <coordinates>-85.712852,31.2724,850</coordinates>
          </Point>
        </Placemark>
        <Placemark>
          <name>ae6797 (Unknown Type)</name>
          <description>Type: Unknown Type&#xA;Hex: ae6797&#xA;Altitude: 21000 ft&#xA;Speed: 275.0 kts&#xA;Heading: 307.0&#xA;Source: airplanes.live</description>
          <Point>
            <coordinates>-80.330612,27.90286,21000</coordinates>
          </Point>
        </Placemark>
        <Placemark>
          <name>RCH1848 (C-17 Globemaster III)</name>
          <description>Type: C-17 Globemaster III&#xA;Callsign: RCH1848&#xA;Hex: ae145b&#xA;Altitude: 6600 ft&#xA;Speed: 269.0 kts&#xA;Heading: 140.0&#xA;Source: airplanes.live</description>
          <Point>
            <coordinates>-80.289679,33.027213,6600</coordinates>
          </Point>
        </Placemark>
        <Placemark>
          <name>R20873 (H-60 Black Hawk)</name>
          <description>Type: H-60 Black Hawk&#xA;Callsign: R20873&#xA;Hex: ae5d72&#xA;Altitude: 925 ft&#xA;Speed: 114.6 kts&#xA;Heading: 159.0&#xA;Source: airplanes.live</description>
          <Point>
            <coordinates>-75.872989,44.224719,925</coordinates>
          </Point>
        </Placemark>
        <Placemark>
          <name>JOKER49 (Unknown Type)</name>
          <description>Type: Unknown Type&#xA;Callsign: JOKER49&#xA;Hex: 3f6f33&#xA;Altitude: 1750 ft&#xA;Speed: 101.6 kts&#xA;Heading: 96.2&#xA;Source: adsb.lol</description>
          <Point>
            <coordinates>9.563458,49.419388,1750</coordinates>
          </Point>
        </Placemark>
        <Placemark>
          <name>e483ad (P-3C Orion)</name>
          <description>Type: P-3C Orion&#xA;Hex: e483ad&#xA;Altitude: 26000 ft&#xA;Speed: 0.0 kts&#xA;Heading: 0.0&#xA;Source: airplanes.live</description>
          <Point>
            <coordinates>0,0,26000</coordinates>
          </Point>
        </Placemark>
        <Placemark>
          <name>ae0627 (KC-135 Stratotanker)</name>
          <description>Type: KC-135 Stratotanker&#xA;Hex: ae0627&#xA;Altitude: 32950 ft&#xA;Speed: 534.6 kts&#xA;Heading: 59.2&#xA;Source: airplanes.live</description>
          <Point>
            <coordinates>-63.505714,47.20285,32950</coordinates>
          </Point>
        </Placemark>
        <Placemark>
          <name>adfe71 (C-130 Hercules)</name>
          <description>Type: C-130 Hercules&#xA;Hex: adfe71&#xA;Altitude: 15900 ft&#xA;Speed: 0.0 kts&#xA;Heading: 0.0&#xA;Source: adsb.lol</description>
          <Point>
            <coordinates>0,0,15900</coordinates>
          </Point>
        </Placemark>
        <Placemark>
          <name>VOODO11 (Unknown Type)</name>
          <description>Type: Unknown Type&#xA;Callsign: VOODO11&#xA;Hex: 3f5413&#xA;Altitude: 1675 ft&#xA;Speed: 0.0 kts&#xA;Heading: 0.0&#xA;Source: airplanes.live</description>
          <Point>
            <coordinates>0,0,1675</coordinates>
          </Point>
        </Placemark>
        <Placemark>
          <name>RCH137 (C-17 Globemaster III)</name>
          <description>Type: C-17 Globemaster III&#xA;Callsign: RCH137&#xA;Hex: ae145c&#xA;Altitude: 35975 ft&#xA;Speed: 0.0 kts&#xA;Heading: 0.0&#xA;Source: adsb.lol</description>
          <Point>
            <coordinates>0,0,35975</coordinates>
          </Point>
        </Placemark>
        <Placemark>
          <name>ae6383 (AH-64 Apache)</name>
          <description>Type: AH-64 Apache&#xA;Hex: ae6383&#xA;Altitude: 5900 ft&#xA;Speed: 0.0 kts&#xA;Heading: 0.0&#xA;Source: adsb.lol</description>
          <Point>
            <coordinates>0,0,5900</coordinates>
          </Point>
        </Placemark>
        <Placemark>
          <name>ZORRO21 (AT8T)</name>
          <description>Type: AT8T&#xA;Callsign: ZORRO21&#xA;Hex: aafaaa&#xA;Altitude: 1600 ft&#xA;Speed: 125.1 kts&#xA;Heading: 358.2&#xA;Source: adsb.lol</description>
          <Point>
            <coordinates>-97.605753,35.360382,1600</coordinates>
          </Point>
        </Placemark>
        <Placemark>
          <name>CFC3823 (CL60)</name>
          <description>Type: CL60&#xA;Callsign: CFC3823&#xA;Hex: c2c1f1&#xA;Altitude: 28875 ft&#xA;Speed: 404.2 kts&#xA;Heading: 92.0&#xA;Source: airplanes.live</description>
          <Point>
            <coordinates>-148.132193,61.270111,28875</coordinates>
          </Point>
        </Placemark>
        <Placemark>
          <name>DUKE32 (Unknown Type)</name>
          <description>Type: Unknown Type&#xA;Callsign: DUKE32&#xA;Hex: ae2216&#xA;Altitude: 2800 ft&#xA;Speed: 22.0 kts&#xA;Heading: 241.0&#xA;Source: adsb.lol</description>
          <Point>
            <coordinates>-117.460995,33.249357,2800</coordinates>
          </Point>
        </Placemark>
        <Placemark>
          <name>RCH460 (C-17 Globemaster III)</name>
          <description>Type: C-17 Globemaster III&#xA;Callsign: RCH460&#xA;Hex: ae07f4&#xA;Altitude: 26800 ft&#xA;Speed: 522.0 kts&#xA;Heading: 46.0&#xA;Source: airplanes.live</description>
          <Point>
            <coordinates>-115.679721,34.042727,26800</coordinates>
          </Point>
        </Placemark>
        <Placemark>
          <name>ROVE17 (TEX2)</name>
          <description>Type: TEX2&#xA;Callsign: ROVE17&#xA;Hex: ae1e87&#xA;Altitude: 9475 ft&#xA;Speed: 288.4 kts&#xA;Heading: 93.0&#xA;Source: adsb.lol</description>
          <Point>
            <coordinates>-101.202804,31.820643,9475</coordinates>
          </Point>
        </Placemark>
        <Placemark>
          <name>STAFF1 (T-38 Talon)</name>
          <description>Type: T-38 Talon&#xA;Callsign: STAFF1&#xA;Hex: ae14d5&#xA;Altitude: 14450 ft&#xA;Speed: 397.9 kts&#xA;Heading: 246.9&#xA;Source: airplanes.live</description>
          <Point>
            <coordinates>-98.582508,35.123749,14450</coordinates>
          </Point>
        </Placemark>
        <Placemark>
          <name>GOAT28 (TEX2)</name>
          <description>Type: TEX2&#xA;Callsign: GOAT28&#xA;Hex: ae0206&#xA;Altitude: 1750 ft&#xA;Speed: 146.3 kts&#xA;Heading: 347.8&#xA;Source: adsb.lol</description>
          <Point>
            <coordinates>-97.182532,30.019071,1750</coordinates>
          </Point>
        </Placemark>
        <Placemark>
          <name>GEARS96 (CH-47 Chinook)</name>
          <description>Type: CH-47 Chinook&#xA;Callsign: GEARS96&#xA;Hex: ae5243&#xA;Altitude: 1325 ft&#xA;Speed: 104.4 kts&#xA;Heading: 23.1&#xA;Source: airplanes.live</description>
          <Point>
            <coordinates>-85.63369,31.409317,1325</coordinates>
          </Point>
        </Placemark>
        <Placemark>
          <name>SPADE41 (TEX2)</name>
          <description>Type: TEX2&#xA;Callsign: SPADE41&#xA;Hex: ae139f&#xA;Altitude: 13000 ft&#xA;Speed: 263.3 kts&#xA;Heading: 120.8&#xA;Source: airplanes.live</description>
          <Point>
            <coordinates>-100.349067,29.243371,13000</coordinates>
          </Point>
        </Placemark>
        <Placemark>
          <name>SWOOP11 (TEX2)</name>
          <description>Type: TEX2&#xA;Callsign: SWOOP11&#xA;Hex: ae112b&#xA;Altitude: 8800 ft&#xA;Speed: 243.3 kts&#xA;Heading: 2.8&#xA;Source: airplanes.live</description>
          <Point>
            <coordinates>-100.258161,29.249423,8800</coordinates>
          </Point>
        </Placemark>
        <Placemark>
          <name>BLZR208 (Unknown Type)</name>
          <description>Type: Unknown Type&#xA;Callsign: BLZR208&#xA;Hex: ae6265&#xA;Altitude: 0 ft&#xA;Speed: 368.9 kts&#xA;Heading: 320.8&#xA;Source: airplanes.live</description>
          <Point>
            <coordinates>-98.136775,27.798019,0</coordinates>
          </Point>
        </Placemark>
        <Placemark>
          <name>RAIDR71 (C30J)</name>
          <description>Type: C30J&#xA;Callsign: RAIDR71&#xA;Hex: ae6c1f&#xA;Altitude: 21000 ft&#xA;Speed: 328.9 kts&#xA;Heading: 72.1&#xA;Source: adsb.lol</description>
          <Point>
            <coordinates>-85.311699,34.110733,21000</coordinates>
          </Point>
        </Placemark>
        <Placemark>
          <name>ae223b (CN35)</name>
          <description>Type: CN35&#xA;Hex: ae223b&#xA;Altitude: 1475 ft&#xA;Speed: 162.0 kts&#xA;Heading: 179.7&#xA;Source: airplanes.live</description>
          <Point>
            <coordinates>0,0,1475</coordinates>
          </Point>
        </Placemark>
        <Placemark>
          <name>7cfa35 (B350)</name>
          <description>Type: B350&#xA;Hex: 7cfa35&#xA;Altitude: 0 ft&#xA;Speed: 0.0 kts&#xA;Heading: 0.0&#xA;Source: adsb.lol</description>
          <Point>
            <coordinates>0,0,0</coordinates>
          </Point>
        </Placemark>
        <Placemark>
          <name>C6058 (H-60 Black Hawk)</name>
          <description>Type: H-60 Black Hawk&#xA;Callsign: C6058&#xA;Hex: ae6cec&#xA;Altitude: 375 ft&#xA;Speed: 121.7 kts&#xA;Heading: 223.0&#xA;Source: adsb.lol</description>
          <Point>
            <coordinates>-119.095216,34.142578,375</coordinates>
          </Point>
        </Placemark>
        <Placemark>
          <name>BASHA94 (T-38 Talon)</name>
          <description>Type: T-38 Talon&#xA;Callsign: BASHA94&#xA;Hex: ae0068&#xA;Altitude: 16800 ft&#xA;Speed: 412.2 kts&#xA;Heading: 337.9&#xA;Source: airplanes.live</description>
          <Point>
            <coordinates>-99.357549,33.540482,16800</coordinates>
          </Point>
        </Placemark>
        <Placemark>
          <name>GOAT50 (TEX2)</name>
          <description>Type: TEX2&#xA;Callsign: GOAT50&#xA;Hex: ae13ce&#xA;Altitude: 17475 ft&#xA;Speed: 242.8 kts&#xA;Heading: 333.9&#xA;Source: airplanes.live</description>
          <Point>
            <coordinates>-98.772213,29.428345,17475</coordinates>
          </Point>
        </Placemark>
        <Placemark>
          <name>SH246 (TEX2)</name>
          <description>Type: TEX2&#xA;Callsign: SH246&#xA;Hex: ae58eb&#xA;Altitude: 475 ft&#xA;Speed: 119.6 kts&#xA;Heading: 209.6&#xA;Source: airplanes.live</description>
          <Point>
            <coordinates>-87.33937,31.475784,475</coordinates>
          </Point>
        </Placemark>
        <Placemark>
          <name>RUDY24 (V-22 Osprey)</name>
          <description>Type: V-22 Osprey&#xA;Callsign: RUDY24&#xA;Hex: ae6ba7&#xA;Altitude: 325 ft&#xA;Speed: 76.7 kts&#xA;Heading: 247.8&#xA;Source: airplanes.live</description>
          <Point>
            <coordinates>-118.565222,33.030945,325</coordinates>
          </Point>
        </Placemark>
        <Placemark>
          <name>CATMAN4 (T-38 Talon)</name>
          <description>Type: T-38 Talon&#xA;Callsign: CATMAN4&#xA;Hex: adffb2&#xA;Altitude: 15300 ft&#xA;Speed: 477.3 kts&#xA;Heading: 272.0&#xA;Source: airplanes.live</description>
          <Point>
            <coordinates>-99.258997,29.418128,15300</coordinates>
          </Point>
        </Placemark>
        <Placemark>
          <name>FORGE78 (GLF5)</name>
          <description>Type: GLF5&#xA;Callsign: FORGE78&#xA;Hex: ae13d1&#xA;Altitude: 16400 ft&#xA;Speed: 389.9 kts&#xA;Heading: 184.0&#xA;Source: airplanes.live</description>
          <Point>
            <coordinates>-75.592055,42.31398,16400</coordinates>
          </Point>
        </Placemark>
        <Placemark>
          <name>ae048c (KC-135 Stratotanker)</name>
          <description>Type: KC-135 Stratotanker&#xA;Hex: ae048c&#xA;Altitude: 33900 ft&#xA;Speed: 582.0 kts&#xA;Heading: 119.0&#xA;Source: airplanes.live</description>
          <Point>
            <coordinates>-73.70749,44.285935,33900</coordinates>
          </Point>
        </Placemark>
        <Placemark>
          <name>RAVN32 (PC21)</name>
          <description>Type: PC21&#xA;Callsign: RAVN32&#xA;Hex: 7cfa05&#xA;Altitude: 3050 ft&#xA;Speed: 215.1 kts&#xA;Heading: 271.6&#xA;Source: airplanes.live</description>
          <Point>
            <coordinates>151.952673,-32.716599,3050</coordinates>
          </Point>
        </Placemark>
        <Placemark>
          <name>VR49 (A332)</name>
          <description>Type: A332&#xA;Callsign: VR49&#xA;Hex: 43c700&#xA;Altitude: 0 ft&#xA;Speed: 0.0 kts&#xA;Heading: 0.0&#xA;Source: adsb.lol</description>
          <Point>
            <coordinates>0,0,0</coordinates>
          </Point>
        </Placemark>
        <Placemark>
          <name>R08131 (CH-47 Chinook)</name>
          <description>Type: CH-47 Chinook&#xA;Callsign: R08131&#xA;Hex: ae5996&#xA;Altitude: 700 ft&#xA;Speed: 96.2 kts&#xA;Heading: 196.9&#xA;Source: adsb.lol</description>
          <Point>
            <coordinates>-87.478988,36.626137,700</coordinates>
          </Point>
        </Placemark>
        <Placemark>
          <name>PAT486 (BE20)</name>
          <description>Type: BE20&#xA;Callsign: PAT486&#xA;Hex: adfecc&#xA;Altitude: 15025 ft&#xA;Speed: 184.8 kts&#xA;Heading: 312.1&#xA;Source: airplanes.live</description>
          <Point>
            <coordinates>-105.754795,35.455353,15025</coordinates>
          </Point>
        </Placemark>
        <Placemark>
          <name>ARCH52 (TEX2)</name>
          <description>Type: TEX2&#xA;Callsign: ARCH52&#xA;Hex: c2b049&#xA;Altitude: 0 ft&#xA;Speed: 44.5 kts&#xA;Heading: 118.1&#xA;Source: airplanes.live</description>
          <Point>
            <coordinates>-105.562542,50.328113,0</coordinates>
          </Point>
        </Placemark>
        <Placemark>
          <name>DEVIL73 (TEX2)</name>
          <description>Type: TEX2&#xA;Callsign: DEVIL73&#xA;Hex: ae1117&#xA;Altitude: 9675 ft&#xA;Speed: 109.2 kts&#xA;Heading: 118.4&#xA;Source: airplanes.live</description>
          <Point>
            <coordinates>-100.520217,28.97807,9675</coordinates>
          </Point>
        </Placemark>
        <Placemark>
          <name>SHOOT35 (T-38 Talon)</name>
          <description>Type: T-38 Talon&#xA;Callsign: SHOOT35&#xA;Hex: ae0034&#xA;Altitude: 15575 ft&#xA;Speed: 423.1 kts&#xA;Heading: 270.9&#xA;Source: airplanes.live</description>
          <Point>
            <coordinates>-96.53595,35.400513,15575</coordinates>
          </Point>
        </Placemark>
        <Placemark>
          <name>KATT19 (TEX2)</name>
          <description>Type: TEX2&#xA;Callsign: KATT19&#xA;Hex: ae1148&#xA;Altitude: 350 ft&#xA;Speed: 130.7 kts&#xA;Heading: 73.1&#xA;Source: airplanes.live</description>
          <Point>
            <coordinates>-88.09162,30.639798,350</coordinates>
          </Point>
        </Placemark>
        <Placemark>
          <name>DRAG972 (Unknown Type)</name>
          <description>Type: Unknown Type&#xA;Callsign: DRAG972&#xA;Hex: 3b7b7e&#xA;Altitude: 1325 ft&#xA;Speed: 139.3 kts&#xA;Heading: 313.6&#xA;Source: adsb.lol</description>
          <Point>
            <coordinates>-60.964098,14.565776,1325</coordinates>
          </Point>
        </Placemark>
        <Placemark>
          <name>RCH931 (C-17 Globemaster III)</name>
          <description>Type: C-17 Globemaster III&#xA;Callsign: RCH931&#xA;Hex: ae119b&#xA;Altitude: 27725 ft&#xA;Speed: 465.0 kts&#xA;Heading: 329.0&#xA;Source: adsb.lol</description>
          <Point>
            <coordinates>6.503974,50.949026,27725</coordinates>
          </Point>
        </Placemark>
        <Placemark>
          <name>7cfa94 (B38M)</name>
          <description>Type: B38M&#xA;Hex: 7cfa94&#xA;Altitude: 0 ft&#xA;Speed: 0.0 kts&#xA;Heading: 0.0&#xA;Source: adsb.lol</description>
          <Point>
            <coordinates>149.199668,-35.303821,0</coordinates>
          </Point>
        </Placemark>
        <Placemark>
          <name>QUESO82 (C560)</name>
          <description>Type: C560&#xA;Callsign: QUESO82&#xA;Hex: adfec0&#xA;Altitude: 6100 ft&#xA;Speed: 269.0 kts&#xA;Heading: 284.9&#xA;Source: adsb.lol</description>
          <Point>
            <coordinates>-96.807733,32.360504,6100</coordinates>
          </Point>
        </Placemark>
        <Placemark>
          <name>TEST1234 (Unknown Type)</name>
          <description>Type: Unknown Type&#xA;Callsign: TEST1234&#xA;Hex: adf995&#xA;Altitude: 0 ft&#xA;Speed: 0.0 kts&#xA;Heading: 0.0&#xA;Source: adsb.lol</description>
          <Point>
            <coordinates>0,0,0</coordinates>
          </Point>
        </Placemark>
        <Placemark>
          <name>adfb0f (Unknown Type)</name>
          <description>Type: Unknown Type&#xA;Hex: adfb0f&#xA;Altitude: 0 ft&#xA;Speed: 0.0 kts&#xA;Heading: 0.0&#xA;Source: airplanes.live</description>
          <Point>
            <coordinates>0,0,0</coordinates>
          </Point>
        </Placemark>
        <Placemark>
          <name>BULET56 (H-60 Black Hawk)</name>
          <description>Type: H-60 Black Hawk&#xA;Callsign: BULET56&#xA;Hex: ae2776&#xA;Altitude: 150 ft&#xA;Speed: 79.1 kts&#xA;Heading: 251.6&#xA;Source: airplanes.live</description>
          <Point>
            <coordinates>-117.544855,32.707835,150</coordinates>
          </Point>
        </Placemark>
        <Placemark>
          <name>PAT375 (BE20)</name>
          <description>Type: BE20&#xA;Callsign: PAT375&#xA;Hex: ae03fa&#xA;Altitude: 26000 ft&#xA;Speed: 234.8 kts&#xA;Heading: 249.6&#xA;Source: airplanes.live</description>
          <Point>
            <coordinates>-90.521521,32.58609,26000</coordinates>
          </Point>
        </Placemark>
        <Placemark>
          <name>SH224 (TEX2)</name>
          <description>Type: TEX2&#xA;Callsign: SH224&#xA;Hex: ae54f2&#xA;Altitude: 1850 ft&#xA;Speed: 221.5 kts&#xA;Heading: 309.9&#xA;Source: adsb.lol</description>
          <Point>
            <coordinates>-88.234717,30.849563,1850</coordinates>
          </Point>
        </Placemark>
        <Placemark>
          <name>FAC1222 (B737)</name>
          <description>Type: B737&#xA;Callsign: FAC1222&#xA;Hex: 0acaa7&#xA;Altitude: 37000 ft&#xA;Speed: 450.9 kts&#xA;Heading: 154.8&#xA;Source: airplanes.live</description>
          <Point>
            <coordinates>-84.590116,18.685318,37000</coordinates>
          </Point>
        </Placemark>
        <Placemark>
          <name>e80674 (C-130 Hercules)</name>
          <description>Type: C-130 Hercules&#xA;Hex: e80674&#xA;Altitude: 4500 ft&#xA;Speed: 0.0 kts&#xA;Heading: 0.0&#xA;Source: adsb.lol</description>
          <Point>
            <coordinates>0,0,4500</coordinates>
          </Point>
        </Placemark>
        <Placemark>
          <name>SAM218 (GLF5)</name>
          <description>Type: GLF5&#xA;Callsign: SAM218&#xA;Hex: ae6cf2&#xA;Altitude: 41000 ft&#xA;Speed: 545.8 kts&#xA;Heading: 96.7&#xA;Source: airplanes.live</description>
          <Point>
            <coordinates>-106.25203,34.936386,41000</coordinates>
          </Point>
        </Placemark>
        <Placemark>
          <name>C6596 (AS65)</name>
          <description>Type: AS65&#xA;Callsign: C6596&#xA;Hex: ae26b6&#xA;Altitude: 8950 ft&#xA;Speed: 139.6 kts&#xA;Heading: 115.5&#xA;Source: airplanes.live</description>
          <Point>
            <coordinates>-101.431835,34.5103,8950</coordinates>
          </Point>
        </Placemark>
        <Placemark>
          <name>KNOBBY2 (T-38 Talon)</name>
          <description>Type: T-38 Talon&#xA;Callsign: KNOBBY2&#xA;Hex: ae00ee&#xA;Altitude: 17200 ft&#xA;Speed: 473.8 kts&#xA;Heading: 143.3&#xA;Source: adsb.lol</description>
          <Point>
            <coordinates>-88.594535,34.230972,17200</coordinates>
          </Point>
        </Placemark>
        <Placemark>
          <name>VV8E725 (A119)</name>
          <description>Type: A119&#xA;Callsign: VV8E725&#xA;Hex: ae7409&#xA;Altitude: 1550 ft&#xA;Speed: 104.9 kts&#xA;Heading: 48.9&#xA;Source: adsb.lol</description>
          <Point>
            <coordinates>-86.942193,30.541626,1550</coordinates>
          </Point>
        </Placemark>
        <Placemark>
          <name>N (C208)</name>
          <description>Type: C208&#xA;Callsign: N&#xA;Hex: ae17cb&#xA;Altitude: 2525 ft&#xA;Speed: 138.1 kts&#xA;Heading: 177.9&#xA;Source: airplanes.live</description>
          <Point>
            <coordinates>-78.691985,35.178223,2525</coordinates>
          </Point>
        </Placemark>
        <Placemark>
          <name>RCH659 (C-17 Globemaster III)</name>
          <description>Type: C-17 Globemaster III&#xA;Callsign: RCH659&#xA;Hex: ae1242&#xA;Altitude: 6000 ft&#xA;Speed: 0.0 kts&#xA;Heading: 0.0&#xA;Source: adsb.lol</description>
          <Point>
            <coordinates>6.389442,49.990043,6000</coordinates>
          </Point>
        </Placemark>
        <Placemark>
          <name>3ea3c3 (Unknown Type)</name>
          <description>Type: Unknown Type&#xA;Hex: 3ea3c3&#xA;Altitude: 0 ft&#xA;Speed: 0.0 kts&#xA;Heading: 0.0&#xA;Source: adsb.lol</description>
          <Point>
            <coordinates>0,0,0</coordinates>
          </Point>
        </Placemark>
        <Placemark>
          <name>TEST1234 (TWR)</name>
          <description>Type: TWR&#xA;Callsign: TEST1234&#xA;Hex: adfbdd&#xA;Altitude: 0 ft&#xA;Speed: 0.0 kts&#xA;Heading: 0.0&#xA;Source: adsb.lol</description>
          <Point>
            <coordinates>0,0,0</coordinates>
          </Point>
        </Placemark>
        <Placemark>
          <name>ae0145 (KC-135 Stratotanker)</name>
          <description>Type: KC-135 Stratotanker&#xA;Hex: ae0145&#xA;Altitude: 29000 ft&#xA;Speed: 494.0 kts&#xA;Heading: 85.0&#xA;Source: adsb.lol</description>
          <Point>
            <coordinates>-90.947045,39.654729,29000</coordinates>
          </Point>
        </Placemark>
        <Placemark>
          <name>QUESO29 (BE20)</name>
          <description>Type: BE20&#xA;Callsign: QUESO29&#xA;Hex: ae08f8&#xA;Altitude: 19975 ft&#xA;Speed: 232.0 kts&#xA;Heading: 275.2&#xA;Source: airplanes.live</description>
          <Point>
            <coordinates>-89.842368,31.380203,19975</coordinates>
          </Point>
        </Placemark>
        <Placemark>
          <name>ROKT31 (HAWK)</name>
          <description>Type: HAWK&#xA;Callsign: ROKT31&#xA;Hex: ae627d&#xA;Altitude: -75 ft&#xA;Speed: 158.8 kts&#xA;Heading: 67.8&#xA;Source: airplanes.live</description>
          <Point>
            <coordinates>-87.331586,30.347823,-75</coordinates>
          </Point>
        </Placemark>
        <Placemark>
          <name>EVAL99 (TEX2)</name>
          <description>Type: TEX2&#xA;Callsign: EVAL99&#xA;Hex: ae54c5&#xA;Altitude: 5800 ft&#xA;Speed: 218.3 kts&#xA;Heading: 348.6&#xA;Source: airplanes.live</description>
          <Point>
            <coordinates>-86.479168,34.592037,5800</coordinates>
          </Point>
        </Placemark>
        <Placemark>
          <name>RCH703 (C-17 Globemaster III)</name>
          <description>Type: C-17 Globemaster III&#xA;Callsign: RCH703&#xA;Hex: ae1453&#xA;Altitude: 30825 ft&#xA;Speed: 472.0 kts&#xA;Heading: 133.6&#xA;Source: adsb.lol</description>
          <Point>
            <coordinates>20.047633,46.969814,30825</coordinates>
          </Point>
        </Placemark>
        <Placemark>
          <name>BRCAT14 (TEX2)</name>
          <description>Type: TEX2&#xA;Callsign: BRCAT14&#xA;Hex: ae58e6&#xA;Altitude: 6950 ft&#xA;Speed: 187.0 kts&#xA;Heading: 32.3&#xA;Source: adsb.lol</description>
          <Point>
            <coordinates>-103.409967,32.518341,6950</coordinates>
          </Point>
        </Placemark>
        <Placemark>
          <name>SKULL44 (TEX2)</name>
          <description>Type: TEX2&#xA;Callsign: SKULL44&#xA;Hex: ae1741&#xA;Altitude: 10900 ft&#xA;Speed: 227.0 kts&#xA;Heading: 264.7&#xA;Source: adsb.lol</description>
          <Point>
            <coordinates>-97.948048,34.251343,10900</coordinates>
          </Point>
        </Placemark>
        <Placemark>
          <name>JAVET47 (T-38 Talon)</name>
          <description>Type: T-38 Talon&#xA;Callsign: JAVET47&#xA;Hex: ae009f&#xA;Altitude: 19000 ft&#xA;Speed: 439.6 kts&#xA;Heading: 184.8&#xA;Source: airplanes.live</description>
          <Point>
            <coordinates>-97.78656,35.247539,19000</coordinates>
          </Point>
        </Placemark>
        <Placemark>
          <name>TALON91 (HAWK)</name>
          <description>Type: HAWK&#xA;Callsign: TALON91&#xA;Hex: ae62eb&#xA;Altitude: 19625 ft&#xA;Speed: 182.6 kts&#xA;Heading: 42.3&#xA;Source: airplanes.live</description>
          <Point>
            <coordinates>-89.520557,32.973999,19625</coordinates>
          </Point>
        </Placemark>
        <Placemark>
          <name>MESSY16 (EC45)</name>
          <description>Type: EC45&#xA;Callsign: MESSY16&#xA;Hex: ae1f58&#xA;Altitude: 825 ft&#xA;Speed: 79.0 kts&#xA;Heading: 218.3&#xA;Source: airplanes.live</description>
          <Point>
            <coordinates>-85.548814,31.219803,825</coordinates>
          </Point>
        </Placemark>
        <Placemark>
          <name>LUNA305 (Unknown Type)</name>
          <description>Type: Unknown Type&#xA;Callsign: LUNA305&#xA;Hex: 3f7128&#xA;Altitude: 0 ft&#xA;Speed: 0.0 kts&#xA;Heading: 0.0&#xA;Source: adsb.lol</description>
          <Point>
            <coordinates>0,0,0</coordinates>
          </Point>
        </Placemark>
        <Placemark>
          <name>ae67c2 (Unknown Type)</name>
          <description>Type: Unknown Type&#xA;Hex: ae67c2&#xA;Altitude: 32000 ft&#xA;Speed: 362.2 kts&#xA;Heading: 268.3&#xA;Source: airplanes.live</description>
          <Point>
            <coordinates>-116.70694,48.057724,32000</coordinates>
          </Point>
        </Placemark>
        <Placemark>
          <name>SOLID62 (T-38 Talon)</name>
          <description>Type: T-38 Talon&#xA;Callsign: SOLID62&#xA;Hex: ae0005&#xA;Altitude: 14900 ft&#xA;Speed: 335.3 kts&#xA;Heading: 236.3&#xA;Source: airplanes.live</description>
          <Point>
            <coordinates>-99.11396,35.910004,14900</coordinates>
          </Point>
        </Placemark>
        <Placemark>
          <name>GRIM25 (T-38 Talon)</name>
          <description>Type: T-38 Talon&#xA;Callsign: GRIM25&#xA;Hex: ae0025&#xA;Altitude: 13550 ft&#xA;Speed: 362.9 kts&#xA;Heading: 171.6&#xA;Source: airplanes.live</description>
          <Point>
            <coordinates>-98.301601,36.104874,13550</coordinates>
          </Point>
        </Placemark>
        <Placemark>
          <name>KNOBBY4 (T-38 Talon)</name>
          <description>Type: T-38 Talon&#xA;Callsign: KNOBBY4&#xA;Hex: adff82&#xA;Altitude: 14800 ft&#xA;Speed: 553.1 kts&#xA;Heading: 105.1&#xA;Source: airplanes.live</description>
          <Point>
            <coordinates>-87.987728,33.886864,14800</coordinates>
          </Point>
        </Placemark>
        <Placemark>
          <name>MCUE12 (B762)</name>
          <description>Type: B762&#xA;Callsign: MCUE12&#xA;Hex: ae5faa&#xA;Altitude: 32008 ft&#xA;Speed: 0.0 kts&#xA;Heading: 272.3&#xA;Source: airplanes.live</description>
          <Point>
            <coordinates>-8.243179,36.050949,32008</coordinates>
          </Point>
        </Placemark>
        <Placemark>
          <name>SYS52 (EC35)</name>
          <description>Type: EC35&#xA;Callsign: SYS52&#xA;Hex: 43c8f9&#xA;Altitude: 675 ft&#xA;Speed: 44.6 kts&#xA;Heading: 227.7&#xA;Source: adsb.lol</description>
          <Point>
            <coordinates>-2.636948,52.816727,675</coordinates>
          </Point>
        </Placemark>
        <Placemark>
          <name>GAFTT07 (Unknown Type)</name>
          <description>Type: Unknown Type&#xA;Callsign: GAFTT07&#xA;Hex: 3ea3b0&#xA;Altitude: 62700 ft&#xA;Speed: 0.0 kts&#xA;Heading: 0.0&#xA;Source: adsb.lol</description>
          <Point>
            <coordinates>0,0,62700</coordinates>
          </Point>
        </Placemark>
        <Placemark>
          <name>3f6e72 (Unknown Type)</name>
          <description>Type: Unknown Type&#xA;Hex: 3f6e72&#xA;Altitude: 0 ft&#xA;Speed: 0.0 kts&#xA;Heading: 0.0&#xA;Source: airplanes.live</description>
          <Point>
            <coordinates>0,0,0</coordinates>
          </Point>
        </Placemark>
        <Placemark>
          <name>0d01e0 (B732)</name>
          <description>Type: B732&#xA;Hex: 0d01e0&#xA;Altitude: 19750 ft&#xA;Speed: 400.4 kts&#xA;Heading: 7.5&#xA;Source: airplanes.live</description>
          <Point>
            <coordinates>-98.237673,24.553373,19750</coordinates>
          </Point>
        </Placemark>
        <Placemark>
          <name>LYRE71 (TEX2)</name>
          <description>Type: TEX2&#xA;Callsign: LYRE71&#xA;Hex: ae1e4c&#xA;Altitude: 8625 ft&#xA;Speed: 179.2 kts&#xA;Heading: 87.4&#xA;Source: adsb.lol</description>
          <Point>
            <coordinates>-97.825382,28.947739,8625</coordinates>
          </Point>
        </Placemark>
        <Placemark>
          <name>BB094 (TEX2)</name>
          <description>Type: TEX2&#xA;Callsign: BB094&#xA;Hex: ae2edb&#xA;Altitude: 16250 ft&#xA;Speed: 178.4 kts&#xA;Heading: 222.3&#xA;Source: adsb.lol</description>
          <Point>
            <coordinates>-85.816227,32.16741,16250</coordinates>
          </Point>
        </Placemark>
        <Placemark>
          <name>TACO19 (C30J)</name>
          <description>Type: C30J&#xA;Callsign: TACO19&#xA;Hex: ae596d&#xA;Altitude: 20050 ft&#xA;Speed: 222.3 kts&#xA;Heading: 301.8&#xA;Source: airplanes.live</description>
          <Point>
            <coordinates>-81.449621,28.584936,20050</coordinates>
          </Point>
        </Placemark>
        <Placemark>
          <name>COMT451 (A400M Atlas)</name>
          <description>Type: A400M Atlas&#xA;Callsign: COMT451&#xA;Hex: 43c5e1&#xA;Altitude: 1325 ft&#xA;Speed: 262.5 kts&#xA;Heading: 347.2&#xA;Source: airplanes.live</description>
          <Point>
            <coordinates>-4.178009,51.533886,1325</coordinates>
          </Point>
        </Placemark>
        <Placemark>
          <name>SHARK72 (SR20)</name>
          <description>Type: SR20&#xA;Callsign: SHARK72&#xA;Hex: ae4ee5&#xA;Altitude: 0 ft&#xA;Speed: 0.0 kts&#xA;Heading: 0.0&#xA;Source: airplanes.live</description>
          <Point>
            <coordinates>-104.813959,38.972122,0</coordinates>
          </Point>
        </Placemark>
        <Placemark>
          <name>SHARK40 (SR20)</name>
          <description>Type: SR20&#xA;Callsign: SHARK40&#xA;Hex: ae4ed9&#xA;Altitude: 6800 ft&#xA;Speed: 99.0 kts&#xA;Heading: 60.3&#xA;Source: airplanes.live</description>
          <Point>
            <coordinates>-104.311829,38.780249,6800</coordinates>
          </Point>
        </Placemark>
        <Placemark>
          <name>BRCAT16 (TEX2)</name>
          <description>Type: TEX2&#xA;Callsign: BRCAT16&#xA;Hex: ae4e95&#xA;Altitude: 5475 ft&#xA;Speed: 129.1 kts&#xA;Heading: 229.4&#xA;Source: airplanes.live</description>
          <Point>
            <coordinates>-103.104987,32.779358,5475</coordinates>
          </Point>
        </Placemark>
        <Placemark>
          <name>TETON37 (C-130 Hercules)</name>
          <description>Type: C-130 Hercules&#xA;Callsign: TETON37&#xA;Hex: adfe74&#xA;Altitude: 20900 ft&#xA;Speed: 359.4 kts&#xA;Heading: 99.9&#xA;Source: airplanes.live</description>
          <Point>
            <coordinates>-100.255798,40.618927,20900</coordinates>
          </Point>
        </Placemark>
        <Placemark>
          <name>BLUFF72 (TEX2)</name>
          <description>Type: TEX2&#xA;Callsign: BLUFF72&#xA;Hex: ae1115&#xA;Altitude: 9775 ft&#xA;Speed: 188.8 kts&#xA;Heading: 161.5&#xA;Source: airplanes.live</description>
          <Point>
            <coordinates>-100.241476,29.421753,9775</coordinates>
          </Point>
        </Placemark>
        <Placemark>
          <name>ae3a65 (Unknown Type)</name>
          <description>Type: Unknown Type&#xA;Hex: ae3a65&#xA;Altitude: 28000 ft&#xA;Speed: 336.0 kts&#xA;Heading: 247.0&#xA;Source: adsb.lol</description>
          <Point>
            <coordinates>-82.548394,27.973976,28000</coordinates>
          </Point>
        </Placemark>
        <Placemark>
          <name>RCH199 (C-17 Globemaster III)</name>
          <description>Type: C-17 Globemaster III&#xA;Callsign: RCH199&#xA;Hex: ae49c7&#xA;Altitude: 30000 ft&#xA;Speed: 466.0 kts&#xA;Heading: 349.0&#xA;Source: airplanes.live</description>
          <Point>
            <coordinates>23.766075,41.445532,30000</coordinates>
          </Point>
        </Placemark>
        <Placemark>
          <name>WGTL15 (E737)</name>
          <description>Type: E737&#xA;Callsign: WGTL15&#xA;Hex: 7cf8f1&#xA;Altitude: 2650 ft&#xA;Speed: 266.2 kts&#xA;Heading: 132.3&#xA;Source: airplanes.live</description>
          <Point>
            <coordinates>151.924548,-32.859009,2650</coordinates>
          </Point>
        </Placemark>
        <Placemark>
          <name>G026022 (H-60 Black Hawk)</name>
          <description>Type: H-60 Black Hawk&#xA;Callsign: G026022&#xA;Hex: ae0bec&#xA;Altitude: 4600 ft&#xA;Speed: 46.4 kts&#xA;Heading: 172.6&#xA;Source: airplanes.live</description>
          <Point>
            <coordinates>-111.991945,40.613848,4600</coordinates>
          </Point>
        </Placemark>
        <Placemark>
          <name>SH157 (TEX2)</name>
          <description>Type: TEX2&#xA;Callsign: SH157&#xA;Hex: ae4a26&#xA;Altitude: 850 ft&#xA;Speed: 126.6 kts&#xA;Heading: 323.7&#xA;Source: adsb.lol</description>
          <Point>
            <coordinates>-87.007464,30.728622,850</coordinates>
          </Point>
        </Placemark>
        <Placemark>
          <name>445566 (Unknown Type)</name>
          <description>Type: Unknown Type&#xA;Hex: 445566&#xA;Altitude: 0 ft&#xA;Speed: 0.0 kts&#xA;Heading: 0.0&#xA;Source: airplanes.live</description>
          <Point>
            <coordinates>0,0,0</coordinates>
          </Point>
        </Placemark>
        <Placemark>
          <name>adfa19 (Unknown Type)</name>
          <description>Type: Unknown Type&#xA;Hex: adfa19&#xA;Altitude: 0 ft&#xA;Speed: 0.0 kts&#xA;Heading: 0.0&#xA;Source: airplanes.live</description>
          <Point>
            <coordinates>0,0,0</coordinates>
          </Point>
        </Placemark>
        <Placemark>
          <name>JOLLY92 (H-60 Black Hawk)</name>
          <description>Type: H-60 Black Hawk&#xA;Callsign: JOLLY92&#xA;Hex: ae7800&#xA;Altitude: 50 ft&#xA;Speed: 104.4 kts&#xA;Heading: 336.9&#xA;Source: adsb.lol</description>
          <Point>
            <coordinates>-122.249794,36.812347,50</coordinates>
          </Point>
        </Placemark>
        <Placemark>
          <name>TORO52 (T-38 Talon)</name>
          <description>Type: T-38 Talon&#xA;Callsign: TORO52&#xA;Hex: ae006b&#xA;Altitude: 3000 ft&#xA;Speed: 181.4 kts&#xA;Heading: 168.9&#xA;Source: airplanes.live</description>
          <Point>
            <coordinates>-97.883014,31.200851,3000</coordinates>
          </Point>
        </Placemark>
        <Placemark>
          <name>TEST1234 (TWR)</name>
          <description>Type: TWR&#xA;Callsign: TEST1234&#xA;Hex: 400025&#xA;Altitude: 0 ft&#xA;Speed: 0.0 kts&#xA;Heading: 0.0&#xA;Source: adsb.lol</description>
          <Point>
            <coordinates>0,0,0</coordinates>
          </Point>
        </Placemark>
        <Placemark>
          <name>TRON11 (GLF5)</name>
          <description>Type: GLF5&#xA;Callsign: TRON11&#xA;Hex: ae142e&#xA;Altitude: 0 ft&#xA;Speed: 36.5 kts&#xA;Heading: 316.4&#xA;Source: airplanes.live</description>
          <Point>
            <coordinates>-110.885532,32.168541,0</coordinates>
          </Point>
        </Placemark>
        <Placemark>
          <name>APLQ3 (TEX2)</name>
          <description>Type: TEX2&#xA;Callsign: APLQ3&#xA;Hex: c2b0ad&#xA;Altitude: 4350 ft&#xA;Speed: 211.5 kts&#xA;Heading: 355.9&#xA;Source: airplanes.live</description>
          <Point>
            <coordinates>-105.907684,50.361654,4350</coordinates>
          </Point>
        </Placemark>
        <Placemark>
          <name>BLADE10 (TEX2)</name>
          <description>Type: TEX2&#xA;Callsign: BLADE10&#xA;Hex: ae10f2&#xA;Altitude: 10950 ft&#xA;Speed: 276.7 kts&#xA;Heading: 9.4&#xA;Source: adsb.lol</description>
          <Point>
            <coordinates>-98.775442,34.463837,10950</coordinates>
          </Point>
        </Placemark>
        <Placemark>
          <name>CFC2569 (C30J)</name>
          <description>Type: C30J&#xA;Callsign: CFC2569&#xA;Hex: c2b5c1&#xA;Altitude: 29000 ft&#xA;Speed: 337.6 kts&#xA;Heading: 156.2&#xA;Source: airplanes.live</description>
          <Point>
            <coordinates>-82.38283,27.299722,29000</coordinates>
          </Point>
        </Placemark>
        <Placemark>
          <name>MRNR02 (P-8A Poseidon)</name>
          <description>Type: P-8A Poseidon&#xA;Callsign: MRNR02&#xA;Hex: 7cf9d3&#xA;Altitude: 0 ft&#xA;Speed: 0.0 kts&#xA;Heading: 0.0&#xA;Source: airplanes.live</description>
          <Point>
            <coordinates>138.627506,-34.709496,0</coordinates>
          </Point>
        </Placemark>
        <Placemark>
          <name>ae050a (KC-135 Stratotanker)</name>
          <description>Type: KC-135 Stratotanker&#xA;Hex: ae050a&#xA;Altitude: 30000 ft&#xA;Speed: 0.0 kts&#xA;Heading: 0.0&#xA;Source: adsb.lol</description>
          <Point>
            <coordinates>0,0,30000</coordinates>
          </Point>
        </Placemark>
        <Placemark>
          <name>T7ANG (GL7T)</name>
          <description>Type: GL7T&#xA;Callsign: T7ANG&#xA;Hex: 5003eb&#xA;Altitude: 0 ft&#xA;Speed: 0.1 kts&#xA;Heading: 0.0&#xA;Source: adsb.lol</description>
          <Point>
            <coordinates>58.276367,23.60281,0</coordinates>
          </Point>
        </Placemark>
        <Placemark>
          <name>VV8E730 (A119)</name>
          <description>Type: A119&#xA;Callsign: VV8E730&#xA;Hex: ae741d&#xA;Altitude: 2775 ft&#xA;Speed: 98.1 kts&#xA;Heading: 309.2&#xA;Source: adsb.lol</description>
          <Point>
            <coordinates>-87.07522,30.65409,2775</coordinates>
          </Point>
        </Placemark>
        <Placemark>
          <name>TROJ16 (C30J)</name>
          <description>Type: C30J&#xA;Callsign: TROJ16&#xA;Hex: 7cf830&#xA;Altitude: 28000 ft&#xA;Speed: 340.9 kts&#xA;Heading: 28.0&#xA;Source: airplanes.live</description>
          <Point>
            <coordinates>151.610377,-29.81076,28000</coordinates>
          </Point>
        </Placemark>
        <Placemark>
          <name>43cf31 (LYNX)</name>
          <description>Type: LYNX&#xA;Hex: 43cf31&#xA;Altitude: 0 ft&#xA;Speed: 0.0 kts&#xA;Heading: 0.0&#xA;Source: adsb.lol</description>
          <Point>
            <coordinates>0,0,0</coordinates>
          </Point>
        </Placemark>
        <Placemark>
          <name>CFC3360 (A310)</name>
          <description>Type: A310&#xA;Callsign: CFC3360&#xA;Hex: c2b37d&#xA;Altitude: 0 ft&#xA;Speed: 0.0 kts&#xA;Heading: 0.0&#xA;Source: adsb.lol</description>
          <Point>
            <coordinates>-147.857437,64.821476,0</coordinates>
          </Point>
        </Placemark>
        <Placemark>
          <name>SHARK52 (SR20)</name>
          <description>Type: SR20&#xA;Callsign: SHARK52&#xA;Hex: ae4edc&#xA;Altitude: 8625 ft&#xA;Speed: 139.0 kts&#xA;Heading: 270.4&#xA;Source: airplanes.live</description>
          <Point>
            <coordinates>-105.170328,39.753113,8625</coordinates>
          </Point>
        </Placemark>
        <Placemark>
          <name>LOGIC510 (C-295)</name>
          <description>Type: C-295&#xA;Callsign: LOGIC510&#xA;Hex: c2bd0f&#xA;Altitude: 5800 ft&#xA;Speed: 182.0 kts&#xA;Heading: 140.8&#xA;Source: airplanes.live</description>
          <Point>
            <coordinates>-98.320659,50.798447,5800</coordinates>
          </Point>
        </Placemark>
        <Placemark>
          <name>MNTNA71 (BE9L)</name>
          <description>Type: BE9L&#xA;Callsign: MNTNA71&#xA;Hex: ae1477&#xA;Altitude: 2075 ft&#xA;Speed: 156.0 kts&#xA;Heading: 212.4&#xA;Source: airplanes.live</description>
          <Point>
            <coordinates>-98.268402,27.92688,2075</coordinates>
          </Point>
        </Placemark>
        <Placemark>
          <name>RFNK816 (TEX2)</name>
          <description>Type: TEX2&#xA;Callsign: RFNK816&#xA;Hex: ae54e5&#xA;Altitude: 11275 ft&#xA;Speed: 227.5 kts&#xA;Heading: 13.7&#xA;Source: airplanes.live</description>
          <Point>
            <coordinates>-97.233205,28.033199,11275</coordinates>
          </Point>
        </Placemark>
        <Placemark>
          <name>R20063 (H-60 Black Hawk)</name>
          <description>Type: H-60 Black Hawk&#xA;Callsign: R20063&#xA;Hex: ae47fc&#xA;Altitude: -275 ft&#xA;Speed: 16.3 kts&#xA;Heading: 349.4&#xA;Source: airplanes.live</description>
          <Point>
            <coordinates>-78.943062,35.130926,-275</coordinates>
          </Point>
        </Placemark>
        <Placemark>
          <name>G21083 (H-60 Black Hawk)</name>
          <description>Type: H-60 Black Hawk&#xA;Callsign: G21083&#xA;Hex: ae64ae&#xA;Altitude: 4550 ft&#xA;Speed: 3.2 kts&#xA;Heading: 341.6&#xA;Source: airplanes.live</description>
          <Point>
            <coordinates>-111.989448,40.62516,4550</coordinates>
          </Point>
        </Placemark>
        <Placemark>
          <name>COBRA33 (TEX2)</name>
          <description>Type: TEX2&#xA;Callsign: COBRA33&#xA;Hex: ae110a&#xA;Altitude: 8550 ft&#xA;Speed: 216.6 kts&#xA;Heading: 36.5&#xA;Source: airplanes.live</description>
          <Point>
            <coordinates>-98.372154,34.20584,8550</coordinates>
          </Point>
        </Placemark>
        <Placemark>
          <name>BLZR238 (HAWK)</name>
          <description>Type: HAWK&#xA;Callsign: BLZR238&#xA;Hex: ae627e&#xA;Altitude: 0 ft&#xA;Speed: 254.1 kts&#xA;Heading: 95.4&#xA;Source: adsb.lol</description>
          <Point>
            <coordinates>-98.294989,26.650269,0</coordinates>
          </Point>
        </Placemark>
        <Placemark>
          <name>PREY21 (TEX2)</name>
          <description>Type: TEX2&#xA;Callsign: PREY21&#xA;Hex: ae01eb&#xA;Altitude: 9050 ft&#xA;Speed: 190.0 kts&#xA;Heading: 239.7&#xA;Source: airplanes.live</description>
          <Point>
            <coordinates>-97.993469,28.881241,9050</coordinates>
          </Point>
        </Placemark>
        <Placemark>
          <name>REEF51 (Unknown Type)</name>
          <description>Type: Unknown Type&#xA;Callsign: REEF51&#xA;Hex: adff7b&#xA;Altitude: 13500 ft&#xA;Speed: 413.8 kts&#xA;Heading: 183.5&#xA;Source: airplanes.live</description>
          <Point>
            <coordinates>-87.635136,34.486875,13500</coordinates>
          </Point>
        </Placemark>
        <Placemark>
          <name>adfaed (Unknown Type)</name>
          <description>Type: Unknown Type&#xA;Hex: adfaed&#xA;Altitude: 0 ft&#xA;Speed: 0.0 kts&#xA;Heading: 0.0&#xA;Source: airplanes.live</description>
          <Point>
            <coordinates>0,0,0</coordinates>
          </Point>
        </Placemark>
        <Placemark>
          <name>N43128 (P28A)</name>
          <description>Type: P28A&#xA;Callsign: N43128&#xA;Hex: a52994&#xA;Altitude: 1800 ft&#xA;Speed: 87.8 kts&#xA;Heading: 137.8&#xA;Source: adsb.lol</description>
          <Point>
            <coordinates>-71.536539,42.765244,1800</coordinates>
          </Point>
        </Placemark>
        <Placemark>
          <name>RUDY36 (V-22 Osprey)</name>
          <description>Type: V-22 Osprey&#xA;Callsign: RUDY36&#xA;Hex: ae6b9c&#xA;Altitude: 9375 ft&#xA;Speed: 295.5 kts&#xA;Heading: 141.7&#xA;Source: adsb.lol</description>
          <Point>
            <coordinates>-120.199528,35.258789,9375</coordinates>
          </Point>
        </Placemark>
        <Placemark>
          <name>TROL81 (TEX2)</name>
          <description>Type: TEX2&#xA;Callsign: TROL81&#xA;Hex: c2b03f&#xA;Altitude: 2650 ft&#xA;Speed: 111.8 kts&#xA;Heading: 115.4&#xA;Source: airplanes.live</description>
          <Point>
            <coordinates>-105.623524,50.354811,2650</coordinates>
          </Point>
        </Placemark>
        <Placemark>
          <name>KNOBBY1 (T-38 Talon)</name>
          <description>Type: T-38 Talon&#xA;Callsign: KNOBBY1&#xA;Hex: ae00bb&#xA;Altitude: 16675 ft&#xA;Speed: 484.3 kts&#xA;Heading: 145.3&#xA;Source: airplanes.live</description>
          <Point>
            <coordinates>-88.579961,34.241867,16675</coordinates>
          </Point>
        </Placemark>
        <Placemark>
          <name>ae5abb (H-60 Black Hawk)</name>
          <description>Type: H-60 Black Hawk&#xA;Hex: ae5abb&#xA;Altitude: 1175 ft&#xA;Speed: 101.1 kts&#xA;Heading: 61.7&#xA;Source: airplanes.live</description>
          <Point>
            <coordinates>-85.782843,31.240462,1175</coordinates>
          </Point>
        </Placemark>
        <Placemark>
          <name>ae1fb7 (EC45)</name>
          <description>Type: EC45&#xA;Hex: ae1fb7&#xA;Altitude: 950 ft&#xA;Speed: 0.0 kts&#xA;Heading: 0.0&#xA;Source: adsb.lol</description>
          <Point>
            <coordinates>-85.62453,30.83732,950</coordinates>
          </Point>
        </Placemark>
        <Placemark>
          <name>CEF624 (C-295)</name>
          <description>Type: C-295&#xA;Callsign: CEF624&#xA;Hex: 498489&#xA;Altitude: 21000 ft&#xA;Speed: 249.7 kts&#xA;Heading: 173.3&#xA;Source: airplanes.live</description>
          <Point>
            <coordinates>24.029846,42.13578,21000</coordinates>
          </Point>
        </Placemark>
        <Placemark>
          <name>BASHA93 (T-38 Talon)</name>
          <description>Type: T-38 Talon&#xA;Callsign: BASHA93&#xA;Hex: ae0051&#xA;Altitude: 16225 ft&#xA;Speed: 427.9 kts&#xA;Heading: 335.7&#xA;Source: airplanes.live</description>
          <Point>
            <coordinates>-99.32515,33.437076,16225</coordinates>
          </Point>
        </Placemark>
        <Placemark>
          <name>RN163 (TEX2)</name>
          <description>Type: TEX2&#xA;Callsign: RN163&#xA;Hex: ae4a2c&#xA;Altitude: 4500 ft&#xA;Speed: 201.0 kts&#xA;Heading: 91.1&#xA;Source: airplanes.live</description>
          <Point>
            <coordinates>-87.219141,30.312117,4500</coordinates>
          </Point>
        </Placemark>
        <Placemark>
          <name>ae685b (Unknown Type)</name>
          <description>Type: Unknown Type&#xA;Hex: ae685b&#xA;Altitude: 1450 ft&#xA;Speed: 159.1 kts&#xA;Heading: 44.8&#xA;Source: airplanes.live</description>
          <Point>
            <coordinates>-84.026476,35.787126,1450</coordinates>
          </Point>
        </Placemark>
        <Placemark>
          <name>AAC319 (AH-64 Apache)</name>
          <description>Type: AH-64 Apache&#xA;Callsign: AAC319&#xA;Hex: 43c94c&#xA;Altitude: 2500 ft&#xA;Speed: 85.2 kts&#xA;Heading: 285.7&#xA;Source: airplanes.live</description>
          <Point>
            <coordinates>1.352844,52.215775,2500</coordinates>
          </Point>
        </Placemark>
        <Placemark>
          <name>RCH690 (C-17 Globemaster III)</name>
          <description>Type: C-17 Globemaster III&#xA;Callsign: RCH690&#xA;Hex: ae1459&#xA;Altitude: 27000 ft&#xA;Speed: 436.0 kts&#xA;Heading: 110.0&#xA;Source: adsb.lol</description>
          <Point>
            <coordinates>14.879008,49.299661,27000</coordinates>
          </Point>
        </Placemark>
        <Placemark>
          <name>TXLU03 (A139)</name>
          <description>Type: A139&#xA;Callsign: TXLU03&#xA;Hex: 4ca331&#xA;Altitude: 0 ft&#xA;Speed: 0.0 kts&#xA;Heading: 0.0&#xA;Source: adsb.lol</description>
          <Point>
            <coordinates>0,0,0</coordinates>
          </Point>
        </Placemark>
        <Placemark>
          <name>TALON55 (HAWK)</name>
          <description>Type: HAWK&#xA;Callsign: TALON55&#xA;Hex: ae62f4&#xA;Altitude: 0 ft&#xA;Speed: 0.0 kts&#xA;Heading: 0.0&#xA;Source: airplanes.live</description>
          <Point>
            <coordinates>0,0,0</coordinates>
          </Point>
        </Placemark>
        <Placemark>
          <name>XA405 (A332)</name>
          <description>Type: A332&#xA;Callsign: XA405&#xA;Hex: 7cf867&#xA;Altitude: 30000 ft&#xA;Speed: 492.0 kts&#xA;Heading: 207.8&#xA;Source: airplanes.live</description>
          <Point>
            <coordinates>-163.181992,14.088421,30000</coordinates>
          </Point>
        </Placemark>
        <Placemark>
          <name>TORO71 (T-38 Talon)</name>
          <description>Type: T-38 Talon&#xA;Callsign: TORO71&#xA;Hex: ae0053&#xA;Altitude: 18325 ft&#xA;Speed: 427.9 kts&#xA;Heading: 203.0&#xA;Source: airplanes.live</description>
          <Point>
            <coordinates>-98.214855,34.535802,18325</coordinates>
          </Point>
        </Placemark>
        <Placemark>
          <name>ae576d (AH-64 Apache)</name>
          <description>Type: AH-64 Apache&#xA;Hex: ae576d&#xA;Altitude: 0 ft&#xA;Speed: 0.0 kts&#xA;Heading: 0.0&#xA;Source: adsb.lol</description>
          <Point>
            <coordinates>0,0,0</coordinates>
          </Point>
        </Placemark>
        <Placemark>
          <name>G9726762 (H-60 Black Hawk)</name>
          <description>Type: H-60 Black Hawk&#xA;Callsign: G9726762&#xA;Hex: ae0e5c&#xA;Altitude: 1200 ft&#xA;Speed: 110.6 kts&#xA;Heading: 99.9&#xA;Source: airplanes.live</description>
          <Point>
            <coordinates>-122.392502,47.011322,1200</coordinates>
          </Point>
        </Placemark>
        <Placemark>
          <name>ae67b5 (Unknown Type)</name>
          <description>Type: Unknown Type&#xA;Hex: ae67b5&#xA;Altitude: 5300 ft&#xA;Speed: 254.1 kts&#xA;Heading: 290.5&#xA;Source: airplanes.live</description>
          <Point>
            <coordinates>-122.374541,48.411395,5300</coordinates>
          </Point>
        </Placemark>
        <Placemark>
          <name>DUKE81 (TEX2)</name>
          <description>Type: TEX2&#xA;Callsign: DUKE81&#xA;Hex: ae01f0&#xA;Altitude: 2875 ft&#xA;Speed: 204.0 kts&#xA;Heading: 347.3&#xA;Source: airplanes.live</description>
          <Point>
            <coordinates>-97.870594,36.212427,2875</coordinates>
          </Point>
        </Placemark>
        <Placemark>
          <name>GRZL44 (DH8A)</name>
          <description>Type: DH8A&#xA;Callsign: GRZL44&#xA;Hex: c2b2dd&#xA;Altitude: 11900 ft&#xA;Speed: 212.6 kts&#xA;Heading: 216.0&#xA;Source: adsb.lol</description>
          <Point>
            <coordinates>-96.889764,50.646647,11900</coordinates>
          </Point>
        </Placemark>
        <Placemark>
          <name>SH190 (TEX2)</name>
          <description>Type: TEX2&#xA;Callsign: SH190&#xA;Hex: ae4ea8&#xA;Altitude: 1800 ft&#xA;Speed: 148.3 kts&#xA;Heading: 167.9&#xA;Source: airplanes.live</description>
          <Point>
            <coordinates>-85.598629,31.473633,1800</coordinates>
          </Point>
        </Placemark>
        <Placemark>
          <name>FFAB123 (H-60 Black Hawk)</name>
          <description>Type: H-60 Black Hawk&#xA;Callsign: FFAB123&#xA;Hex: ae4f87&#xA;Altitude: 200 ft&#xA;Speed: 79.0 kts&#xA;Heading: 340.9&#xA;Source: airplanes.live</description>
          <Point>
            <coordinates>-81.605402,29.961905,200</coordinates>
          </Point>
        </Placemark>
        <Placemark>
          <name>GAF903 (A359)</name>
          <description>Type: A359&#xA;Callsign: GAF903&#xA;Hex: 3f5d91&#xA;Altitude: 43000 ft&#xA;Speed: 450.4 kts&#xA;Heading: 221.9&#xA;Source: airplanes.live</description>
          <Point>
            <coordinates>-64.371495,50.134851,43000</coordinates>
          </Point>
        </Placemark>
        <Placemark>
          <name>TEST1234 (Unknown Type)</name>
          <description>Type: Unknown Type&#xA;Callsign: TEST1234&#xA;Hex: adf992&#xA;Altitude: 0 ft&#xA;Speed: 0.0 kts&#xA;Heading: 0.0&#xA;Source: airplanes.live</description>
          <Point>
            <coordinates>0,0,0</coordinates>
          </Point>
        </Placemark>
        <Placemark>
          <name>RCH227 (C-17 Globemaster III)</name>
          <description>Type: C-17 Globemaster III&#xA;Callsign: RCH227&#xA;Hex: ae1468&#xA;Altitude: 34975 ft&#xA;Speed: 546.5 kts&#xA;Heading: 68.7&#xA;Source: adsb.lol</description>
          <Point>
            <coordinates>-107.889482,37.37851,34975</coordinates>
          </Point>
        </Placemark>
        <Placemark>
          <name>TIDE33 (H-60 Black Hawk)</name>
          <description>Type: H-60 Black Hawk&#xA;Callsign: TIDE33&#xA;Hex: ae77ef&#xA;Altitude: 775 ft&#xA;Speed: 114.3 kts&#xA;Heading: 164.3&#xA;Source: airplanes.live</description>
          <Point>
            <coordinates>-88.173523,30.324646,775</coordinates>
          </Point>
        </Placemark>
        <Placemark>
          <name>KY3 (T-38 Talon)</name>
          <description>Type: T-38 Talon&#xA;Callsign: KY3&#xA;Hex: ae00e6&#xA;Altitude: 14625 ft&#xA;Speed: 561.6 kts&#xA;Heading: 103.1&#xA;Source: airplanes.live</description>
          <Point>
            <coordinates>-87.981599,33.888474,14625</coordinates>
          </Point>
        </Placemark>
        <Placemark>
          <name>VV7E012 (A119)</name>
          <description>Type: A119&#xA;Callsign: VV7E012&#xA;Hex: ae6d55&#xA;Altitude: 1750 ft&#xA;Speed: 92.3 kts&#xA;Heading: 22.9&#xA;Source: adsb.lol</description>
          <Point>
            <coordinates>-86.705556,30.93512,1750</coordinates>
          </Point>
        </Placemark>
        <Placemark>
          <name>WEIRD35 (EC45)</name>
          <description>Type: EC45&#xA;Callsign: WEIRD35&#xA;Hex: ae5a95&#xA;Altitude: 525 ft&#xA;Speed: 60.0 kts&#xA;Heading: 158.6&#xA;Source: airplanes.live</description>
          <Point>
            <coordinates>-85.765312,31.155258,525</coordinates>
          </Point>
        </Placemark>
        <Placemark>
          <name>ae68a4 (Unknown Type)</name>
          <description>Type: Unknown Type&#xA;Hex: ae68a4&#xA;Altitude: -175 ft&#xA;Speed: 136.5 kts&#xA;Heading: 118.4&#xA;Source: airplanes.live</description>
          <Point>
            <coordinates>-74.612427,39.472946,-175</coordinates>
          </Point>
        </Placemark>
        <Placemark>
          <name>C6054 (H-60 Black Hawk)</name>
          <description>Type: H-60 Black Hawk&#xA;Callsign: C6054&#xA;Hex: ae6ce8&#xA;Altitude: 275 ft&#xA;Speed: 138.7 kts&#xA;Heading: 242.5&#xA;Source: airplanes.live</description>
          <Point>
            <coordinates>-67.423196,18.423281,275</coordinates>
          </Point>
        </Placemark>
        <Placemark>
          <name>ae0ac7 (H-60 Black Hawk)</name>
          <description>Type: H-60 Black Hawk&#xA;Hex: ae0ac7&#xA;Altitude: 2300 ft&#xA;Speed: 101.5 kts&#xA;Heading: 39.8&#xA;Source: adsb.lol</description>
          <Point>
            <coordinates>-111.461848,32.648202,2300</coordinates>
          </Point>
        </Placemark>
        <Placemark>
          <name>ROVE33 (TEX2)</name>
          <description>Type: TEX2&#xA;Callsign: ROVE33&#xA;Hex: ae13fd&#xA;Altitude: 6925 ft&#xA;Speed: 236.0 kts&#xA;Heading: 100.5&#xA;Source: airplanes.live</description>
          <Point>
            <coordinates>-97.003674,30.838158,6925</coordinates>
          </Point>
        </Placemark>
        <Placemark>
          <name>CODY06 (C-17 Globemaster III)</name>
          <description>Type: C-17 Globemaster III&#xA;Callsign: CODY06&#xA;Hex: ae07fa&#xA;Altitude: 37025 ft&#xA;Speed: 500.0 kts&#xA;Heading: 107.0&#xA;Source: airplanes.live</description>
          <Point>
            <coordinates>-90.546953,35.00723,37025</coordinates>
          </Point>
        </Placemark>
        <Placemark>
          <name>ae749c (P-8A Poseidon)</name>
          <description>Type: P-8A Poseidon&#xA;Hex: ae749c&#xA;Altitude: 32000 ft&#xA;Speed: 0.0 kts&#xA;Heading: 0.0&#xA;Source: adsb.lol</description>
          <Point>
            <coordinates>0,0,32000</coordinates>
          </Point>
        </Placemark>
        <Placemark>
          <name>SQF961 (GL5T)</name>
          <description>Type: GL5T&#xA;Callsign: SQF961&#xA;Hex: 505fa1&#xA;Altitude: 0 ft&#xA;Speed: 0.0 kts&#xA;Heading: 0.0&#xA;Source: airplanes.live</description>
          <Point>
            <coordinates>17.199386,48.167612,0</coordinates>
          </Point>
        </Placemark>
        <Placemark>
          <name>TEST1234 (TWR)</name>
          <description>Type: TWR&#xA;Callsign: TEST1234&#xA;Hex: 400006&#xA;Altitude: 0 ft&#xA;Speed: 0.0 kts&#xA;Heading: 0.0&#xA;Source: airplanes.live</description>
          <Point>
            <coordinates>0,0,0</coordinates>
          </Point>
        </Placemark>
        <Placemark>
          <name>ae0421 (KC-135 Stratotanker)</name>
          <description>Type: KC-135 Stratotanker&#xA;Hex: ae0421&#xA;Altitude: 16800 ft&#xA;Speed: 368.0 kts&#xA;Heading: 84.2&#xA;Source: adsb.lol</description>
          <Point>
            <coordinates>0,0,16800</coordinates>
          </Point>
        </Placemark>
        <Placemark>
          <name>TIGER20 (TEX2)</name>
          <description>Type: TEX2&#xA;Callsign: TIGER20&#xA;Hex: ae1e94&#xA;Altitude: 1500 ft&#xA;Speed: 133.8 kts&#xA;Heading: 191.7&#xA;Source: airplanes.live</description>
          <Point>
            <coordinates>-100.515078,29.157623,1500</coordinates>
          </Point>
        </Placemark>
        <Placemark>
          <name>SCRCH51 (V-22 Osprey)</name>
          <description>Type: V-22 Osprey&#xA;Callsign: SCRCH51&#xA;Hex: ae6ba1&#xA;Altitude: 1425 ft&#xA;Speed: 217.6 kts&#xA;Heading: 158.2&#xA;Source: adsb.lol</description>
          <Point>
            <coordinates>-117.58297,33.325723,1425</coordinates>
          </Point>
        </Placemark>
        <Placemark>
          <name>JOLLY91 (H-60 Black Hawk)</name>
          <description>Type: H-60 Black Hawk&#xA;Callsign: JOLLY91&#xA;Hex: afb23c&#xA;Altitude: -100 ft&#xA;Speed: 0.7 kts&#xA;Heading: 0.0&#xA;Source: adsb.lol</description>
          <Point>
            <coordinates>-122.274309,36.859969,-100</coordinates>
          </Point>
        </Placemark>
        <Placemark>
          <name>ORCA84 (T-38 Talon)</name>
          <description>Type: T-38 Talon&#xA;Callsign: ORCA84&#xA;Hex: ae006a&#xA;Altitude: 13300 ft&#xA;Speed: 360.3 kts&#xA;Heading: 187.8&#xA;Source: adsb.lol</description>
          <Point>
            <coordinates>-99.466179,33.772064,13300</coordinates>
          </Point>
        </Placemark>
        <Placemark>
          <name>HAWK282 (Unknown Type)</name>
          <description>Type: Unknown Type&#xA;Callsign: HAWK282&#xA;Hex: ae62fa&#xA;Altitude: 5825 ft&#xA;Speed: 314.0 kts&#xA;Heading: 73.9&#xA;Source: airplanes.live</description>
          <Point>
            <coordinates>-98.023872,27.590628,5825</coordinates>
          </Point>
        </Placemark>
        <Placemark>
          <name>C6586 (AS65)</name>
          <description>Type: AS65&#xA;Callsign: C6586&#xA;Hex: ae26ac&#xA;Altitude: 150 ft&#xA;Speed: 70.9 kts&#xA;Heading: 98.9&#xA;Source: airplanes.live</description>
          <Point>
            <coordinates>-87.820807,30.57132,150</coordinates>
          </Point>
        </Placemark>
        <Placemark>
          <name>BOLT55 (C172)</name>
          <description>Type: C172&#xA;Callsign: BOLT55&#xA;Hex: aa7eac&#xA;Altitude: 10000 ft&#xA;Speed: 98.6 kts&#xA;Heading: 53.2&#xA;Source: adsb.lol</description>
          <Point>
            <coordinates>-104.152958,39.222473,10000</coordinates>
          </Point>
        </Placemark>
        <Placemark>
          <name>0a8023 (C404)</name>
          <description>Type: C404&#xA;Hex: 0a8023&#xA;Altitude: 0 ft&#xA;Speed: 0.0 kts&#xA;Heading: 0.0&#xA;Source: adsb.lol</description>
          <Point>
            <coordinates>0,0,0</coordinates>
          </Point>
        </Placemark>
        <Placemark>
          <name>CATMAN1 (T-38 Talon)</name>
          <description>Type: T-38 Talon&#xA;Callsign: CATMAN1&#xA;Hex: ae1898&#xA;Altitude: 15700 ft&#xA;Speed: 470.3 kts&#xA;Heading: 271.9&#xA;Source: airplanes.live</description>
          <Point>
            <coordinates>-99.260313,29.451187,15700</coordinates>
          </Point>
        </Placemark>
        <Placemark>
          <name>SHOOT92 (T-38 Talon)</name>
          <description>Type: T-38 Talon&#xA;Callsign: SHOOT92&#xA;Hex: ae0027&#xA;Altitude: 12950 ft&#xA;Speed: 395.5 kts&#xA;Heading: 320.2&#xA;Source: airplanes.live</description>
          <Point>
            <coordinates>-97.667405,35.97273,12950</coordinates>
          </Point>
        </Placemark>
        <Placemark>
          <name>BOBCT51 (HAWK)</name>
          <description>Type: HAWK&#xA;Callsign: BOBCT51&#xA;Hex: ae62ac&#xA;Altitude: 14850 ft&#xA;Speed: 413.7 kts&#xA;Heading: 229.8&#xA;Source: airplanes.live</description>
          <Point>
            <coordinates>-89.602295,31.863235,14850</coordinates>
          </Point>
        </Placemark>
        <Placemark>
          <name>BELLS50 (EC45)</name>
          <description>Type: EC45&#xA;Callsign: BELLS50&#xA;Hex: ae5a77&#xA;Altitude: 2825 ft&#xA;Speed: 108.7 kts&#xA;Heading: 173.7&#xA;Source: airplanes.live</description>
          <Point>
            <coordinates>-85.989166,31.716319,2825</coordinates>
          </Point>
        </Placemark>
        <Placemark>
          <name>RCH409 (C-17 Globemaster III)</name>
          <description>Type: C-17 Globemaster III&#xA;Callsign: RCH409&#xA;Hex: ae2fa4&#xA;Altitude: 36000 ft&#xA;Speed: 0.0 kts&#xA;Heading: 0.0&#xA;Source: adsb.lol</description>
          <Point>
            <coordinates>0,0,36000</coordinates>
          </Point>
        </Placemark>
        <Placemark>
          <name>ae07ac (KC-135 Stratotanker)</name>
          <description>Type: KC-135 Stratotanker&#xA;Hex: ae07ac&#xA;Altitude: 34000 ft&#xA;Speed: 0.0 kts&#xA;Heading: 0.0&#xA;Source: adsb.lol</description>
          <Point>
            <coordinates>0,0,34000</coordinates>
          </Point>
        </Placemark>
        <Placemark>
          <name>353607 (C-295)</name>
          <description>Type: C-295&#xA;Hex: 353607&#xA;Altitude: 1800 ft&#xA;Speed: 0.0 kts&#xA;Heading: 0.0&#xA;Source: adsb.lol</description>
          <Point>
            <coordinates>0,0,1800</coordinates>
          </Point>
        </Placemark>
        <Placemark>
          <name>C6531 (AS65)</name>
          <description>Type: AS65&#xA;Callsign: C6531&#xA;Hex: ae2679&#xA;Altitude: 500 ft&#xA;Speed: 113.7 kts&#xA;Heading: 122.4&#xA;Source: airplanes.live</description>
          <Point>
            <coordinates>-122.283564,37.600708,500</coordinates>
          </Point>
        </Placemark>
        <Placemark>
          <name>PAIN81 (TEX2)</name>
          <description>Type: TEX2&#xA;Callsign: PAIN81&#xA;Hex: ae08a1&#xA;Altitude: 2700 ft&#xA;Speed: 173.4 kts&#xA;Heading: 144.4&#xA;Source: airplanes.live</description>
          <Point>
            <coordinates>-100.746352,29.317249,2700</coordinates>
          </Point>
        </Placemark>
        <Placemark>
          <name>MNTNA57 (BE9L)</name>
          <description>Type: BE9L&#xA;Callsign: MNTNA57&#xA;Hex: ae14ae&#xA;Altitude: 5925 ft&#xA;Speed: 226.0 kts&#xA;Heading: 5.3&#xA;Source: adsb.lol</description>
          <Point>
            <coordinates>-96.467981,29.97452,5925</coordinates>
          </Point>
        </Placemark>
        <Placemark>
          <name>RN223 (TEX2)</name>
          <description>Type: TEX2&#xA;Callsign: RN223&#xA;Hex: ae54f1&#xA;Altitude: 650 ft&#xA;Speed: 117.3 kts&#xA;Heading: 212.5&#xA;Source: airplanes.live</description>
          <Point>
            <coordinates>-87.35628,31.450699,650</coordinates>
          </Point>
        </Placemark>
        <Placemark>
          <name>VV7E035 (A119)</name>
          <description>Type: A119&#xA;Callsign: VV7E035&#xA;Hex: ae7411&#xA;Altitude: 1200 ft&#xA;Speed: 56.5 kts&#xA;Heading: 67.1&#xA;Source: airplanes.live</description>
          <Point>
            <coordinates>-86.812888,30.881378,1200</coordinates>
          </Point>
        </Placemark>
        <Placemark>
          <name>LD503 (B737)</name>
          <description>Type: B737&#xA;Callsign: LD503&#xA;Hex: e200ae&#xA;Altitude: 10550 ft&#xA;Speed: 363.5 kts&#xA;Heading: 77.6&#xA;Source: airplanes.live</description>
          <Point>
            <coordinates>-62.651865,-38.951843,10550</coordinates>
          </Point>
        </Placemark>
        <Placemark>
          <name>EJC1108 (AC90)</name>
          <description>Type: AC90&#xA;Callsign: EJC1108&#xA;Hex: 0aca88&#xA;Altitude: 16725 ft&#xA;Speed: 253.2 kts&#xA;Heading: 9.1&#xA;Source: adsb.lol</description>
          <Point>
            <coordinates>-73.978998,5.054642,16725</coordinates>
          </Point>
        </Placemark>
        <Placemark>
          <name>RASTA41 (TEX2)</name>
          <description>Type: TEX2&#xA;Callsign: RASTA41&#xA;Hex: ae141f&#xA;Altitude: 10475 ft&#xA;Speed: 152.8 kts&#xA;Heading: 70.5&#xA;Source: airplanes.live</description>
          <Point>
            <coordinates>-100.286531,29.580872,10475</coordinates>
          </Point>
        </Placemark>
        <Placemark>
          <name>FANGS63 (TEX2)</name>
          <description>Type: TEX2&#xA;Callsign: FANGS63&#xA;Hex: ae172c&#xA;Altitude: 3375 ft&#xA;Speed: 266.1 kts&#xA;Heading: 332.9&#xA;Source: adsb.lol</description>
          <Point>
            <coordinates>-98.153094,29.610063,3375</coordinates>
          </Point>
        </Placemark>
        <Placemark>
          <name>DUKE88 (TEX2)</name>
          <description>Type: TEX2&#xA;Callsign: DUKE88&#xA;Hex: ae13ca&#xA;Altitude: 13150 ft&#xA;Speed: 273.0 kts&#xA;Heading: 186.9&#xA;Source: airplanes.live</description>
          <Point>
            <coordinates>-97.605286,37.227585,13150</coordinates>
          </Point>
        </Placemark>
        <Placemark>
          <name>G9426581 (H-60 Black Hawk)</name>
          <description>Type: H-60 Black Hawk&#xA;Callsign: G9426581&#xA;Hex: ae0a3f&#xA;Altitude: 2400 ft&#xA;Speed: 0.0 kts&#xA;Heading: 0.0&#xA;Source: airplanes.live</description>
          <Point>
            <coordinates>-75.955721,43.047111,2400</coordinates>
          </Point>
        </Placemark>
        <Placemark>
          <name>TEST1234 (Unknown Type)</name>
          <description>Type: Unknown Type&#xA;Callsign: TEST1234&#xA;Hex: 40003e&#xA;Altitude: 0 ft&#xA;Speed: 0.0 kts&#xA;Heading: 0.0&#xA;Source: adsb.lol</description>
          <Point>
            <coordinates>0,0,0</coordinates>
          </Point>
        </Placemark>
        <Placemark>
          <name>G9526652 (H-60 Black Hawk)</name>
          <description>Type: H-60 Black Hawk&#xA;Callsign: G9526652&#xA;Hex: ae0e3d&#xA;Altitude: 4500 ft&#xA;Speed: 0.0 kts&#xA;Heading: 0.0&#xA;Source: adsb.lol</description>
          <Point>
            <coordinates>0,0,4500</coordinates>
          </Point>
        </Placemark>
        <Placemark>
          <name>adf859 (Unknown Type)</name>
          <description>Type: Unknown Type&#xA;Hex: adf859&#xA;Altitude: 0 ft&#xA;Speed: 0.0 kts&#xA;Heading: 0.0&#xA;Source: airplanes.live</description>
          <Point>
            <coordinates>0,0,0</coordinates>
          </Point>
        </Placemark>
        <Placemark>
          <name>REY00 (BE20)</name>
          <description>Type: BE20&#xA;Callsign: REY00&#xA;Hex: ae06db&#xA;Altitude: 11350 ft&#xA;Speed: 158.3 kts&#xA;Heading: 258.3&#xA;Source: adsb.lol</description>
          <Point>
            <coordinates>-114.851788,32.791763,11350</coordinates>
          </Point>
        </Placemark>
        <Placemark>
          <name>VV8E615 (A119)</name>
          <description>Type: A119&#xA;Callsign: VV8E615&#xA;Hex: ae6d41&#xA;Altitude: 775 ft&#xA;Speed: 89.6 kts&#xA;Heading: 186.4&#xA;Source: airplanes.live</description>
          <Point>
            <coordinates>-85.795037,30.278915,775</coordinates>
          </Point>
        </Placemark>
        <Placemark>
          <name>MICAD55 (EC45)</name>
          <description>Type: EC45&#xA;Callsign: MICAD55&#xA;Hex: ae6334&#xA;Altitude: 825 ft&#xA;Speed: 96.0 kts&#xA;Heading: 1.8&#xA;Source: airplanes.live</description>
          <Point>
            <coordinates>-85.713447,31.242508,825</coordinates>
          </Point>
        </Placemark>
        <Placemark>
          <name>R33507 (AH-64 Apache)</name>
          <description>Type: AH-64 Apache&#xA;Callsign: R33507&#xA;Hex: af53b8&#xA;Altitude: 2000 ft&#xA;Speed: 107.0 kts&#xA;Heading: 166.5&#xA;Source: adsb.lol</description>
          <Point>
            <coordinates>-79.56069,35.082413,2000</coordinates>
          </Point>
        </Placemark>
        <Placemark>
          <name>TALON76 (H-60 Black Hawk)</name>
          <description>Type: H-60 Black Hawk&#xA;Callsign: TALON76&#xA;Hex: ae6a19&#xA;Altitude: 4925 ft&#xA;Speed: 107.7 kts&#xA;Heading: 285.1&#xA;Source: airplanes.live</description>
          <Point>
            <coordinates>-114.947396,42.944778,4925</coordinates>
          </Point>
        </Placemark>
        <Placemark>
          <name>FANGS96 (TEX2)</name>
          <description>Type: TEX2&#xA;Callsign: FANGS96&#xA;Hex: ae1e54&#xA;Altitude: 14400 ft&#xA;Speed: 201.4 kts&#xA;Heading: 220.6&#xA;Source: airplanes.live</description>
          <Point>
            <coordinates>-97.800078,29.168189,14400</coordinates>
          </Point>
        </Placemark>
        <Placemark>
          <name>PAT175 (BE20)</name>
          <description>Type: BE20&#xA;Callsign: PAT175&#xA;Hex: adfedb&#xA;Altitude: 27000 ft&#xA;Speed: 287.0 kts&#xA;Heading: 41.2&#xA;Source: airplanes.live</description>
          <Point>
            <coordinates>-93.555794,36.464447,27000</coordinates>
          </Point>
        </Placemark>
        <Placemark>
          <name>SPUD55 (H-60 Black Hawk)</name>
          <description>Type: H-60 Black Hawk&#xA;Callsign: SPUD55&#xA;Hex: ae484e&#xA;Altitude: 0 ft&#xA;Speed: 40.0 kts&#xA;Heading: 162.5&#xA;Source: airplanes.live</description>
          <Point>
            <coordinates>-85.748291,31.360613,0</coordinates>
          </Point>
        </Placemark>
        <Placemark>
          <name>JANET10 (B350)</name>
          <description>Type: B350&#xA;Callsign: JANET10&#xA;Hex: ac96df&#xA;Altitude: 15125 ft&#xA;Speed: 295.2 kts&#xA;Heading: 150.1&#xA;Source: adsb.lol</description>
          <Point>
            <coordinates>-115.640278,36.213684,15125</coordinates>
          </Point>
        </Placemark>
        <Placemark>
          <name>LOOT88 (TEX2)</name>
          <description>Type: TEX2&#xA;Callsign: LOOT88&#xA;Hex: ae13a1&#xA;Altitude: 2275 ft&#xA;Speed: 131.0 kts&#xA;Heading: 0.9&#xA;Source: airplanes.live</description>
          <Point>
            <coordinates>-97.382584,35.346313,2275</coordinates>
          </Point>
        </Placemark>
        <Placemark>
          <name>TEXN086 (TEX2)</name>
          <description>Type: TEX2&#xA;Callsign: TEXN086&#xA;Hex: ae2ed3&#xA;Altitude: 18075 ft&#xA;Speed: 266.1 kts&#xA;Heading: 244.4&#xA;Source: airplanes.live</description>
          <Point>
            <coordinates>-88.77287,30.333984,18075</coordinates>
          </Point>
        </Placemark>
        <Placemark>
          <name>WIDGET47 (DH8A)</name>
          <description>Type: DH8A&#xA;Callsign: WIDGET47&#xA;Hex: ae27a6&#xA;Altitude: 7800 ft&#xA;Speed: 169.6 kts&#xA;Heading: 106.1&#xA;Source: airplanes.live</description>
          <Point>
            <coordinates>-85.593479,29.273209,7800</coordinates>
          </Point>
        </Placemark>
        <Placemark>
          <name>FFAB123 (H-60 Black Hawk)</name>
          <description>Type: H-60 Black Hawk&#xA;Callsign: FFAB123&#xA;Hex: ae4fc2&#xA;Altitude: 200 ft&#xA;Speed: 72.7 kts&#xA;Heading: 31.5&#xA;Source: adsb.lol</description>
          <Point>
            <coordinates>-81.619739,30.39228,200</coordinates>
          </Point>
        </Placemark>
        <Placemark>
          <name>CATMAN2 (T-38 Talon)</name>
          <description>Type: T-38 Talon&#xA;Callsign: CATMAN2&#xA;Hex: ae003b&#xA;Altitude: 15250 ft&#xA;Speed: 454.4 kts&#xA;Heading: 272.5&#xA;Source: airplanes.live</description>
          <Point>
            <coordinates>-99.260451,29.469568,15250</coordinates>
          </Point>
        </Placemark>
        <Placemark>
          <name>BALL24 (TEX2)</name>
          <description>Type: TEX2&#xA;Callsign: BALL24&#xA;Hex: ae13c6&#xA;Altitude: 4000 ft&#xA;Speed: 216.9 kts&#xA;Heading: 213.9&#xA;Source: airplanes.live</description>
          <Point>
            <coordinates>-97.645226,36.173355,4000</coordinates>
          </Point>
        </Placemark>
        <Placemark>
          <name>RAIDR72 (C30J)</name>
          <description>Type: C30J&#xA;Callsign: RAIDR72&#xA;Hex: ae2f99&#xA;Altitude: 21000 ft&#xA;Speed: 333.0 kts&#xA;Heading: 71.1&#xA;Source: adsb.lol</description>
          <Point>
            <coordinates>-86.817889,33.693649,21000</coordinates>
          </Point>
        </Placemark>
        <Placemark>
          <name>RN204 (TEX2)</name>
          <description>Type: TEX2&#xA;Callsign: RN204&#xA;Hex: ae54de&#xA;Altitude: 9775 ft&#xA;Speed: 235.5 kts&#xA;Heading: 204.1&#xA;Source: adsb.lol</description>
          <Point>
            <coordinates>-86.494537,31.887909,9775</coordinates>
          </Point>
        </Placemark>
        <Placemark>
          <name>C2309 (CN35)</name>
          <description>Type: CN35&#xA;Callsign: C2309&#xA;Hex: ae2707&#xA;Altitude: 1400 ft&#xA;Speed: 173.0 kts&#xA;Heading: 197.5&#xA;Source: airplanes.live</description>
          <Point>
            <coordinates>-69.176658,43.957416,1400</coordinates>
          </Point>
        </Placemark>
        <Placemark>
          <name>ae5975 (AH-64 Apache)</name>
          <description>Type: AH-64 Apache&#xA;Hex: ae5975&#xA;Altitude: 2900 ft&#xA;Speed: 0.0 kts&#xA;Heading: 0.0&#xA;Source: adsb.lol</description>
          <Point>
            <coordinates>0,0,2900</coordinates>
          </Point>
        </Placemark>
        <Placemark>
          <name>adf8c3 (Unknown Type)</name>
          <description>Type: Unknown Type&#xA;Hex: adf8c3&#xA;Altitude: 83000 ft&#xA;Speed: 0.0 kts&#xA;Heading: 0.0&#xA;Source: adsb.lol</description>
          <Point>
            <coordinates>0,0,83000</coordinates>
          </Point>
        </Placemark>
        <Placemark>
          <name>N7870N (C172)</name>
          <description>Type: C172&#xA;Callsign: N7870N&#xA;Hex: aaacec&#xA;Altitude: 0 ft&#xA;Speed: 20.5 kts&#xA;Heading: 135.0&#xA;Source: adsb.lol</description>
          <Point>
            <coordinates>-104.707932,38.817341,0</coordinates>
          </Point>
        </Placemark>
        <Placemark>
          <name>IN613 (Unknown Type)</name>
          <description>Type: Unknown Type&#xA;Callsign: IN613&#xA;Hex: ae4d45&#xA;Altitude: 350 ft&#xA;Speed: 129.1 kts&#xA;Heading: 172.4&#xA;Source: airplanes.live</description>
          <Point>
            <coordinates>-117.229559,32.683228,350</coordinates>
          </Point>
        </Placemark>
        <Placemark>
          <name>SCRCH54 (V-22 Osprey)</name>
          <description>Type: V-22 Osprey&#xA;Callsign: SCRCH54&#xA;Hex: ae6ba8&#xA;Altitude: 8575 ft&#xA;Speed: 246.0 kts&#xA;Heading: 213.6&#xA;Source: adsb.lol</description>
          <Point>
            <coordinates>-116.196283,33.191373,8575</coordinates>
          </Point>
        </Placemark>
        <Placemark>
          <name>BRCAT01 (TEX2)</name>
          <description>Type: TEX2&#xA;Callsign: BRCAT01&#xA;Hex: ae4ea1&#xA;Altitude: 12025 ft&#xA;Speed: 210.9 kts&#xA;Heading: 275.2&#xA;Source: adsb.lol</description>
          <Point>
            <coordinates>-104.918555,33.182785,12025</coordinates>
          </Point>
        </Placemark>
        <Placemark>
          <name>STAFF3 (T-38 Talon)</name>
          <description>Type: T-38 Talon&#xA;Callsign: STAFF3&#xA;Hex: ae0104&#xA;Altitude: 12725 ft&#xA;Speed: 414.9 kts&#xA;Heading: 275.5&#xA;Source: adsb.lol</description>
          <Point>
            <coordinates>-98.551998,35.12641,12725</coordinates>
          </Point>
        </Placemark>
        <Placemark>
          <name>BGST307 (BE20)</name>
          <description>Type: BE20&#xA;Callsign: BGST307&#xA;Hex: af20c1&#xA;Altitude: 18000 ft&#xA;Speed: 210.2 kts&#xA;Heading: 236.8&#xA;Source: airplanes.live</description>
          <Point>
            <coordinates>-95.490417,28.918762,18000</coordinates>
          </Point>
        </Placemark>
        <Placemark>
          <name>PATRT7 (H-60 Black Hawk)</name>
          <description>Type: H-60 Black Hawk&#xA;Callsign: PATRT7&#xA;Hex: ae478d&#xA;Altitude: 1350 ft&#xA;Speed: 124.7 kts&#xA;Heading: 228.2&#xA;Source: airplanes.live</description>
          <Point>
            <coordinates>-73.690735,41.158173,1350</coordinates>
          </Point>
        </Placemark>
        <Placemark>
          <name>ae0500 (KC-135 Stratotanker)</name>
          <description>Type: KC-135 Stratotanker&#xA;Hex: ae0500&#xA;Altitude: 30000 ft&#xA;Speed: 438.0 kts&#xA;Heading: 282.5&#xA;Source: airplanes.live</description>
          <Point>
            <coordinates>0,0,30000</coordinates>
          </Point>
        </Placemark>
        <Placemark>
          <name>STGRY22 (BE9L)</name>
          <description>Type: BE9L&#xA;Callsign: STGRY22&#xA;Hex: ae14a7&#xA;Altitude: 2925 ft&#xA;Speed: 181.0 kts&#xA;Heading: 79.3&#xA;Source: airplanes.live</description>
          <Point>
            <coordinates>-96.659828,28.849823,2925</coordinates>
          </Point>
        </Placemark>
        <Placemark>
          <name>TOPCT26 (RC-135 Rivet Joint)</name>
          <description>Type: RC-135 Rivet Joint&#xA;Callsign: TOPCT26&#xA;Hex: ae1253&#xA;Altitude: 1675 ft&#xA;Speed: 157.9 kts&#xA;Heading: 125.2&#xA;Source: airplanes.live</description>
          <Point>
            <coordinates>-95.953029,41.146639,1675</coordinates>
          </Point>
        </Placemark>
        <Placemark>
          <name>BELLS75 (EC45)</name>
          <description>Type: EC45&#xA;Callsign: BELLS75&#xA;Hex: ae5a94&#xA;Altitude: 1775 ft&#xA;Speed: 88.6 kts&#xA;Heading: 110.5&#xA;Source: airplanes.live</description>
          <Point>
            <coordinates>-85.667832,31.06517,1775</coordinates>
          </Point>
        </Placemark>
        <Placemark>
          <name>BELLS80 (EC45)</name>
          <description>Type: EC45&#xA;Callsign: BELLS80&#xA;Hex: ae6335&#xA;Altitude: 1325 ft&#xA;Speed: 96.2 kts&#xA;Heading: 116.6&#xA;Source: airplanes.live</description>
          <Point>
            <coordinates>-85.322625,31.465897,1325</coordinates>
          </Point>
        </Placemark>
        <Placemark>
          <name>ae0693 (KC-135 Stratotanker)</name>
          <description>Type: KC-135 Stratotanker&#xA;Hex: ae0693&#xA;Altitude: 31000 ft&#xA;Speed: 0.0 kts&#xA;Heading: 0.0&#xA;Source: adsb.lol</description>
          <Point>
            <coordinates>-81.587057,44.466609,31000</coordinates>
          </Point>
        </Placemark>
        <Placemark>
          <name>JEDDA63 (TEX2)</name>
          <description>Type: TEX2&#xA;Callsign: JEDDA63&#xA;Hex: ae0892&#xA;Altitude: 9875 ft&#xA;Speed: 301.4 kts&#xA;Heading: 100.9&#xA;Source: airplanes.live</description>
          <Point>
            <coordinates>-99.369238,29.95697,9875</coordinates>
          </Point>
        </Placemark>
        <Placemark>
          <name>RNGR715 (TEX2)</name>
          <description>Type: TEX2&#xA;Callsign: RNGR715&#xA;Hex: ae4a13&#xA;Altitude: 12150 ft&#xA;Speed: 190.8 kts&#xA;Heading: 11.5&#xA;Source: airplanes.live</description>
          <Point>
            <coordinates>-97.282721,27.36415,12150</coordinates>
          </Point>
        </Placemark>
        <Placemark>
          <name>FOXX373 (BE20)</name>
          <description>Type: BE20&#xA;Callsign: FOXX373&#xA;Hex: ae06e4&#xA;Altitude: 7325 ft&#xA;Speed: 192.3 kts&#xA;Heading: 197.9&#xA;Source: airplanes.live</description>
          <Point>
            <coordinates>-74.450912,39.983577,7325</coordinates>
          </Point>
        </Placemark>
        <Placemark>
          <name>JDGMT88 (A400M Atlas)</name>
          <description>Type: A400M Atlas&#xA;Callsign: JDGMT88&#xA;Hex: 43c5de&#xA;Altitude: 3625 ft&#xA;Speed: 282.0 kts&#xA;Heading: 270.0&#xA;Source: airplanes.live</description>
          <Point>
            <coordinates>-4.319409,51.344238,3625</coordinates>
          </Point>
        </Placemark>
        <Placemark>
          <name>ae4fb0 (H-60 Black Hawk)</name>
          <description>Type: H-60 Black Hawk&#xA;Hex: ae4fb0&#xA;Altitude: 0 ft&#xA;Speed: 83.7 kts&#xA;Heading: 240.7&#xA;Source: airplanes.live</description>
          <Point>
            <coordinates>0,0,0</coordinates>
          </Point>
        </Placemark>
        <Placemark>
          <name>ZORRO67 (AT8T)</name>
          <description>Type: AT8T&#xA;Callsign: ZORRO67&#xA;Hex: aaec24&#xA;Altitude: 5450 ft&#xA;Speed: 154.4 kts&#xA;Heading: 348.0&#xA;Source: adsb.lol</description>
          <Point>
            <coordinates>-97.912674,35.533356,5450</coordinates>
          </Point>
        </Placemark>
        <Placemark>
          <name>TEST1234 (Unknown Type)</name>
          <description>Type: Unknown Type&#xA;Callsign: TEST1234&#xA;Hex: adf996&#xA;Altitude: 0 ft&#xA;Speed: 0.0 kts&#xA;Heading: 0.0&#xA;Source: adsb.lol</description>
          <Point>
            <coordinates>0,0,0</coordinates>
          </Point>
        </Placemark>