<?xml version="1.0" encoding="UTF-8"?>
<kml xmlns="http://www.opengis.net/kml/2.2">
  <Document>
    <name>US Military Tracker</name>
    <description>Generated: 2026-03-02T20:18:02Z | Chairman: none | Score: 0.00</description>
    <Folder>
      <name>Aircraft (427 tracked)</name>
      <Folder>
        <name>Unknown</name>
        <Placemark>
          <name>WEIRD35 (EC45)</name>
          <description>Branch: &#xA;Altitude: 575 ft&#xA;Speed: 76.0 kts&#xA;Heading: 359.0&#xA;Mission: </description>
          <Point>
            <coordinates>-85.719559,31.159508,575</coordinates>
          </Point>
        </Placemark>
        <Placemark>
          <name>NATO29 (E3TF)</name>
          <description>Branch: &#xA;Altitude: 17775 ft&#xA;Speed: 359.7 kts&#xA;Heading: 101.9&#xA;Mission: </description>
          <Point>
            <coordinates>33.075568,38.179779,17775</coordinates>
          </Point>
        </Placemark>
        <Placemark>
          <name> (P8 ?)</name>
          <description>Branch: &#xA;Altitude: 34000 ft&#xA;Speed: 374.2 kts&#xA;Heading: 289.8&#xA;Mission: </description>
          <Point>
            <coordinates>-103.680794,45.594891,34000</coordinates>
          </Point>
        </Placemark>
        <Placemark>
          <name> (H47)</name>
          <description>Branch: &#xA;Altitude: -125 ft&#xA;Speed: 0.0 kts&#xA;Heading: 0.0&#xA;Mission: </description>
          <Point>
            <coordinates>0,0,-125</coordinates>
          </Point>
        </Placemark>
        <Placemark>
          <name> (B762)</name>
          <description>Branch: &#xA;Altitude: 29000 ft&#xA;Speed: 0.0 kts&#xA;Heading: 0.0&#xA;Mission: </description>
          <Point>
            <coordinates>0,0,29000</coordinates>
          </Point>
        </Placemark>
        <Placemark>
          <name>TEST1234 ()</name>
          <description>Branch: &#xA;Altitude: 0 ft&#xA;Speed: 0.0 kts&#xA;Heading: 0.0&#xA;Mission: </description>
          <Point>
            <coordinates>0,0,0</coordinates>
          </Point>
        </Placemark>
        <Placemark>
          <name>MESSY62 (EC45)</name>
          <description>Branch: &#xA;Altitude: 850 ft&#xA;Speed: 83.7 kts&#xA;Heading: 150.7&#xA;Mission: </description>
          <Point>
            <coordinates>-85.58425,31.223373,850</coordinates>
          </Point>
        </Placemark>
        <Placemark>
          <name>VV8E029 (A119)</name>
          <description>Branch: &#xA;Altitude: 2800 ft&#xA;Speed: 135.0 kts&#xA;Heading: 309.5&#xA;Mission: </description>
          <Point>
            <coordinates>-87.248413,30.777512,2800</coordinates>
          </Point>
        </Placemark>
        <Placemark>
          <name>OSPRY73 (V22)</name>
          <description>Branch: &#xA;Altitude: -375 ft&#xA;Speed: 9.1 kts&#xA;Heading: 6.3&#xA;Mission: </description>
          <Point>
            <coordinates>-76.420256,38.281082,-375</coordinates>
          </Point>
        </Placemark>
        <Placemark>
          <name> (B52)</name>
          <description>Branch: &#xA;Altitude: 21100 ft&#xA;Speed: 0.0 kts&#xA;Heading: 0.0&#xA;Mission: </description>
          <Point>
            <coordinates>0,0,21100</coordinates>
          </Point>
        </Placemark>
        <Placemark>
          <name> (B762)</name>
          <description>Branch: &#xA;Altitude: 7900 ft&#xA;Speed: 0.0 kts&#xA;Heading: 0.0&#xA;Mission: </description>
          <Point>
            <coordinates>0,0,7900</coordinates>
          </Point>
        </Placemark>
        <Placemark>
          <name>NOMAD37 (H60)</name>
          <description>Branch: &#xA;Altitude: 0 ft&#xA;Speed: 61.0 kts&#xA;Heading: 178.9&#xA;Mission: </description>
          <Point>
            <coordinates>-85.844971,31.471407,0</coordinates>
          </Point>
        </Placemark>
        <Placemark>
          <name>ATLS337 (C130)</name>
          <description>Branch: &#xA;Altitude: 5475 ft&#xA;Speed: 248.0 kts&#xA;Heading: 115.0&#xA;Mission: </description>
          <Point>
            <coordinates>-97.463627,49.757062,5475</coordinates>
          </Point>
        </Placemark>
        <Placemark>
          <name>STGRY22 (BE9L)</name>
          <description>Branch: &#xA;Altitude: 1475 ft&#xA;Speed: 183.0 kts&#xA;Heading: 36.6&#xA;Mission: </description>
          <Point>
            <coordinates>-97.17366,27.694839,1475</coordinates>
          </Point>
        </Placemark>
        <Placemark>
          <name>TEAL29 (C30J)</name>
          <description>Branch: &#xA;Altitude: 24000 ft&#xA;Speed: 286.8 kts&#xA;Heading: 328.7&#xA;Mission: </description>
          <Point>
            <coordinates>-92.616739,29.459653,24000</coordinates>
          </Point>
        </Placemark>
        <Placemark>
          <name>KICK52 (TEX2)</name>
          <description>Branch: &#xA;Altitude: 9350 ft&#xA;Speed: 231.9 kts&#xA;Heading: 141.3&#xA;Mission: </description>
          <Point>
            <coordinates>-88.207031,33.116547,9350</coordinates>
          </Point>
        </Placemark>
        <Placemark>
          <name>REAPR03 (F5)</name>
          <description>Branch: &#xA;Altitude: 8550 ft&#xA;Speed: 395.1 kts&#xA;Heading: 104.2&#xA;Mission: </description>
          <Point>
            <coordinates>-81.605745,31.703293,8550</coordinates>
          </Point>
        </Placemark>
        <Placemark>
          <name>GAF313 (C30J)</name>
          <description>Branch: &#xA;Altitude: 25025 ft&#xA;Speed: 333.4 kts&#xA;Heading: 236.5&#xA;Mission: </description>
          <Point>
            <coordinates>3.194492,50.32901,25025</coordinates>
          </Point>
        </Placemark>
        <Placemark>
          <name>THNDR43 (DG1T)</name>
          <description>Branch: &#xA;Altitude: 0 ft&#xA;Speed: 0.1 kts&#xA;Heading: 0.0&#xA;Mission: </description>
          <Point>
            <coordinates>-104.822034,38.972534,0</coordinates>
          </Point>
        </Placemark>
        <Placemark>
          <name>MMF35 (A332)</name>
          <description>Branch: &#xA;Altitude: 24000 ft&#xA;Speed: 403.2 kts&#xA;Heading: 247.7&#xA;Mission: </description>
          <Point>
            <coordinates>-114.719176,40.51553,24000</coordinates>
          </Point>
        </Placemark>
        <Placemark>
          <name>RIBYE81 (T38)</name>
          <description>Branch: &#xA;Altitude: 3450 ft&#xA;Speed: 305.4 kts&#xA;Heading: 196.4&#xA;Mission: </description>
          <Point>
            <coordinates>-100.707286,29.592682,3450</coordinates>
          </Point>
        </Placemark>
        <Placemark>
          <name>MORPH33 (EC45)</name>
          <description>Branch: &#xA;Altitude: 750 ft&#xA;Speed: 101.0 kts&#xA;Heading: 308.6&#xA;Mission: </description>
          <Point>
            <coordinates>-85.666718,31.217558,750</coordinates>
          </Point>
        </Placemark>
        <Placemark>
          <name>MESSY23 (EC45)</name>
          <description>Branch: &#xA;Altitude: 650 ft&#xA;Speed: 81.3 kts&#xA;Heading: 314.5&#xA;Mission: </description>
          <Point>
            <coordinates>-85.574542,31.209319,650</coordinates>
          </Point>
        </Placemark>
        <Placemark>
          <name>GRIFN11 ()</name>
          <description>Branch: &#xA;Altitude: 30025 ft&#xA;Speed: 474.0 kts&#xA;Heading: 117.2&#xA;Mission: </description>
          <Point>
            <coordinates>10.332153,39.299305,30025</coordinates>
          </Point>
        </Placemark>
        <Placemark>
          <name> (B762)</name>
          <description>Branch: &#xA;Altitude: 0 ft&#xA;Speed: 0.0 kts&#xA;Heading: 0.0&#xA;Mission: </description>
          <Point>
            <coordinates>0,0,0</coordinates>
          </Point>
        </Placemark>
        <Placemark>
          <name> ()</name>
          <description>Branch: &#xA;Altitude: 5950 ft&#xA;Speed: 241.6 kts&#xA;Heading: 131.5&#xA;Mission: </description>
          <Point>
            <coordinates>-114.204994,48.232132,5950</coordinates>
          </Point>
        </Placemark>
        <Placemark>
          <name> ()</name>
          <description>Branch: &#xA;Altitude: 0 ft&#xA;Speed: 4.8 kts&#xA;Heading: 0.0&#xA;Mission: </description>
          <Point>
            <coordinates>0,0,0</coordinates>
          </Point>
        </Placemark>
        <Placemark>
          <name>VV1E628 (A119)</name>
          <description>Branch: &#xA;Altitude: 650 ft&#xA;Speed: 76.0 kts&#xA;Heading: 290.5&#xA;Mission: </description>
          <Point>
            <coordinates>-87.157455,30.820234,650</coordinates>
          </Point>
        </Placemark>
        <Placemark>
          <name>SPUD04 (H60)</name>
          <description>Branch: &#xA;Altitude: 0 ft&#xA;Speed: 103.0 kts&#xA;Heading: 355.1&#xA;Mission: </description>
          <Point>
            <coordinates>-86.068459,31.265305,0</coordinates>
          </Point>
        </Placemark>
        <Placemark>
          <name>SQUIB33 (EC45)</name>
          <description>Branch: &#xA;Altitude: 725 ft&#xA;Speed: 87.0 kts&#xA;Heading: 271.3&#xA;Mission: </description>
          <Point>
            <coordinates>-85.729227,31.132553,725</coordinates>
          </Point>
        </Placemark>
        <Placemark>
          <name>RCH128 (C17)</name>
          <description>Branch: &#xA;Altitude: 29975 ft&#xA;Speed: 474.0 kts&#xA;Heading: 318.0&#xA;Mission: </description>
          <Point>
            <coordinates>-1.628087,54.471215,29975</coordinates>
          </Point>
        </Placemark>
        <Placemark>
          <name>CRDO505 (C295)</name>
          <description>Branch: &#xA;Altitude: 3425 ft&#xA;Speed: 158.4 kts&#xA;Heading: 39.6&#xA;Mission: </description>
          <Point>
            <coordinates>-124.914045,49.706635,3425</coordinates>
          </Point>
        </Placemark>
        <Placemark>
          <name> ()</name>
          <description>Branch: &#xA;Altitude: 20000 ft&#xA;Speed: 303.2 kts&#xA;Heading: 284.9&#xA;Mission: </description>
          <Point>
            <coordinates>-119.505432,47.901398,20000</coordinates>
          </Point>
        </Placemark>
        <Placemark>
          <name>JUMP02 (T38)</name>
          <description>Branch: &#xA;Altitude: 2150 ft&#xA;Speed: 265.9 kts&#xA;Heading: 229.1&#xA;Mission: </description>
          <Point>
            <coordinates>-100.814772,29.464508,2150</coordinates>
          </Point>
        </Placemark>
        <Placemark>
          <name>72287 (EC45)</name>
          <description>Branch: &#xA;Altitude: 0 ft&#xA;Speed: 65.0 kts&#xA;Heading: 216.9&#xA;Mission: </description>
          <Point>
            <coordinates>-68.806234,44.801874,0</coordinates>
          </Point>
        </Placemark>
        <Placemark>
          <name>N343TA (P28A)</name>
          <description>Branch: &#xA;Altitude: 5100 ft&#xA;Speed: 95.9 kts&#xA;Heading: 129.5&#xA;Mission: </description>
          <Point>
            <coordinates>-121.431274,39.013801,5100</coordinates>
          </Point>
        </Placemark>
        <Placemark>
          <name>THNDR03 (DG1T)</name>
          <description>Branch: &#xA;Altitude: 8425 ft&#xA;Speed: 60.1 kts&#xA;Heading: 176.2&#xA;Mission: </description>
          <Point>
            <coordinates>-104.862488,39.004305,8425</coordinates>
          </Point>
        </Placemark>
        <Placemark>
          <name>10630 (MI8)</name>
          <description>Branch: &#xA;Altitude: 1425 ft&#xA;Speed: 96.9 kts&#xA;Heading: 137.1&#xA;Mission: </description>
          <Point>
            <coordinates>19.383569,50.66478,1425</coordinates>
          </Point>
        </Placemark>
        <Placemark>
          <name>PAT505 (SW4)</name>
          <description>Branch: &#xA;Altitude: 6875 ft&#xA;Speed: 203.4 kts&#xA;Heading: 168.1&#xA;Mission: </description>
          <Point>
            <coordinates>-111.717392,33.851257,6875</coordinates>
          </Point>
        </Placemark>
        <Placemark>
          <name>JUMP21 (T38)</name>
          <description>Branch: &#xA;Altitude: 1175 ft&#xA;Speed: 221.3 kts&#xA;Heading: 134.8&#xA;Mission: </description>
          <Point>
            <coordinates>-100.766126,29.35199,1175</coordinates>
          </Point>
        </Placemark>
        <Placemark>
          <name>CHEWY44 (TEX2)</name>
          <description>Branch: &#xA;Altitude: 9700 ft&#xA;Speed: 246.2 kts&#xA;Heading: 272.3&#xA;Mission: </description>
          <Point>
            <coordinates>-87.363012,30.298325,9700</coordinates>
          </Point>
        </Placemark>
        <Placemark>
          <name>EVAL80 (BE20)</name>
          <description>Branch: &#xA;Altitude: 23000 ft&#xA;Speed: 296.7 kts&#xA;Heading: 175.9&#xA;Mission: </description>
          <Point>
            <coordinates>-86.832782,37.822906,23000</coordinates>
          </Point>
        </Placemark>
        <Placemark>
          <name>TESLA88 (H60)</name>
          <description>Branch: &#xA;Altitude: 800 ft&#xA;Speed: 106.0 kts&#xA;Heading: 0.0&#xA;Mission: </description>
          <Point>
            <coordinates>-86.071182,31.282499,800</coordinates>
          </Point>
        </Placemark>
        <Placemark>
          <name>ZEUS12 (H64)</name>
          <description>Branch: &#xA;Altitude: 1000 ft&#xA;Speed: 107.7 kts&#xA;Heading: 195.1&#xA;Mission: </description>
          <Point>
            <coordinates>-78.626871,35.874272,1000</coordinates>
          </Point>
        </Placemark>
        <Placemark>
          <name>GAFTT33 ()</name>
          <description>Branch: &#xA;Altitude: 62700 ft&#xA;Speed: 0.0 kts&#xA;Heading: 0.0&#xA;Mission: </description>
          <Point>
            <coordinates>0,0,62700</coordinates>
          </Point>
        </Placemark>
        <Placemark>
          <name>G20671 (H60)</name>
          <description>Branch: &#xA;Altitude: 1675 ft&#xA;Speed: 140.3 kts&#xA;Heading: 311.5&#xA;Mission: </description>
          <Point>
            <coordinates>-91.428989,43.784317,1675</coordinates>
          </Point>
        </Placemark>
        <Placemark>
          <name>TRON11 (GLF5)</name>
          <description>Branch: &#xA;Altitude: 7850 ft&#xA;Speed: 212.0 kts&#xA;Heading: 359.7&#xA;Mission: </description>
          <Point>
            <coordinates>-120.670745,34.827576,7850</coordinates>
          </Point>
        </Placemark>
        <Placemark>
          <name>BLACK34 (H60)</name>
          <description>Branch: &#xA;Altitude: 6025 ft&#xA;Speed: 119.0 kts&#xA;Heading: 240.1&#xA;Mission: </description>
          <Point>
            <coordinates>-7.837036,41.25293,6025</coordinates>
          </Point>
        </Placemark>
        <Placemark>
          <name>DUKE58 (C560)</name>
          <description>Branch: &#xA;Altitude: 6725 ft&#xA;Speed: 239.1 kts&#xA;Heading: 18.3&#xA;Mission: </description>
          <Point>
            <coordinates>25.051291,59.028051,6725</coordinates>
          </Point>
        </Placemark>
        <Placemark>
          <name>@@@@@@@@ (P3)</name>
          <description>Branch: &#xA;Altitude: 19000 ft&#xA;Speed: 0.0 kts&#xA;Heading: 0.0&#xA;Mission: </description>
          <Point>
            <coordinates>0,0,19000</coordinates>
          </Point>
        </Placemark>
        <Placemark>
          <name>STGN26 (G120)</name>
          <description>Branch: &#xA;Altitude: 1175 ft&#xA;Speed: 103.8 kts&#xA;Heading: 259.4&#xA;Mission: </description>
          <Point>
            <coordinates>-98.24813,49.891708,1175</coordinates>
          </Point>
        </Placemark>
        <Placemark>
          <name> (C30J)</name>
          <description>Branch: &#xA;Altitude: 0 ft&#xA;Speed: 0.0 kts&#xA;Heading: 0.0&#xA;Mission: </description>
          <Point>
            <coordinates>0,0,0</coordinates>
          </Point>
        </Placemark>
        <Placemark>
          <name>R20043 (H60)</name>
          <description>Branch: &#xA;Altitude: 5750 ft&#xA;Speed: 128.1 kts&#xA;Heading: 104.5&#xA;Mission: </description>
          <Point>
            <coordinates>-110.160989,31.720963,5750</coordinates>
          </Point>
        </Placemark>
        <Placemark>
          <name>RCH1848 (C17)</name>
          <description>Branch: &#xA;Altitude: 35000 ft&#xA;Speed: 530.0 kts&#xA;Heading: 123.0&#xA;Mission: </description>
          <Point>
            <coordinates>-95.255241,41.408916,35000</coordinates>
          </Point>
        </Placemark>
        <Placemark>
          <name>R00257 (BE20)</name>
          <description>Branch: &#xA;Altitude: 25000 ft&#xA;Speed: 285.0 kts&#xA;Heading: 44.9&#xA;Mission: </description>
          <Point>
            <coordinates>-91.802032,33.489258,25000</coordinates>
          </Point>
        </Placemark>
        <Placemark>
          <name>SPAR320 (LJ35)</name>
          <description>Branch: &#xA;Altitude: 24600 ft&#xA;Speed: 419.7 kts&#xA;Heading: 68.3&#xA;Mission: </description>
          <Point>
            <coordinates>-88.740035,38.773773,24600</coordinates>
          </Point>
        </Placemark>
        <Placemark>
          <name>TEXGLD (TEX2)</name>
          <description>Branch: &#xA;Altitude: 3175 ft&#xA;Speed: 190.0 kts&#xA;Heading: 322.6&#xA;Mission: </description>
          <Point>
            <coordinates>173.879944,-40.788254,3175</coordinates>
          </Point>
        </Placemark>
        <Placemark>
          <name> (C17)</name>
          <description>Branch: &#xA;Altitude: 9925 ft&#xA;Speed: 0.0 kts&#xA;Heading: 0.0&#xA;Mission: </description>
          <Point>
            <coordinates>0,0,9925</coordinates>
          </Point>
        </Placemark>
        <Placemark>
          <name>ZORRO21 (AT8T)</name>
          <description>Branch: &#xA;Altitude: 0 ft&#xA;Speed: 0.0 kts&#xA;Heading: 0.0&#xA;Mission: </description>
          <Point>
            <coordinates>-97.606874,35.39217,0</coordinates>
          </Point>
        </Placemark>
        <Placemark>
          <name>SABER1 (DG1T)</name>
          <description>Branch: &#xA;Altitude: 0 ft&#xA;Speed: 0.0 kts&#xA;Heading: 0.0&#xA;Mission: </description>
          <Point>
            <coordinates>0,0,0</coordinates>
          </Point>
        </Placemark>
        <Placemark>
          <name>BEARD1 ()</name>
          <description>Branch: &#xA;Altitude: 5300 ft&#xA;Speed: 300.0 kts&#xA;Heading: 226.4&#xA;Mission: </description>
          <Point>
            <coordinates>-88.411674,33.675518,5300</coordinates>
          </Point>
        </Placemark>
        <Placemark>
          <name>VV8E626 (A119)</name>
          <description>Branch: &#xA;Altitude: 650 ft&#xA;Speed: 113.0 kts&#xA;Heading: 238.2&#xA;Mission: </description>
          <Point>
            <coordinates>-87.127342,30.683533,650</coordinates>
          </Point>
        </Placemark>
        <Placemark>
          <name>VV7E035 (A119)</name>
          <description>Branch: &#xA;Altitude: 600 ft&#xA;Speed: 118.0 kts&#xA;Heading: 271.0&#xA;Mission: </description>
          <Point>
            <coordinates>-86.883783,30.668847,600</coordinates>
          </Point>
        </Placemark>
        <Placemark>
          <name>C0VET03 (H64)</name>
          <description>Branch: &#xA;Altitude: 1800 ft&#xA;Speed: 56.2 kts&#xA;Heading: 38.5&#xA;Mission: </description>
          <Point>
            <coordinates>10.729812,49.431702,1800</coordinates>
          </Point>
        </Placemark>
        <Placemark>
          <name>JOKER75 ()</name>
          <description>Branch: &#xA;Altitude: 1675 ft&#xA;Speed: 0.0 kts&#xA;Heading: 0.0&#xA;Mission: </description>
          <Point>
            <coordinates>0,0,1675</coordinates>
          </Point>
        </Placemark>
        <Placemark>
          <name>WAYLN37 (BE20)</name>
          <description>Branch: &#xA;Altitude: 22000 ft&#xA;Speed: 257.2 kts&#xA;Heading: 182.2&#xA;Mission: </description>
          <Point>
            <coordinates>-117.57637,36.126892,22000</coordinates>
          </Point>
        </Placemark>
        <Placemark>
          <name> (TEX2)</name>
          <description>Branch: &#xA;Altitude: 0 ft&#xA;Speed: 0.0 kts&#xA;Heading: 0.0&#xA;Mission: </description>
          <Point>
            <coordinates>0,0,0</coordinates>
          </Point>
        </Placemark>
        <Placemark>
          <name>RNGR730 (TEX2)</name>
          <description>Branch: &#xA;Altitude: 200 ft&#xA;Speed: 114.0 kts&#xA;Heading: 143.9&#xA;Mission: </description>
          <Point>
            <coordinates>-97.318916,27.643616,200</coordinates>
          </Point>
        </Placemark>
        <Placemark>
          <name>TOTES79 (EC45)</name>
          <description>Branch: &#xA;Altitude: 525 ft&#xA;Speed: 72.0 kts&#xA;Heading: 119.5&#xA;Mission: </description>
          <Point>
            <coordinates>-85.979759,31.38826,525</coordinates>
          </Point>
        </Placemark>
        <Placemark>
          <name> ()</name>
          <description>Branch: &#xA;Altitude: 24450 ft&#xA;Speed: 372.7 kts&#xA;Heading: 31.7&#xA;Mission: </description>
          <Point>
            <coordinates>-75.933585,37.435272,24450</coordinates>
          </Point>
        </Placemark>
        <Placemark>
          <name>RCH1811 (C17)</name>
          <description>Branch: &#xA;Altitude: 6550 ft&#xA;Speed: 197.0 kts&#xA;Heading: 303.0&#xA;Mission: </description>
          <Point>
            <coordinates>7.118703,50.11849,6550</coordinates>
          </Point>
        </Placemark>
        <Placemark>
          <name>AXEL10 (GLEX)</name>
          <description>Branch: &#xA;Altitude: 40000 ft&#xA;Speed: 408.9 kts&#xA;Heading: 288.8&#xA;Mission: </description>
          <Point>
            <coordinates>-99.825813,32.040276,40000</coordinates>
          </Point>
        </Placemark>
        <Placemark>
          <name>CFC3360 (A310)</name>
          <description>Branch: &#xA;Altitude: 0 ft&#xA;Speed: 0.0 kts&#xA;Heading: 0.0&#xA;Mission: </description>
          <Point>
            <coordinates>-147.857465,64.821476,0</coordinates>
          </Point>
        </Placemark>
        <Placemark>
          <name>BLZR247 (HAWK)</name>
          <description>Branch: &#xA;Altitude: 8400 ft&#xA;Speed: 306.3 kts&#xA;Heading: 324.7&#xA;Mission: </description>
          <Point>
            <coordinates>-98.237259,27.929764,8400</coordinates>
          </Point>
        </Placemark>
        <Placemark>
          <name>CHEWY31 (TEX2)</name>
          <description>Branch: &#xA;Altitude: 1750 ft&#xA;Speed: 230.5 kts&#xA;Heading: 282.5&#xA;Mission: </description>
          <Point>
            <coordinates>-88.26513,30.354034,1750</coordinates>
          </Point>
        </Placemark>
        <Placemark>
          <name>R13392 (H64)</name>
          <description>Branch: &#xA;Altitude: 700 ft&#xA;Speed: 95.0 kts&#xA;Heading: 276.6&#xA;Mission: </description>
          <Point>
            <coordinates>-87.654243,36.598343,700</coordinates>
          </Point>
        </Placemark>
        <Placemark>
          <name>TEST1234 (TWR)</name>
          <description>Branch: &#xA;Altitude: 0 ft&#xA;Speed: 0.0 kts&#xA;Heading: 0.0&#xA;Mission: </description>
          <Point>
            <coordinates>0,0,0</coordinates>
          </Point>
        </Placemark>
        <Placemark>
          <name> (P8)</name>
          <description>Branch: &#xA;Altitude: 0 ft&#xA;Speed: 0.0 kts&#xA;Heading: 0.0&#xA;Mission: </description>
          <Point>
            <coordinates>0,0,0</coordinates>
          </Point>
        </Placemark>
        <Placemark>
          <name> ()</name>
          <description>Branch: &#xA;Altitude: 97400 ft&#xA;Speed: 0.0 kts&#xA;Heading: 0.0&#xA;Mission: </description>
          <Point>
            <coordinates>0,0,97400</coordinates>
          </Point>
        </Placemark>
        <Placemark>
          <name>BRK39 (C17)</name>
          <description>Branch: &#xA;Altitude: 0 ft&#xA;Speed: 5.8 kts&#xA;Heading: 0.0&#xA;Mission: </description>
          <Point>
            <coordinates>-147.09569,64.664282,0</coordinates>
          </Point>
        </Placemark>
        <Placemark>
          <name>DRAGN77 (TEX2)</name>
          <description>Branch: &#xA;Altitude: 12450 ft&#xA;Speed: 148.1 kts&#xA;Heading: 318.6&#xA;Mission: </description>
          <Point>
            <coordinates>-98.303146,36.747437,12450</coordinates>
          </Point>
        </Placemark>
        <Placemark>
          <name>BRAVE38 (C130)</name>
          <description>Branch: &#xA;Altitude: 23000 ft&#xA;Speed: 350.7 kts&#xA;Heading: 99.3&#xA;Mission: </description>
          <Point>
            <coordinates>-93.03985,34.93277,23000</coordinates>
          </Point>
        </Placemark>
        <Placemark>
          <name>ZEUS11 (H64)</name>
          <description>Branch: &#xA;Altitude: 1000 ft&#xA;Speed: 110.5 kts&#xA;Heading: 153.7&#xA;Mission: </description>
          <Point>
            <coordinates>-78.808438,35.899782,1000</coordinates>
          </Point>
        </Placemark>
        <Placemark>
          <name>PAT07 (H60)</name>
          <description>Branch: &#xA;Altitude: 2375 ft&#xA;Speed: 91.6 kts&#xA;Heading: 58.4&#xA;Mission: </description>
          <Point>
            <coordinates>-77.42083,38.374649,2375</coordinates>
          </Point>
        </Placemark>
        <Placemark>
          <name>TRIPLE42 (EUFI)</name>
          <description>Branch: &#xA;Altitude: 775 ft&#xA;Speed: 0.0 kts&#xA;Heading: 0.0&#xA;Mission: </description>
          <Point>
            <coordinates>-0.135205,53.08505,775</coordinates>
          </Point>
        </Placemark>
        <Placemark>
          <name>GRZLY23 (H47)</name>
          <description>Branch: &#xA;Altitude: 500 ft&#xA;Speed: 168.0 kts&#xA;Heading: 291.0&#xA;Mission: </description>
          <Point>
            <coordinates>4.918812,51.553304,500</coordinates>
          </Point>
        </Placemark>
        <Placemark>
          <name> (A119)</name>
          <description>Branch: &#xA;Altitude: 250 ft&#xA;Speed: 116.2 kts&#xA;Heading: 176.6&#xA;Mission: </description>
          <Point>
            <coordinates>0,0,250</coordinates>
          </Point>
        </Placemark>
        <Placemark>
          <name>BOXER19 (TEX2)</name>
          <description>Branch: &#xA;Altitude: 10850 ft&#xA;Speed: 209.3 kts&#xA;Heading: 101.6&#xA;Mission: </description>
          <Point>
            <coordinates>-100.241627,28.869184,10850</coordinates>
          </Point>
        </Placemark>
        <Placemark>
          <name>TORO72 (T38)</name>
          <description>Branch: &#xA;Altitude: 9200 ft&#xA;Speed: 342.1 kts&#xA;Heading: 149.2&#xA;Mission: </description>
          <Point>
            <coordinates>-98.874035,34.02275,9200</coordinates>
          </Point>
        </Placemark>
        <Placemark>
          <name>UHAUL12 (C5M)</name>
          <description>Branch: &#xA;Altitude: 2375 ft&#xA;Speed: 205.2 kts&#xA;Heading: 112.9&#xA;Mission: </description>
          <Point>
            <coordinates>-98.671552,29.396714,2375</coordinates>
          </Point>
        </Placemark>
        <Placemark>
          <name>TALON48 (HAWK)</name>
          <description>Branch: &#xA;Altitude: 9925 ft&#xA;Speed: 288.8 kts&#xA;Heading: 323.4&#xA;Mission: </description>
          <Point>
            <coordinates>-88.766617,32.66915,9925</coordinates>
          </Point>
        </Placemark>
        <Placemark>
          <name>RCH719 (K35R)</name>
          <description>Branch: &#xA;Altitude: 31000 ft&#xA;Speed: 522.0 kts&#xA;Heading: 85.0&#xA;Mission: </description>
          <Point>
            <coordinates>-83.527328,40.078645,31000</coordinates>
          </Point>
        </Placemark>
        <Placemark>
          <name>T312 (AS32)</name>
          <description>Branch: &#xA;Altitude: 0 ft&#xA;Speed: 0.0 kts&#xA;Heading: 0.0&#xA;Mission: </description>
          <Point>
            <coordinates>8.646069,47.401886,0</coordinates>
          </Point>
        </Placemark>
        <Placemark>
          <name>CTM2000 (A400)</name>
          <description>Branch: &#xA;Altitude: 3725 ft&#xA;Speed: 250.0 kts&#xA;Heading: 89.1&#xA;Mission: </description>
          <Point>
            <coordinates>4.40434,43.702868,3725</coordinates>
          </Point>
        </Placemark>
        <Placemark>
          <name>EVAL78 (H64)</name>
          <description>Branch: &#xA;Altitude: 1400 ft&#xA;Speed: 116.4 kts&#xA;Heading: 233.0&#xA;Mission: </description>
          <Point>
            <coordinates>-96.108398,32.091156,1400</coordinates>
          </Point>
        </Placemark>
        <Placemark>
          <name>RHODY62 (C30J)</name>
          <description>Branch: &#xA;Altitude: 2350 ft&#xA;Speed: 233.0 kts&#xA;Heading: 333.8&#xA;Mission: </description>
          <Point>
            <coordinates>-89.085992,30.516714,2350</coordinates>
          </Point>
        </Placemark>
        <Placemark>
          <name>C2315 (CN35)</name>
          <description>Branch: &#xA;Altitude: 4300 ft&#xA;Speed: 176.9 kts&#xA;Heading: 16.1&#xA;Mission: </description>
          <Point>
            <coordinates>-88.507529,30.481934,4300</coordinates>
          </Point>
        </Placemark>
        <Placemark>
          <name>EVAL63 (H60)</name>
          <description>Branch: &#xA;Altitude: 2150 ft&#xA;Speed: 96.0 kts&#xA;Heading: 181.2&#xA;Mission: </description>
          <Point>
            <coordinates>-86.556644,34.954213,2150</coordinates>
          </Point>
        </Placemark>
        <Placemark>
          <name>OLIVE27 (C135)</name>
          <description>Branch: &#xA;Altitude: 36000 ft&#xA;Speed: 370.6 kts&#xA;Heading: 231.2&#xA;Mission: </description>
          <Point>
            <coordinates>-66.523691,45.867416,36000</coordinates>
          </Point>
        </Placemark>
        <Placemark>
          <name>TEST1234 ()</name>
          <description>Branch: &#xA;Altitude: 0 ft&#xA;Speed: 0.0 kts&#xA;Heading: 0.0&#xA;Mission: </description>
          <Point>
            <coordinates>0,0,0</coordinates>
          </Point>
        </Placemark>
        <Placemark>
          <name>RNGR44 (B06)</name>
          <description>Branch: &#xA;Altitude: 1000 ft&#xA;Speed: 85.9 kts&#xA;Heading: 207.8&#xA;Mission: </description>
          <Point>
            <coordinates>-98.207084,49.937749,1000</coordinates>
          </Point>
        </Placemark>
        <Placemark>
          <name>TEST1234 ()</name>
          <description>Branch: &#xA;Altitude: 0 ft&#xA;Speed: 0.0 kts&#xA;Heading: 0.0&#xA;Mission: </description>
          <Point>
            <coordinates>0,0,0</coordinates>
          </Point>
        </Placemark>
        <Placemark>
          <name>E83173 (C30J)</name>
          <description>Branch: &#xA;Altitude: 25000 ft&#xA;Speed: 330.0 kts&#xA;Heading: 180.0&#xA;Mission: </description>
          <Point>
            <coordinates>-96.735276,37.365429,25000</coordinates>
          </Point>
        </Placemark>
        <Placemark>
          <name>COUGR56 (LJ35)</name>
          <description>Branch: &#xA;Altitude: 37975 ft&#xA;Speed: 422.2 kts&#xA;Heading: 216.1&#xA;Mission: </description>
          <Point>
            <coordinates>-95.068188,33.913817,37975</coordinates>
          </Point>
        </Placemark>
        <Placemark>
          <name>VV8E709 ()</name>
          <description>Branch: &#xA;Altitude: 625 ft&#xA;Speed: 95.5 kts&#xA;Heading: 316.3&#xA;Mission: </description>
          <Point>
            <coordinates>-86.986945,30.669592,625</coordinates>
          </Point>
        </Placemark>
        <Placemark>
          <name>POBOY11 (EC45)</name>
          <description>Branch: &#xA;Altitude: 2025 ft&#xA;Speed: 82.0 kts&#xA;Heading: 180.7&#xA;Mission: </description>
          <Point>
            <coordinates>-85.478247,31.853027,2025</coordinates>
          </Point>
        </Placemark>
        <Placemark>
          <name>SAM257 (B752)</name>
          <description>Branch: &#xA;Altitude: 22300 ft&#xA;Speed: 461.0 kts&#xA;Heading: 46.0&#xA;Mission: </description>
          <Point>
            <coordinates>-77.549518,37.300547,22300</coordinates>
          </Point>
        </Placemark>
        <Placemark>
          <name>GAF701 (A21N)</name>
          <description>Branch: &#xA;Altitude: 36025 ft&#xA;Speed: 453.0 kts&#xA;Heading: 197.1&#xA;Mission: </description>
          <Point>
            <coordinates>-74.825134,46.441025,36025</coordinates>
          </Point>
        </Placemark>
        <Placemark>
          <name>COSMO42 (C30J)</name>
          <description>Branch: &#xA;Altitude: 2475 ft&#xA;Speed: 211.0 kts&#xA;Heading: 115.7&#xA;Mission: </description>
          <Point>
            <coordinates>11.058314,43.5103,2475</coordinates>
          </Point>
        </Placemark>
        <Placemark>
          <name>G26689 (H60)</name>
          <description>Branch: &#xA;Altitude: 1000 ft&#xA;Speed: 97.8 kts&#xA;Heading: 344.0&#xA;Mission: </description>
          <Point>
            <coordinates>-85.15105,33.628143,1000</coordinates>
          </Point>
        </Placemark>
        <Placemark>
          <name>PAT393 (BE20)</name>
          <description>Branch: &#xA;Altitude: 15850 ft&#xA;Speed: 212.9 kts&#xA;Heading: 264.6&#xA;Mission: </description>
          <Point>
            <coordinates>-118.593407,35.41095,15850</coordinates>
          </Point>
        </Placemark>
        <Placemark>
          <name>JAVAN66 (TEX2)</name>
          <description>Branch: &#xA;Altitude: 16950 ft&#xA;Speed: 208.6 kts&#xA;Heading: 34.5&#xA;Mission: </description>
          <Point>
            <coordinates>-100.633796,29.521148,16950</coordinates>
          </Point>
        </Placemark>
        <Placemark>
          <name>VIRAL43 (TEX2)</name>
          <description>Branch: &#xA;Altitude: 4925 ft&#xA;Speed: 214.5 kts&#xA;Heading: 137.5&#xA;Mission: </description>
          <Point>
            <coordinates>-100.54806,29.143703,4925</coordinates>
          </Point>
        </Placemark>
        <Placemark>
          <name>GRZL44 (DH8A)</name>
          <description>Branch: &#xA;Altitude: 6450 ft&#xA;Speed: 200.2 kts&#xA;Heading: 96.3&#xA;Mission: </description>
          <Point>
            <coordinates>-97.002772,49.977127,6450</coordinates>
          </Point>
        </Placemark>
        <Placemark>
          <name>JEDI43 (TEX2)</name>
          <description>Branch: &#xA;Altitude: 9800 ft&#xA;Speed: 284.0 kts&#xA;Heading: 270.0&#xA;Mission: </description>
          <Point>
            <coordinates>-87.605365,30.299688,9800</coordinates>
          </Point>
        </Placemark>
        <Placemark>
          <name> (EC45)</name>
          <description>Branch: &#xA;Altitude: 675 ft&#xA;Speed: 0.0 kts&#xA;Heading: 0.0&#xA;Mission: </description>
          <Point>
            <coordinates>-85.732745,31.122778,675</coordinates>
          </Point>
        </Placemark>
        <Placemark>
          <name> ()</name>
          <description>Branch: &#xA;Altitude: 19125 ft&#xA;Speed: 0.0 kts&#xA;Heading: 0.0&#xA;Mission: </description>
          <Point>
            <coordinates>0,0,19125</coordinates>
          </Point>
        </Placemark>
        <Placemark>
          <name>FFAB123 (H60)</name>
          <description>Branch: &#xA;Altitude: 25 ft&#xA;Speed: 106.4 kts&#xA;Heading: 217.0&#xA;Mission: </description>
          <Point>
            <coordinates>-81.442749,30.378315,25</coordinates>
          </Point>
        </Placemark>
        <Placemark>
          <name> ()</name>
          <description>Branch: &#xA;Altitude: 6025 ft&#xA;Speed: 240.0 kts&#xA;Heading: 46.5&#xA;Mission: </description>
          <Point>
            <coordinates>-111.417915,47.576805,6025</coordinates>
          </Point>
        </Placemark>
        <Placemark>
          <name>SWOOP71 (TEX2)</name>
          <description>Branch: &#xA;Altitude: 2975 ft&#xA;Speed: 181.7 kts&#xA;Heading: 146.2&#xA;Mission: </description>
          <Point>
            <coordinates>-100.745491,29.313711,2975</coordinates>
          </Point>
        </Placemark>
        <Placemark>
          <name>BAT31 (TEX2)</name>
          <description>Branch: &#xA;Altitude: 10250 ft&#xA;Speed: 214.6 kts&#xA;Heading: 79.5&#xA;Mission: </description>
          <Point>
            <coordinates>-100.246636,29.394014,10250</coordinates>
          </Point>
        </Placemark>
        <Placemark>
          <name>CAPE47 (H60)</name>
          <description>Branch: &#xA;Altitude: 0 ft&#xA;Speed: 79.0 kts&#xA;Heading: 270.0&#xA;Mission: </description>
          <Point>
            <coordinates>-86.006027,31.360474,0</coordinates>
          </Point>
        </Placemark>
        <Placemark>
          <name>WING88 (BE20)</name>
          <description>Branch: &#xA;Altitude: 21000 ft&#xA;Speed: 303.6 kts&#xA;Heading: 58.2&#xA;Mission: </description>
          <Point>
            <coordinates>-81.204604,33.779251,21000</coordinates>
          </Point>
        </Placemark>
        <Placemark>
          <name>FORGE78 (GLF5)</name>
          <description>Branch: &#xA;Altitude: 29000 ft&#xA;Speed: 454.2 kts&#xA;Heading: 11.6&#xA;Mission: </description>
          <Point>
            <coordinates>-77.200179,40.580237,29000</coordinates>
          </Point>
        </Placemark>
        <Placemark>
          <name>WILDC65 (AS3B)</name>
          <description>Branch: &#xA;Altitude: -175 ft&#xA;Speed: 10.1 kts&#xA;Heading: 5.7&#xA;Mission: </description>
          <Point>
            <coordinates>4.927814,51.568451,-175</coordinates>
          </Point>
        </Placemark>
        <Placemark>
          <name>CEF527 (A319)</name>
          <description>Branch: &#xA;Altitude: 37000 ft&#xA;Speed: 458.9 kts&#xA;Heading: 154.2&#xA;Mission: </description>
          <Point>
            <coordinates>23.129989,44.012833,37000</coordinates>
          </Point>
        </Placemark>
        <Placemark>
          <name>MAKO10 (H60)</name>
          <description>Branch: &#xA;Altitude: 5175 ft&#xA;Speed: 137.2 kts&#xA;Heading: 198.7&#xA;Mission: </description>
          <Point>
            <coordinates>-120.320091,35.18353,5175</coordinates>
          </Point>
        </Placemark>
        <Placemark>
          <name>SMALL61 (TEX2)</name>
          <description>Branch: &#xA;Altitude: 5975 ft&#xA;Speed: 255.9 kts&#xA;Heading: 175.1&#xA;Mission: </description>
          <Point>
            <coordinates>-100.409282,29.464233,5975</coordinates>
          </Point>
        </Placemark>
        <Placemark>
          <name>PLAYER1 (T38)</name>
          <description>Branch: &#xA;Altitude: 6875 ft&#xA;Speed: 304.0 kts&#xA;Heading: 180.0&#xA;Mission: </description>
          <Point>
            <coordinates>-98.50668,34.336186,6875</coordinates>
          </Point>
        </Placemark>
        <Placemark>
          <name>SMURF2 (T38)</name>
          <description>Branch: &#xA;Altitude: 7225 ft&#xA;Speed: 335.5 kts&#xA;Heading: 275.5&#xA;Mission: </description>
          <Point>
            <coordinates>-97.872866,29.418594,7225</coordinates>
          </Point>
        </Placemark>
        <Placemark>
          <name>BOMR822 (TEX2)</name>
          <description>Branch: &#xA;Altitude: 1950 ft&#xA;Speed: 147.0 kts&#xA;Heading: 100.2&#xA;Mission: </description>
          <Point>
            <coordinates>-97.642151,27.887304,1950</coordinates>
          </Point>
        </Placemark>
        <Placemark>
          <name>KATT45 (TEX2)</name>
          <description>Branch: &#xA;Altitude: 1225 ft&#xA;Speed: 114.9 kts&#xA;Heading: 68.6&#xA;Mission: </description>
          <Point>
            <coordinates>-87.439593,30.313019,1225</coordinates>
          </Point>
        </Placemark>
        <Placemark>
          <name>WEIRD13 (EC45)</name>
          <description>Branch: &#xA;Altitude: 650 ft&#xA;Speed: 64.0 kts&#xA;Heading: 158.5&#xA;Mission: </description>
          <Point>
            <coordinates>-85.722926,31.139557,650</coordinates>
          </Point>
        </Placemark>
        <Placemark>
          <name>WARLOK8 (DHC6)</name>
          <description>Branch: &#xA;Altitude: 1975 ft&#xA;Speed: 135.8 kts&#xA;Heading: 225.6&#xA;Mission: </description>
          <Point>
            <coordinates>-76.299452,38.417084,1975</coordinates>
          </Point>
        </Placemark>
        <Placemark>
          <name>R08478 (H47)</name>
          <description>Branch: &#xA;Altitude: 1550 ft&#xA;Speed: 103.2 kts&#xA;Heading: 86.7&#xA;Mission: </description>
          <Point>
            <coordinates>-117.155292,32.854065,1550</coordinates>
          </Point>
        </Placemark>
        <Placemark>
          <name>SCRCH54 (V22)</name>
          <description>Branch: &#xA;Altitude: 9500 ft&#xA;Speed: 255.4 kts&#xA;Heading: 40.2&#xA;Mission: </description>
          <Point>
            <coordinates>-116.740558,32.974686,9500</coordinates>
          </Point>
        </Placemark>
        <Placemark>
          <name>BOXER04 (TEX2)</name>
          <description>Branch: &#xA;Altitude: 2025 ft&#xA;Speed: 201.4 kts&#xA;Heading: 96.8&#xA;Mission: </description>
          <Point>
            <coordinates>-100.828928,29.387558,2025</coordinates>
          </Point>
        </Placemark>
        <Placemark>
          <name>DEVIL26 (TEX2)</name>
          <description>Branch: &#xA;Altitude: 16175 ft&#xA;Speed: 305.7 kts&#xA;Heading: 114.1&#xA;Mission: </description>
          <Point>
            <coordinates>-100.22084,28.943807,16175</coordinates>
          </Point>
        </Placemark>
        <Placemark>
          <name>WEIRD23 (EC45)</name>
          <description>Branch: &#xA;Altitude: 550 ft&#xA;Speed: 81.0 kts&#xA;Heading: 347.1&#xA;Mission: </description>
          <Point>
            <coordinates>-85.762192,31.138559,550</coordinates>
          </Point>
        </Placemark>
        <Placemark>
          <name>PAT269 (BE20)</name>
          <description>Branch: &#xA;Altitude: 23000 ft&#xA;Speed: 246.6 kts&#xA;Heading: 4.0&#xA;Mission: </description>
          <Point>
            <coordinates>-84.721008,41.205963,23000</coordinates>
          </Point>
        </Placemark>
        <Placemark>
          <name>RCH190 (C17)</name>
          <description>Branch: &#xA;Altitude: 32000 ft&#xA;Speed: 461.0 kts&#xA;Heading: 297.0&#xA;Mission: </description>
          <Point>
            <coordinates>-3.173311,46.47122,32000</coordinates>
          </Point>
        </Placemark>
        <Placemark>
          <name>R72106 (EC45)</name>
          <description>Branch: &#xA;Altitude: 2650 ft&#xA;Speed: 94.0 kts&#xA;Heading: 350.4&#xA;Mission: </description>
          <Point>
            <coordinates>11.968863,49.484703,2650</coordinates>
          </Point>
        </Placemark>
        <Placemark>
          <name>1200 (T34T)</name>
          <description>Branch: &#xA;Altitude: 9200 ft&#xA;Speed: 207.5 kts&#xA;Heading: 47.9&#xA;Mission: </description>
          <Point>
            <coordinates>-116.597736,32.96727,9200</coordinates>
          </Point>
        </Placemark>
        <Placemark>
          <name>TETON38 (C130)</name>
          <description>Branch: &#xA;Altitude: 8200 ft&#xA;Speed: 203.4 kts&#xA;Heading: 131.2&#xA;Mission: </description>
          <Point>
            <coordinates>-104.671118,41.111026,8200</coordinates>
          </Point>
        </Placemark>
        <Placemark>
          <name>BALL21 (TEX2)</name>
          <description>Branch: &#xA;Altitude: 10650 ft&#xA;Speed: 185.2 kts&#xA;Heading: 353.5&#xA;Mission: </description>
          <Point>
            <coordinates>-98.027383,36.73074,10650</coordinates>
          </Point>
        </Placemark>
        <Placemark>
          <name>R40033 (H64)</name>
          <description>Branch: &#xA;Altitude: 1400 ft&#xA;Speed: 119.4 kts&#xA;Heading: 242.6&#xA;Mission: </description>
          <Point>
            <coordinates>-97.543982,31.121568,1400</coordinates>
          </Point>
        </Placemark>
        <Placemark>
          <name>PAT423 (BE20)</name>
          <description>Branch: &#xA;Altitude: 13200 ft&#xA;Speed: 242.1 kts&#xA;Heading: 294.7&#xA;Mission: </description>
          <Point>
            <coordinates>-84.725511,37.460037,13200</coordinates>
          </Point>
        </Placemark>
        <Placemark>
          <name>TUAF807 (A400)</name>
          <description>Branch: &#xA;Altitude: 15675 ft&#xA;Speed: 300.0 kts&#xA;Heading: 115.5&#xA;Mission: </description>
          <Point>
            <coordinates>0,0,15675</coordinates>
          </Point>
        </Placemark>
        <Placemark>
          <name> (V22)</name>
          <description>Branch: &#xA;Altitude: 5675 ft&#xA;Speed: 0.0 kts&#xA;Heading: 0.0&#xA;Mission: </description>
          <Point>
            <coordinates>0,0,5675</coordinates>
          </Point>
        </Placemark>
        <Placemark>
          <name>TEST1234 ()</name>
          <description>Branch: &#xA;Altitude: 0 ft&#xA;Speed: 0.0 kts&#xA;Heading: 0.0&#xA;Mission: </description>
          <Point>
            <coordinates>0,0,0</coordinates>
          </Point>
        </Placemark>
        <Placemark>
          <name>LS30 (H60)</name>
          <description>Branch: &#xA;Altitude: 0 ft&#xA;Speed: 8.2 kts&#xA;Heading: 0.0&#xA;Mission: </description>
          <Point>
            <coordinates>-117.205315,32.71341,0</coordinates>
          </Point>
        </Placemark>
        <Placemark>
          <name>BGST312 (BE20)</name>
          <description>Branch: &#xA;Altitude: 20000 ft&#xA;Speed: 278.4 kts&#xA;Heading: 249.6&#xA;Mission: </description>
          <Point>
            <coordinates>-94.06031,29.762335,20000</coordinates>
          </Point>
        </Placemark>
        <Placemark>
          <name>BELLS31 (EC45)</name>
          <description>Branch: &#xA;Altitude: 1700 ft&#xA;Speed: 93.6 kts&#xA;Heading: 193.6&#xA;Mission: </description>
          <Point>
            <coordinates>-85.564162,31.449097,1700</coordinates>
          </Point>
        </Placemark>
        <Placemark>
          <name>PAT171 (BE20)</name>
          <description>Branch: &#xA;Altitude: 20000 ft&#xA;Speed: 236.7 kts&#xA;Heading: 193.7&#xA;Mission: </description>
          <Point>
            <coordinates>-79.683437,34.141551,20000</coordinates>
          </Point>
        </Placemark>
        <Placemark>
          <name>TEST1234 (TWR)</name>
          <description>Branch: &#xA;Altitude: 0 ft&#xA;Speed: 0.0 kts&#xA;Heading: 0.0&#xA;Mission: </description>
          <Point>
            <coordinates>0,0,0</coordinates>
          </Point>
        </Placemark>
        <Placemark>
          <name>GEIV03 (E550)</name>
          <description>Branch: &#xA;Altitude: 0 ft&#xA;Speed: 146.7 kts&#xA;Heading: 14.6&#xA;Mission: </description>
          <Point>
            <coordinates>0,0,0</coordinates>
          </Point>
        </Placemark>
        <Placemark>
          <name>SGE62 (R66)</name>
          <description>Branch: &#xA;Altitude: 650 ft&#xA;Speed: 77.5 kts&#xA;Heading: 39.2&#xA;Mission: </description>
          <Point>
            <coordinates>-84.773639,30.896813,650</coordinates>
          </Point>
        </Placemark>
        <Placemark>
          <name>NORTH48 (BE20)</name>
          <description>Branch: &#xA;Altitude: 1850 ft&#xA;Speed: 166.0 kts&#xA;Heading: 238.8&#xA;Mission: </description>
          <Point>
            <coordinates>-151.399109,59.601974,1850</coordinates>
          </Point>
        </Placemark>
        <Placemark>
          <name>AVLON43 (B737)</name>
          <description>Branch: &#xA;Altitude: 35000 ft&#xA;Speed: 448.2 kts&#xA;Heading: 8.7&#xA;Mission: </description>
          <Point>
            <coordinates>-92.364864,33.693346,35000</coordinates>
          </Point>
        </Placemark>
        <Placemark>
          <name>RCH713 (K35R)</name>
          <description>Branch: &#xA;Altitude: 31000 ft&#xA;Speed: 510.0 kts&#xA;Heading: 63.0&#xA;Mission: </description>
          <Point>
            <coordinates>-88.427749,42.203837,31000</coordinates>
          </Point>
        </Placemark>
        <Placemark>
          <name>VV7E012Z ()</name>
          <description>Branch: &#xA;Altitude: 250 ft&#xA;Speed: 109.0 kts&#xA;Heading: 73.3&#xA;Mission: </description>
          <Point>
            <coordinates>-87.571693,30.269894,250</coordinates>
          </Point>
        </Placemark>
        <Placemark>
          <name>TEST1234 (TWR)</name>
          <description>Branch: &#xA;Altitude: 0 ft&#xA;Speed: 0.0 kts&#xA;Heading: 0.0&#xA;Mission: </description>
          <Point>
            <coordinates>0,0,0</coordinates>
          </Point>
        </Placemark>
        <Placemark>
          <name> (CN35)</name>
          <description>Branch: &#xA;Altitude: 825 ft&#xA;Speed: 0.0 kts&#xA;Heading: 0.0&#xA;Mission: </description>
          <Point>
            <coordinates>0,0,825</coordinates>
          </Point>
        </Placemark>
        <Placemark>
          <name>SHF470 (H47)</name>
          <description>Branch: &#xA;Altitude: 875 ft&#xA;Speed: 77.0 kts&#xA;Heading: 217.0&#xA;Mission: </description>
          <Point>
            <coordinates>-0.186486,51.466031,875</coordinates>
          </Point>
        </Placemark>
        <Placemark>
          <name>KIW501 (C30J)</name>
          <description>Branch: &#xA;Altitude: 22000 ft&#xA;Speed: 251.7 kts&#xA;Heading: 173.4&#xA;Mission: </description>
          <Point>
            <coordinates>175.371521,-38.513597,22000</coordinates>
          </Point>
        </Placemark>
        <Placemark>
          <name> ()</name>
          <description>Branch: &#xA;Altitude: 0 ft&#xA;Speed: 0.0 kts&#xA;Heading: 0.0&#xA;Mission: </description>
          <Point>
            <coordinates>0,0,0</coordinates>
          </Point>
        </Placemark>
        <Placemark>
          <name>TIGER53 (TEX2)</name>
          <description>Branch: &#xA;Altitude: 15550 ft&#xA;Speed: 207.3 kts&#xA;Heading: 93.3&#xA;Mission: </description>
          <Point>
            <coordinates>-100.302429,28.759415,15550</coordinates>
          </Point>
        </Placemark>
        <Placemark>
          <name>CASH21 (TEX2)</name>
          <description>Branch: &#xA;Altitude: 9325 ft&#xA;Speed: 216.3 kts&#xA;Heading: 209.7&#xA;Mission: </description>
          <Point>
            <coordinates>-99.940409,29.207886,9325</coordinates>
          </Point>
        </Placemark>
        <Placemark>
          <name>REAPR09 (F5)</name>
          <description>Branch: &#xA;Altitude: 9575 ft&#xA;Speed: 370.0 kts&#xA;Heading: 293.2&#xA;Mission: </description>
          <Point>
            <coordinates>-81.613916,31.699839,9575</coordinates>
          </Point>
        </Placemark>
        <Placemark>
          <name>PAT175 (BE20)</name>
          <description>Branch: &#xA;Altitude: 12900 ft&#xA;Speed: 223.2 kts&#xA;Heading: 26.9&#xA;Mission: </description>
          <Point>
            <coordinates>-98.57821,29.742233,12900</coordinates>
          </Point>
        </Placemark>
        <Placemark>
          <name>EVIL16 (TEX2)</name>
          <description>Branch: &#xA;Altitude: 11075 ft&#xA;Speed: 172.7 kts&#xA;Heading: 207.6&#xA;Mission: </description>
          <Point>
            <coordinates>-97.97699,36.34726,11075</coordinates>
          </Point>
        </Placemark>
        <Placemark>
          <name>DRAGN25 (TEX2)</name>
          <description>Branch: &#xA;Altitude: 5425 ft&#xA;Speed: 213.0 kts&#xA;Heading: 180.5&#xA;Mission: </description>
          <Point>
            <coordinates>-97.586936,36.40236,5425</coordinates>
          </Point>
        </Placemark>
        <Placemark>
          <name>TIDE99 (H60)</name>
          <description>Branch: &#xA;Altitude: 525 ft&#xA;Speed: 100.0 kts&#xA;Heading: 286.3&#xA;Mission: </description>
          <Point>
            <coordinates>-88.225977,30.705917,525</coordinates>
          </Point>
        </Placemark>
        <Placemark>
          <name>CEF624 (C295)</name>
          <description>Branch: &#xA;Altitude: 21000 ft&#xA;Speed: 226.3 kts&#xA;Heading: 130.5&#xA;Mission: </description>
          <Point>
            <coordinates>18.049576,48.108444,21000</coordinates>
          </Point>
        </Placemark>
        <Placemark>
          <name> (A119)</name>
          <description>Branch: &#xA;Altitude: 400 ft&#xA;Speed: 89.0 kts&#xA;Heading: 195.0&#xA;Mission: </description>
          <Point>
            <coordinates>0,0,400</coordinates>
          </Point>
        </Placemark>
        <Placemark>
          <name>SH070 (TEX2)</name>
          <description>Branch: &#xA;Altitude: 3825 ft&#xA;Speed: 160.3 kts&#xA;Heading: 104.8&#xA;Mission: </description>
          <Point>
            <coordinates>-89.479907,30.673921,3825</coordinates>
          </Point>
        </Placemark>
        <Placemark>
          <name>JIMMY45 (TEX2)</name>
          <description>Branch: &#xA;Altitude: 20300 ft&#xA;Speed: 24.8 kts&#xA;Heading: 229.9&#xA;Mission: </description>
          <Point>
            <coordinates>-88.11579,33.321854,20300</coordinates>
          </Point>
        </Placemark>
        <Placemark>
          <name> ()</name>
          <description>Branch: &#xA;Altitude: 28000 ft&#xA;Speed: 346.0 kts&#xA;Heading: 181.0&#xA;Mission: </description>
          <Point>
            <coordinates>-79.9865,35.57433,28000</coordinates>
          </Point>
        </Placemark>
        <Placemark>
          <name> ()</name>
          <description>Branch: &#xA;Altitude: 0 ft&#xA;Speed: 0.0 kts&#xA;Heading: 0.0&#xA;Mission: </description>
          <Point>
            <coordinates>0,0,0</coordinates>
          </Point>
        </Placemark>
        <Placemark>
          <name> (B762)</name>
          <description>Branch: &#xA;Altitude: 25000 ft&#xA;Speed: 0.0 kts&#xA;Heading: 0.0&#xA;Mission: </description>
          <Point>
            <coordinates>0,0,25000</coordinates>
          </Point>
        </Placemark>
        <Placemark>
          <name>BGST344 (BE20)</name>
          <description>Branch: &#xA;Altitude: 9900 ft&#xA;Speed: 185.3 kts&#xA;Heading: 198.2&#xA;Mission: </description>
          <Point>
            <coordinates>-96.395142,30.32436,9900</coordinates>
          </Point>
        </Placemark>
        <Placemark>
          <name>VV1E037 (A119)</name>
          <description>Branch: &#xA;Altitude: 1825 ft&#xA;Speed: 87.0 kts&#xA;Heading: 45.8&#xA;Mission: </description>
          <Point>
            <coordinates>-87.348999,30.902306,1825</coordinates>
          </Point>
        </Placemark>
        <Placemark>
          <name>CAPE67 (H60)</name>
          <description>Branch: &#xA;Altitude: 875 ft&#xA;Speed: 109.0 kts&#xA;Heading: 355.8&#xA;Mission: </description>
          <Point>
            <coordinates>-86.025856,31.276291,875</coordinates>
          </Point>
        </Placemark>
        <Placemark>
          <name>TEST1234 ()</name>
          <description>Branch: &#xA;Altitude: 0 ft&#xA;Speed: 0.0 kts&#xA;Heading: 0.0&#xA;Mission: </description>
          <Point>
            <coordinates>0,0,0</coordinates>
          </Point>
        </Placemark>
        <Placemark>
          <name>APACHE2 (H64)</name>
          <description>Branch: &#xA;Altitude: -200 ft&#xA;Speed: 4.1 kts&#xA;Heading: 180.0&#xA;Mission: </description>
          <Point>
            <coordinates>4.926834,51.56866,-200</coordinates>
          </Point>
        </Placemark>
        <Placemark>
          <name>SHARK68 (SR20)</name>
          <description>Branch: &#xA;Altitude: 0 ft&#xA;Speed: 4.2 kts&#xA;Heading: 0.0&#xA;Mission: </description>
          <Point>
            <coordinates>-104.81427,38.972719,0</coordinates>
          </Point>
        </Placemark>
        <Placemark>
          <name>BLZR267 ()</name>
          <description>Branch: &#xA;Altitude: 15950 ft&#xA;Speed: 0.0 kts&#xA;Heading: 0.0&#xA;Mission: </description>
          <Point>
            <coordinates>0,0,15950</coordinates>
          </Point>
        </Placemark>
        <Placemark>
          <name>HOOK43 (TEX2)</name>
          <description>Branch: &#xA;Altitude: 9875 ft&#xA;Speed: 239.6 kts&#xA;Heading: 156.6&#xA;Mission: </description>
          <Point>
            <coordinates>-97.81835,35.558415,9875</coordinates>
          </Point>
        </Placemark>
        <Placemark>
          <name>EVIL81 (TEX2)</name>
          <description>Branch: &#xA;Altitude: 18275 ft&#xA;Speed: 321.3 kts&#xA;Heading: 59.9&#xA;Mission: </description>
          <Point>
            <coordinates>-97.570515,36.673201,18275</coordinates>
          </Point>
        </Placemark>
        <Placemark>
          <name>RAIDR71 (C30J)</name>
          <description>Branch: &#xA;Altitude: 21000 ft&#xA;Speed: 340.3 kts&#xA;Heading: 107.8&#xA;Mission: </description>
          <Point>
            <coordinates>-97.004485,35.338502,21000</coordinates>
          </Point>
        </Placemark>
        <Placemark>
          <name>GRINCH9 (TEX2)</name>
          <description>Branch: &#xA;Altitude: 9600 ft&#xA;Speed: 103.0 kts&#xA;Heading: 179.4&#xA;Mission: </description>
          <Point>
            <coordinates>-88.083502,33.332706,9600</coordinates>
          </Point>
        </Placemark>
        <Placemark>
          <name>VV7E642 (A119)</name>
          <description>Branch: &#xA;Altitude: 200 ft&#xA;Speed: 63.0 kts&#xA;Heading: 203.0&#xA;Mission: </description>
          <Point>
            <coordinates>-87.142014,30.631466,200</coordinates>
          </Point>
        </Placemark>
        <Placemark>
          <name>G21188 (H60)</name>
          <description>Branch: &#xA;Altitude: 1400 ft&#xA;Speed: 101.0 kts&#xA;Heading: 253.9&#xA;Mission: </description>
          <Point>
            <coordinates>-72.73717,40.761652,1400</coordinates>
          </Point>
        </Placemark>
        <Placemark>
          <name>RUDY24 (V22)</name>
          <description>Branch: &#xA;Altitude: 7750 ft&#xA;Speed: 187.0 kts&#xA;Heading: 322.8&#xA;Mission: </description>
          <Point>
            <coordinates>-117.46571,32.767731,7750</coordinates>
          </Point>
        </Placemark>
        <Placemark>
          <name>JAGGED1 (T38)</name>
          <description>Branch: &#xA;Altitude: 2575 ft&#xA;Speed: 314.4 kts&#xA;Heading: 149.2&#xA;Mission: </description>
          <Point>
            <coordinates>-98.279413,29.550568,2575</coordinates>
          </Point>
        </Placemark>
        <Placemark>
          <name>GOONY40 (C30J)</name>
          <description>Branch: &#xA;Altitude: 1000 ft&#xA;Speed: 171.7 kts&#xA;Heading: 71.7&#xA;Mission: </description>
          <Point>
            <coordinates>-92.11442,34.92627,1000</coordinates>
          </Point>
        </Placemark>
        <Placemark>
          <name>WING23 (C560)</name>
          <description>Branch: &#xA;Altitude: 39000 ft&#xA;Speed: 482.4 kts&#xA;Heading: 83.2&#xA;Mission: </description>
          <Point>
            <coordinates>-90.217468,39.79141,39000</coordinates>
          </Point>
        </Placemark>
        <Placemark>
          <name>RISKY37 (TEX2)</name>
          <description>Branch: &#xA;Altitude: 19900 ft&#xA;Speed: 273.5 kts&#xA;Heading: 68.8&#xA;Mission: </description>
          <Point>
            <coordinates>-88.204779,33.23172,19900</coordinates>
          </Point>
        </Placemark>
        <Placemark>
          <name>CFC3629 (C17)</name>
          <description>Branch: &#xA;Altitude: 32825 ft&#xA;Speed: 455.3 kts&#xA;Heading: 320.4&#xA;Mission: </description>
          <Point>
            <coordinates>-2.530434,54.287963,32825</coordinates>
          </Point>
        </Placemark>
        <Placemark>
          <name> (K35R)</name>
          <description>Branch: &#xA;Altitude: 35000 ft&#xA;Speed: 578.0 kts&#xA;Heading: 96.9&#xA;Mission: </description>
          <Point>
            <coordinates>0,0,35000</coordinates>
          </Point>
        </Placemark>
        <Placemark>
          <name> ()</name>
          <description>Branch: &#xA;Altitude: 0 ft&#xA;Speed: 0.0 kts&#xA;Heading: 0.0&#xA;Mission: </description>
          <Point>
            <coordinates>0,0,0</coordinates>
          </Point>
        </Placemark>
        <Placemark>
          <name>VKIN14 (TEX2)</name>
          <description>Branch: &#xA;Altitude: 12125 ft&#xA;Speed: 280.0 kts&#xA;Heading: 179.8&#xA;Mission: </description>
          <Point>
            <coordinates>-105.574277,50.00679,12125</coordinates>
          </Point>
        </Placemark>
        <Placemark>
          <name>RUSTY12 (TEX2)</name>
          <description>Branch: &#xA;Altitude: 10025 ft&#xA;Speed: 200.0 kts&#xA;Heading: 247.7&#xA;Mission: </description>
          <Point>
            <coordinates>-87.93479,33.228516,10025</coordinates>
          </Point>
        </Placemark>
        <Placemark>
          <name>FOXX373 (BE20)</name>
          <description>Branch: &#xA;Altitude: 6375 ft&#xA;Speed: 266.2 kts&#xA;Heading: 67.0&#xA;Mission: </description>
          <Point>
            <coordinates>-75.884216,38.740865,6375</coordinates>
          </Point>
        </Placemark>
        <Placemark>
          <name>RCH199 (C17)</name>
          <description>Branch: &#xA;Altitude: 30000 ft&#xA;Speed: 0.0 kts&#xA;Heading: 0.0&#xA;Mission: </description>
          <Point>
            <coordinates>0,0,30000</coordinates>
          </Point>
        </Placemark>
        <Placemark>
          <name>WEIRD86 (EC45)</name>
          <description>Branch: &#xA;Altitude: 0 ft&#xA;Speed: 0.0 kts&#xA;Heading: 0.0&#xA;Mission: </description>
          <Point>
            <coordinates>0,0,0</coordinates>
          </Point>
        </Placemark>
        <Placemark>
          <name>HOBO61 (AT8T)</name>
          <description>Branch: &#xA;Altitude: 4050 ft&#xA;Speed: 113.5 kts&#xA;Heading: 310.7&#xA;Mission: </description>
          <Point>
            <coordinates>-98.022194,35.141539,4050</coordinates>
          </Point>
        </Placemark>
        <Placemark>
          <name>SGE61 (R66)</name>
          <description>Branch: &#xA;Altitude: 1325 ft&#xA;Speed: 93.9 kts&#xA;Heading: 115.2&#xA;Mission: </description>
          <Point>
            <coordinates>-85.051521,30.958603,1325</coordinates>
          </Point>
        </Placemark>
        <Placemark>
          <name>BLZR222 (HAWK)</name>
          <description>Branch: &#xA;Altitude: 0 ft&#xA;Speed: 306.3 kts&#xA;Heading: 324.7&#xA;Mission: </description>
          <Point>
            <coordinates>-98.236947,27.929853,0</coordinates>
          </Point>
        </Placemark>
        <Placemark>
          <name>BB141 (TEX2)</name>
          <description>Branch: &#xA;Altitude: 2800 ft&#xA;Speed: 217.5 kts&#xA;Heading: 65.6&#xA;Mission: </description>
          <Point>
            <coordinates>-88.882141,30.311783,2800</coordinates>
          </Point>
        </Placemark>
        <Placemark>
          <name>R20764 (H60)</name>
          <description>Branch: &#xA;Altitude: 4775 ft&#xA;Speed: 120.2 kts&#xA;Heading: 357.1&#xA;Mission: </description>
          <Point>
            <coordinates>-87.472547,37.021505,4775</coordinates>
          </Point>
        </Placemark>
        <Placemark>
          <name>EVAL29 (H60)</name>
          <description>Branch: &#xA;Altitude: 1750 ft&#xA;Speed: 109.7 kts&#xA;Heading: 316.9&#xA;Mission: </description>
          <Point>
            <coordinates>-86.355734,34.463287,1750</coordinates>
          </Point>
        </Placemark>
        <Placemark>
          <name>MORPH77 (EC45)</name>
          <description>Branch: &#xA;Altitude: 600 ft&#xA;Speed: 66.0 kts&#xA;Heading: 25.7&#xA;Mission: </description>
          <Point>
            <coordinates>-85.672928,31.231478,600</coordinates>
          </Point>
        </Placemark>
        <Placemark>
          <name>PAT104 (C560)</name>
          <description>Branch: &#xA;Altitude: 7575 ft&#xA;Speed: 268.3 kts&#xA;Heading: 9.0&#xA;Mission: </description>
          <Point>
            <coordinates>-77.235172,37.914551,7575</coordinates>
          </Point>
        </Placemark>
        <Placemark>
          <name> ()</name>
          <description>Branch: &#xA;Altitude: 0 ft&#xA;Speed: 0.0 kts&#xA;Heading: 0.0&#xA;Mission: </description>
          <Point>
            <coordinates>0,0,0</coordinates>
          </Point>
        </Placemark>
        <Placemark>
          <name> (C30J)</name>
          <description>Branch: &#xA;Altitude: 1725 ft&#xA;Speed: 0.0 kts&#xA;Heading: 0.0&#xA;Mission: </description>
          <Point>
            <coordinates>0,0,1725</coordinates>
          </Point>
        </Placemark>
        <Placemark>
          <name>MESSY21 (EC45)</name>
          <description>Branch: &#xA;Altitude: 700 ft&#xA;Speed: 72.0 kts&#xA;Heading: 322.3&#xA;Mission: </description>
          <Point>
            <coordinates>-85.550376,31.24173,700</coordinates>
          </Point>
        </Placemark>
        <Placemark>
          <name>ASY050 (E737)</name>
          <description>Branch: &#xA;Altitude: 21450 ft&#xA;Speed: 417.1 kts&#xA;Heading: 171.0&#xA;Mission: </description>
          <Point>
            <coordinates>-77.029766,40.96043,21450</coordinates>
          </Point>
        </Placemark>
        <Placemark>
          <name>CO96 (TUCA)</name>
          <description>Branch: &#xA;Altitude: 8250 ft&#xA;Speed: 141.9 kts&#xA;Heading: 310.4&#xA;Mission: </description>
          <Point>
            <coordinates>-45.770641,-23.273117,8250</coordinates>
          </Point>
        </Placemark>
        <Placemark>
          <name> (R135)</name>
          <description>Branch: &#xA;Altitude: 0 ft&#xA;Speed: 0.0 kts&#xA;Heading: 0.0&#xA;Mission: </description>
          <Point>
            <coordinates>0,0,0</coordinates>
          </Point>
        </Placemark>
        <Placemark>
          <name> (E145)</name>
          <description>Branch: &#xA;Altitude: 0 ft&#xA;Speed: 0.0 kts&#xA;Heading: 0.0&#xA;Mission: </description>
          <Point>
            <coordinates>0,0,0</coordinates>
          </Point>
        </Placemark>
        <Placemark>
          <name>R40036 (H64)</name>
          <description>Branch: &#xA;Altitude: 1300 ft&#xA;Speed: 115.8 kts&#xA;Heading: 196.6&#xA;Mission: </description>
          <Point>
            <coordinates>-97.541071,31.128457,1300</coordinates>
          </Point>
        </Placemark>
        <Placemark>
          <name>ASY405 (A332)</name>
          <description>Branch: &#xA;Altitude: 0 ft&#xA;Speed: 0.0 kts&#xA;Heading: 0.0&#xA;Mission: </description>
          <Point>
            <coordinates>-157.939653,21.328583,0</coordinates>
          </Point>
        </Placemark>
        <Placemark>
          <name>JOLLY91 (H60)</name>
          <description>Branch: &#xA;Altitude: 0 ft&#xA;Speed: 3.8 kts&#xA;Heading: 0.0&#xA;Mission: </description>
          <Point>
            <coordinates>-122.041261,37.410931,0</coordinates>
          </Point>
        </Placemark>
        <Placemark>
          <name>ASPEN21 (T38)</name>
          <description>Branch: &#xA;Altitude: 3700 ft&#xA;Speed: 328.5 kts&#xA;Heading: 157.3&#xA;Mission: </description>
          <Point>
            <coordinates>-120.680637,35.119055,3700</coordinates>
          </Point>
        </Placemark>
        <Placemark>
          <name>E10188 (C17)</name>
          <description>Branch: &#xA;Altitude: 21100 ft&#xA;Speed: 389.0 kts&#xA;Heading: 100.0&#xA;Mission: </description>
          <Point>
            <coordinates>-118.054608,33.327349,21100</coordinates>
          </Point>
        </Placemark>
        <Placemark>
          <name>SHARK51 (SR20)</name>
          <description>Branch: &#xA;Altitude: 0 ft&#xA;Speed: 0.0 kts&#xA;Heading: 0.0&#xA;Mission: </description>
          <Point>
            <coordinates>-104.814072,38.972579,0</coordinates>
          </Point>
        </Placemark>
        <Placemark>
          <name>SF1 (T38)</name>
          <description>Branch: &#xA;Altitude: 5500 ft&#xA;Speed: 331.1 kts&#xA;Heading: 284.2&#xA;Mission: </description>
          <Point>
            <coordinates>-97.917911,29.436702,5500</coordinates>
          </Point>
        </Placemark>
        <Placemark>
          <name>GTMO845 (BE20)</name>
          <description>Branch: &#xA;Altitude: 22525 ft&#xA;Speed: 218.5 kts&#xA;Heading: 134.8&#xA;Mission: </description>
          <Point>
            <coordinates>-78.835144,25.698029,22525</coordinates>
          </Point>
        </Placemark>
        <Placemark>
          <name>VV1E041Z (A119)</name>
          <description>Branch: &#xA;Altitude: 425 ft&#xA;Speed: 114.1 kts&#xA;Heading: 357.5&#xA;Mission: </description>
          <Point>
            <coordinates>-87.056104,30.623784,425</coordinates>
          </Point>
        </Placemark>
        <Placemark>
          <name>JEDDA43 (TEX2)</name>
          <description>Branch: &#xA;Altitude: 2075 ft&#xA;Speed: 174.7 kts&#xA;Heading: 236.7&#xA;Mission: </description>
          <Point>
            <coordinates>-100.788036,29.346903,2075</coordinates>
          </Point>
        </Placemark>
        <Placemark>
          <name>CO77 (TUCA)</name>
          <description>Branch: &#xA;Altitude: 3575 ft&#xA;Speed: 140.2 kts&#xA;Heading: 110.9&#xA;Mission: </description>
          <Point>
            <coordinates>-47.896495,-21.898727,3575</coordinates>
          </Point>
        </Placemark>
        <Placemark>
          <name>TUNAV01 (AT76)</name>
          <description>Branch: &#xA;Altitude: 5200 ft&#xA;Speed: 178.3 kts&#xA;Heading: 326.7&#xA;Mission: </description>
          <Point>
            <coordinates>16.35461,36.673201,5200</coordinates>
          </Point>
        </Placemark>
        <Placemark>
          <name>CHAOS81 (B762)</name>
          <description>Branch: &#xA;Altitude: 24050 ft&#xA;Speed: 0.0 kts&#xA;Heading: 0.0&#xA;Mission: </description>
          <Point>
            <coordinates>0,0,24050</coordinates>
          </Point>
        </Placemark>
        <Placemark>
          <name> (K35R)</name>
          <description>Branch: &#xA;Altitude: 33975 ft&#xA;Speed: 0.0 kts&#xA;Heading: 0.0&#xA;Mission: </description>
          <Point>
            <coordinates>0,0,33975</coordinates>
          </Point>
        </Placemark>
        <Placemark>
          <name>RRR9961 (A332)</name>
          <description>Branch: &#xA;Altitude: 26000 ft&#xA;Speed: 0.0 kts&#xA;Heading: 0.0&#xA;Mission: </description>
          <Point>
            <coordinates>0,0,26000</coordinates>
          </Point>
        </Placemark>
        <Placemark>
          <name> (R135)</name>
          <description>Branch: &#xA;Altitude: 0 ft&#xA;Speed: 0.0 kts&#xA;Heading: 0.0&#xA;Mission: </description>
          <Point>
            <coordinates>0,0,0</coordinates>
          </Point>
        </Placemark>
        <Placemark>
          <name>C6531 (AS65)</name>
          <description>Branch: &#xA;Altitude: 825 ft&#xA;Speed: 108.7 kts&#xA;Heading: 129.4&#xA;Mission: </description>
          <Point>
            <coordinates>-122.086389,37.414261,825</coordinates>
          </Point>
        </Placemark>
        <Placemark>
          <name>JOLLY92 (H60)</name>
          <description>Branch: &#xA;Altitude: 400 ft&#xA;Speed: 81.9 kts&#xA;Heading: 154.7&#xA;Mission: </description>
          <Point>
            <coordinates>-122.039756,37.422867,400</coordinates>
          </Point>
        </Placemark>
        <Placemark>
          <name>MNTNA71 (BE9L)</name>
          <description>Branch: &#xA;Altitude: 1200 ft&#xA;Speed: 116.0 kts&#xA;Heading: 179.5&#xA;Mission: </description>
          <Point>
            <coordinates>-97.657989,26.301636,1200</coordinates>
          </Point>
        </Placemark>
        <Placemark>
          <name>MORPH35 (EC45)</name>
          <description>Branch: &#xA;Altitude: 350 ft&#xA;Speed: 33.0 kts&#xA;Heading: 119.8&#xA;Mission: </description>
          <Point>
            <coordinates>-85.655502,31.232941,350</coordinates>
          </Point>
        </Placemark>
        <Placemark>
          <name>BAF72 (FA7X)</name>
          <description>Branch: &#xA;Altitude: 40000 ft&#xA;Speed: 476.0 kts&#xA;Heading: 46.1&#xA;Mission: </description>
          <Point>
            <coordinates>-4.039887,45.859497,40000</coordinates>
          </Point>
        </Placemark>
        <Placemark>
          <name>COVET15 (H64)</name>
          <description>Branch: &#xA;Altitude: 900 ft&#xA;Speed: 51.2 kts&#xA;Heading: 94.5&#xA;Mission: </description>
          <Point>
            <coordinates>9.968286,49.93959,900</coordinates>
          </Point>
        </Placemark>
        <Placemark>
          <name>DRAG75P (EC45)</name>
          <description>Branch: &#xA;Altitude: 250 ft&#xA;Speed: 0.0 kts&#xA;Heading: 0.0&#xA;Mission: </description>
          <Point>
            <coordinates>0,0,250</coordinates>
          </Point>
        </Placemark>
        <Placemark>
          <name>R07475 (H47)</name>
          <description>Branch: &#xA;Altitude: 0 ft&#xA;Speed: 77.0 kts&#xA;Heading: 240.4&#xA;Mission: </description>
          <Point>
            <coordinates>0,0,0</coordinates>
          </Point>
        </Placemark>
        <Placemark>
          <name>PAT245 (BE20)</name>
          <description>Branch: &#xA;Altitude: 25000 ft&#xA;Speed: 317.7 kts&#xA;Heading: 73.7&#xA;Mission: </description>
          <Point>
            <coordinates>-87.782227,39.5053,25000</coordinates>
          </Point>
        </Placemark>
        <Placemark>
          <name>R20790 (H60)</name>
          <description>Branch: &#xA;Altitude: 675 ft&#xA;Speed: 92.4 kts&#xA;Heading: 185.6&#xA;Mission: </description>
          <Point>
            <coordinates>-87.497338,36.686329,675</coordinates>
          </Point>
        </Placemark>
        <Placemark>
          <name>VV8E734 (A119)</name>
          <description>Branch: &#xA;Altitude: 2675 ft&#xA;Speed: 112.6 kts&#xA;Heading: 37.8&#xA;Mission: </description>
          <Point>
            <coordinates>-86.024432,30.974835,2675</coordinates>
          </Point>
        </Placemark>
        <Placemark>
          <name>TOTES58 (EC45)</name>
          <description>Branch: &#xA;Altitude: 450 ft&#xA;Speed: 51.0 kts&#xA;Heading: 117.8&#xA;Mission: </description>
          <Point>
            <coordinates>-85.980728,31.393478,450</coordinates>
          </Point>
        </Placemark>
        <Placemark>
          <name>MESSY05 (EC45)</name>
          <description>Branch: &#xA;Altitude: 375 ft&#xA;Speed: 40.9 kts&#xA;Heading: 68.5&#xA;Mission: </description>
          <Point>
            <coordinates>-85.566101,31.227859,375</coordinates>
          </Point>
        </Placemark>
        <Placemark>
          <name>PAT841 (BE20)</name>
          <description>Branch: &#xA;Altitude: 26975 ft&#xA;Speed: 298.0 kts&#xA;Heading: 55.0&#xA;Mission: </description>
          <Point>
            <coordinates>-79.403687,38.947697,26975</coordinates>
          </Point>
        </Placemark>
        <Placemark>
          <name>WING14 (BE20)</name>
          <description>Branch: &#xA;Altitude: 3375 ft&#xA;Speed: 166.0 kts&#xA;Heading: 206.4&#xA;Mission: </description>
          <Point>
            <coordinates>-75.028646,39.350635,3375</coordinates>
          </Point>
        </Placemark>
        <Placemark>
          <name>TIGER56 (TEX2)</name>
          <description>Branch: &#xA;Altitude: 2000 ft&#xA;Speed: 195.9 kts&#xA;Heading: 122.1&#xA;Mission: </description>
          <Point>
            <coordinates>-100.811355,29.379955,2000</coordinates>
          </Point>
        </Placemark>
        <Placemark>
          <name>JAGGED3 (T38)</name>
          <description>Branch: &#xA;Altitude: 2450 ft&#xA;Speed: 246.9 kts&#xA;Heading: 332.0&#xA;Mission: </description>
          <Point>
            <coordinates>-98.255956,29.546333,2450</coordinates>
          </Point>
        </Placemark>
        <Placemark>
          <name>PAIN11 (BE40)</name>
          <description>Branch: &#xA;Altitude: 3350 ft&#xA;Speed: 200.3 kts&#xA;Heading: 357.1&#xA;Mission: </description>
          <Point>
            <coordinates>-95.893021,36.025223,3350</coordinates>
          </Point>
        </Placemark>
        <Placemark>
          <name> ()</name>
          <description>Branch: &#xA;Altitude: 30650 ft&#xA;Speed: 366.0 kts&#xA;Heading: 279.4&#xA;Mission: </description>
          <Point>
            <coordinates>-92.551025,32.089691,30650</coordinates>
          </Point>
        </Placemark>
        <Placemark>
          <name>WEIRD99 (EC45)</name>
          <description>Branch: &#xA;Altitude: 750 ft&#xA;Speed: 88.0 kts&#xA;Heading: 220.4&#xA;Mission: </description>
          <Point>
            <coordinates>-85.719317,31.178009,750</coordinates>
          </Point>
        </Placemark>
        <Placemark>
          <name>PNTHR77 (H64)</name>
          <description>Branch: &#xA;Altitude: 300 ft&#xA;Speed: 59.5 kts&#xA;Heading: 153.0&#xA;Mission: </description>
          <Point>
            <coordinates>-1.553229,51.141495,300</coordinates>
          </Point>
        </Placemark>
        <Placemark>
          <name> (EUFI)</name>
          <description>Branch: &#xA;Altitude: 1925 ft&#xA;Speed: 138.0 kts&#xA;Heading: 239.0&#xA;Mission: </description>
          <Point>
            <coordinates>0.081557,53.147111,1925</coordinates>
          </Point>
        </Placemark>
        <Placemark>
          <name>JAVAN45 (TEX2)</name>
          <description>Branch: &#xA;Altitude: 10775 ft&#xA;Speed: 256.6 kts&#xA;Heading: 56.9&#xA;Mission: </description>
          <Point>
            <coordinates>-98.22849,31.13855,10775</coordinates>
          </Point>
        </Placemark>
        <Placemark>
          <name>R20817 (H60)</name>
          <description>Branch: &#xA;Altitude: 1850 ft&#xA;Speed: 126.5 kts&#xA;Heading: 251.6&#xA;Mission: </description>
          <Point>
            <coordinates>-95.986395,32.927673,1850</coordinates>
          </Point>
        </Placemark>
        <Placemark>
          <name>TREK01 (C130)</name>
          <description>Branch: &#xA;Altitude: 24000 ft&#xA;Speed: 286.3 kts&#xA;Heading: 357.6&#xA;Mission: </description>
          <Point>
            <coordinates>-92.115498,34.116273,24000</coordinates>
          </Point>
        </Placemark>
        <Placemark>
          <name>RN065 (TEX2)</name>
          <description>Branch: &#xA;Altitude: 7300 ft&#xA;Speed: 231.9 kts&#xA;Heading: 125.0&#xA;Mission: </description>
          <Point>
            <coordinates>-86.420073,31.164917,7300</coordinates>
          </Point>
        </Placemark>
        <Placemark>
          <name>QUESO82 (C560)</name>
          <description>Branch: &#xA;Altitude: 36000 ft&#xA;Speed: 355.4 kts&#xA;Heading: 267.3&#xA;Mission: </description>
          <Point>
            <coordinates>-84.435649,33.794495,36000</coordinates>
          </Point>
        </Placemark>
        <Placemark>
          <name> (C30J)</name>
          <description>Branch: &#xA;Altitude: 9800 ft&#xA;Speed: 215.0 kts&#xA;Heading: 40.0&#xA;Mission: </description>
          <Point>
            <coordinates>-82.096541,27.89444,9800</coordinates>
          </Point>
        </Placemark>
        <Placemark>
          <name>STRKE41 (TEX2)</name>
          <description>Branch: &#xA;Altitude: 9775 ft&#xA;Speed: 201.6 kts&#xA;Heading: 44.0&#xA;Mission: </description>
          <Point>
            <coordinates>-100.187988,28.522277,9775</coordinates>
          </Point>
        </Placemark>
        <Placemark>
          <name>DEALS98 (EC45)</name>
          <description>Branch: &#xA;Altitude: 825 ft&#xA;Speed: 88.0 kts&#xA;Heading: 294.0&#xA;Mission: </description>
          <Point>
            <coordinates>-85.974747,31.371735,825</coordinates>
          </Point>
        </Placemark>
        <Placemark>
          <name> (K35R)</name>
          <description>Branch: &#xA;Altitude: 31000 ft&#xA;Speed: 545.0 kts&#xA;Heading: 84.0&#xA;Mission: </description>
          <Point>
            <coordinates>-78.45864,44.274362,31000</coordinates>
          </Point>
        </Placemark>
        <Placemark>
          <name>G20906 (H60)</name>
          <description>Branch: &#xA;Altitude: 1550 ft&#xA;Speed: 75.0 kts&#xA;Heading: 279.2&#xA;Mission: </description>
          <Point>
            <coordinates>-76.36377,40.705582,1550</coordinates>
          </Point>
        </Placemark>
        <Placemark>
          <name>PNTHR76 (H64)</name>
          <description>Branch: &#xA;Altitude: 600 ft&#xA;Speed: 90.8 kts&#xA;Heading: 198.6&#xA;Mission: </description>
          <Point>
            <coordinates>-1.538315,51.195032,600</coordinates>
          </Point>
        </Placemark>
        <Placemark>
          <name>TRIPLE41 (EUFI)</name>
          <description>Branch: &#xA;Altitude: 7000 ft&#xA;Speed: 351.0 kts&#xA;Heading: 135.0&#xA;Mission: </description>
          <Point>
            <coordinates>0.401164,53.277348,7000</coordinates>
          </Point>
        </Placemark>
        <Placemark>
          <name>TEST1234 ()</name>
          <description>Branch: &#xA;Altitude: 0 ft&#xA;Speed: 0.0 kts&#xA;Heading: 0.0&#xA;Mission: </description>
          <Point>
            <coordinates>0,0,0</coordinates>
          </Point>
        </Placemark>
        <Placemark>
          <name>BLADE11 (EN48)</name>
          <description>Branch: &#xA;Altitude: 300 ft&#xA;Speed: 10.7 kts&#xA;Heading: 138.8&#xA;Mission: </description>
          <Point>
            <coordinates>17.400175,49.422276,300</coordinates>
          </Point>
        </Placemark>
        <Placemark>
          <name>YERLINE (FA50)</name>
          <description>Branch: &#xA;Altitude: 3225 ft&#xA;Speed: 206.9 kts&#xA;Heading: 29.5&#xA;Mission: </description>
          <Point>
            <coordinates>-149.535972,-17.452515,3225</coordinates>
          </Point>
        </Placemark>
        <Placemark>
          <name> (P8)</name>
          <description>Branch: &#xA;Altitude: 35000 ft&#xA;Speed: 452.0 kts&#xA;Heading: 175.0&#xA;Mission: </description>
          <Point>
            <coordinates>-122.05543,45.850696,35000</coordinates>
          </Point>
        </Placemark>
        <Placemark>
          <name> ()</name>
          <description>Branch: &#xA;Altitude: 80000 ft&#xA;Speed: 0.0 kts&#xA;Heading: 0.0&#xA;Mission: </description>
          <Point>
            <coordinates>0,0,80000</coordinates>
          </Point>
        </Placemark>
        <Placemark>
          <name>COLT10 (G120)</name>
          <description>Branch: &#xA;Altitude: 1950 ft&#xA;Speed: 131.6 kts&#xA;Heading: 223.8&#xA;Mission: </description>
          <Point>
            <coordinates>-98.308989,49.901825,1950</coordinates>
          </Point>
        </Placemark>
        <Placemark>
          <name>MNTNA52 (BE9L)</name>
          <description>Branch: &#xA;Altitude: 4900 ft&#xA;Speed: 166.2 kts&#xA;Heading: 23.0&#xA;Mission: </description>
          <Point>
            <coordinates>-97.610303,27.025436,4900</coordinates>
          </Point>
        </Placemark>
        <Placemark>
          <name>BEARD2 (T38)</name>
          <description>Branch: &#xA;Altitude: 3850 ft&#xA;Speed: 320.0 kts&#xA;Heading: 267.9&#xA;Mission: </description>
          <Point>
            <coordinates>-88.349976,33.857895,3850</coordinates>
          </Point>
        </Placemark>
        <Placemark>
          <name>MESSY47 (EC45)</name>
          <description>Branch: &#xA;Altitude: 750 ft&#xA;Speed: 77.5 kts&#xA;Heading: 239.8&#xA;Mission: </description>
          <Point>
            <coordinates>-85.538617,31.219281,750</coordinates>
          </Point>
        </Placemark>
        <Placemark>
          <name>C104 ()</name>
          <description>Branch: &#xA;Altitude: 39000 ft&#xA;Speed: 602.3 kts&#xA;Heading: 101.1&#xA;Mission: </description>
          <Point>
            <coordinates>-82.562375,39.871033,39000</coordinates>
          </Point>
        </Placemark>
        <Placemark>
          <name>MCUE12 (B762)</name>
          <description>Branch: &#xA;Altitude: 27004 ft&#xA;Speed: 0.0 kts&#xA;Heading: 61.3&#xA;Mission: </description>
          <Point>
            <coordinates>-0.047379,37.111988,27004</coordinates>
          </Point>
        </Placemark>
        <Placemark>
          <name>APACHE1 ()</name>
          <description>Branch: &#xA;Altitude: 400 ft&#xA;Speed: 103.4 kts&#xA;Heading: 282.3&#xA;Mission: </description>
          <Point>
            <coordinates>4.891968,51.581974,400</coordinates>
          </Point>
        </Placemark>
        <Placemark>
          <name>TEST1234 (TWR)</name>
          <description>Branch: &#xA;Altitude: 0 ft&#xA;Speed: 0.0 kts&#xA;Heading: 0.0&#xA;Mission: </description>
          <Point>
            <coordinates>0,0,0</coordinates>
          </Point>
        </Placemark>
        <Placemark>
          <name>ASY406 (A332)</name>
          <description>Branch: &#xA;Altitude: 0 ft&#xA;Speed: 0.0 kts&#xA;Heading: 0.0&#xA;Mission: </description>
          <Point>
            <coordinates>-157.939665,21.330093,0</coordinates>
          </Point>
        </Placemark>
        <Placemark>
          <name> (K35R)</name>
          <description>Branch: &#xA;Altitude: 33000 ft&#xA;Speed: 0.0 kts&#xA;Heading: 0.0&#xA;Mission: </description>
          <Point>
            <coordinates>0,0,33000</coordinates>
          </Point>
        </Placemark>
        <Placemark>
          <name>FFAB123 (H60)</name>
          <description>Branch: &#xA;Altitude: 50 ft&#xA;Speed: 138.2 kts&#xA;Heading: 288.6&#xA;Mission: </description>
          <Point>
            <coordinates>-81.871216,30.357785,50</coordinates>
          </Point>
        </Placemark>
        <Placemark>
          <name>VGBND20 (LYNX)</name>
          <description>Branch: &#xA;Altitude: 325 ft&#xA;Speed: 0.0 kts&#xA;Heading: 0.0&#xA;Mission: </description>
          <Point>
            <coordinates>0,0,325</coordinates>
          </Point>
        </Placemark>
        <Placemark>
          <name>N9358L (C172)</name>
          <description>Branch: &#xA;Altitude: 500 ft&#xA;Speed: 99.1 kts&#xA;Heading: 92.9&#xA;Mission: </description>
          <Point>
            <coordinates>-86.521948,30.779734,500</coordinates>
          </Point>
        </Placemark>
        <Placemark>
          <name> ()</name>
          <description>Branch: &#xA;Altitude: 7625 ft&#xA;Speed: 0.0 kts&#xA;Heading: 0.0&#xA;Mission: </description>
          <Point>
            <coordinates>0,0,7625</coordinates>
          </Point>
        </Placemark>
        <Placemark>
          <name>PAIN12 (BE40)</name>
          <description>Branch: &#xA;Altitude: 2150 ft&#xA;Speed: 114.0 kts&#xA;Heading: 6.4&#xA;Mission: </description>
          <Point>
            <coordinates>-97.931541,36.26936,2150</coordinates>
          </Point>
        </Placemark>
        <Placemark>
          <name>TALON31 (HAWK)</name>
          <description>Branch: &#xA;Altitude: 13775 ft&#xA;Speed: 276.0 kts&#xA;Heading: 268.6&#xA;Mission: </description>
          <Point>
            <coordinates>-89.256279,32.953812,13775</coordinates>
          </Point>
        </Placemark>
        <Placemark>
          <name>MESSY51 (EC45)</name>
          <description>Branch: &#xA;Altitude: 775 ft&#xA;Speed: 99.9 kts&#xA;Heading: 247.0&#xA;Mission: </description>
          <Point>
            <coordinates>-85.565314,31.210575,775</coordinates>
          </Point>
        </Placemark>
        <Placemark>
          <name>TEST1234 (TWR)</name>
          <description>Branch: &#xA;Altitude: 0 ft&#xA;Speed: 0.0 kts&#xA;Heading: 0.0&#xA;Mission: </description>
          <Point>
            <coordinates>0,0,0</coordinates>
          </Point>
        </Placemark>
        <Placemark>
          <name>TEST1234 ()</name>
          <description>Branch: &#xA;Altitude: 0 ft&#xA;Speed: 0.0 kts&#xA;Heading: 0.0&#xA;Mission: </description>
          <Point>
            <coordinates>0,0,0</coordinates>
          </Point>
        </Placemark>
        <Placemark>
          <name>RECON21 (LYNX)</name>
          <description>Branch: &#xA;Altitude: 425 ft&#xA;Speed: 0.0 kts&#xA;Heading: 0.0&#xA;Mission: </description>
          <Point>
            <coordinates>0,0,425</coordinates>
          </Point>
        </Placemark>
        <Placemark>
          <name>R43532 (H64)</name>
          <description>Branch: &#xA;Altitude: 4300 ft&#xA;Speed: 120.0 kts&#xA;Heading: 3.7&#xA;Mission: </description>
          <Point>
            <coordinates>-106.026855,31.728004,4300</coordinates>
          </Point>
        </Placemark>
        <Placemark>
          <name>TIGER25 (TEX2)</name>
          <description>Branch: &#xA;Altitude: 1425 ft&#xA;Speed: 121.2 kts&#xA;Heading: 217.6&#xA;Mission: </description>
          <Point>
            <coordinates>-100.490834,29.138809,1425</coordinates>
          </Point>
        </Placemark>
        <Placemark>
          <name>BGST343 (BE20)</name>
          <description>Branch: &#xA;Altitude: 3975 ft&#xA;Speed: 189.2 kts&#xA;Heading: 286.9&#xA;Mission: </description>
          <Point>
            <coordinates>-99.391303,27.830743,3975</coordinates>
          </Point>
        </Placemark>
        <Placemark>
          <name> (H60)</name>
          <description>Branch: &#xA;Altitude: 775 ft&#xA;Speed: 63.2 kts&#xA;Heading: 280.9&#xA;Mission: </description>
          <Point>
            <coordinates>-89.809144,43.337997,775</coordinates>
          </Point>
        </Placemark>
        <Placemark>
          <name>FLAT67 (TEX2)</name>
          <description>Branch: &#xA;Altitude: 26350 ft&#xA;Speed: 236.6 kts&#xA;Heading: 27.4&#xA;Mission: </description>
          <Point>
            <coordinates>-89.213619,33.701027,26350</coordinates>
          </Point>
        </Placemark>
        <Placemark>
          <name>G24541 (H60)</name>
          <description>Branch: &#xA;Altitude: 2600 ft&#xA;Speed: 107.4 kts&#xA;Heading: 155.8&#xA;Mission: </description>
          <Point>
            <coordinates>-88.050246,43.886032,2600</coordinates>
          </Point>
        </Placemark>
        <Placemark>
          <name>VENUS23 (GLF5)</name>
          <description>Branch: &#xA;Altitude: 41000 ft&#xA;Speed: 460.0 kts&#xA;Heading: 31.0&#xA;Mission: </description>
          <Point>
            <coordinates>-79.987631,33.64341,41000</coordinates>
          </Point>
        </Placemark>
        <Placemark>
          <name>COMT451 (A400)</name>
          <description>Branch: &#xA;Altitude: 1050 ft&#xA;Speed: 154.3 kts&#xA;Heading: 255.0&#xA;Mission: </description>
          <Point>
            <coordinates>-1.611938,51.745047,1050</coordinates>
          </Point>
        </Placemark>
        <Placemark>
          <name>DEVIL20 (TEX2)</name>
          <description>Branch: &#xA;Altitude: 1950 ft&#xA;Speed: 210.7 kts&#xA;Heading: 134.2&#xA;Mission: </description>
          <Point>
            <coordinates>-100.489672,29.133362,1950</coordinates>
          </Point>
        </Placemark>
        <Placemark>
          <name>CNV793 (B737)</name>
          <description>Branch: &#xA;Altitude: 0 ft&#xA;Speed: 0.0 kts&#xA;Heading: 0.0&#xA;Mission: </description>
          <Point>
            <coordinates>-97.428502,32.772617,0</coordinates>
          </Point>
        </Placemark>
        <Placemark>
          <name>FAC1222 (B737)</name>
          <description>Branch: &#xA;Altitude: 26525 ft&#xA;Speed: 465.7 kts&#xA;Heading: 122.9&#xA;Mission: </description>
          <Point>
            <coordinates>-91.422949,30.660654,26525</coordinates>
          </Point>
        </Placemark>
        <Placemark>
          <name>EVAL53 (TEX2)</name>
          <description>Branch: &#xA;Altitude: 11725 ft&#xA;Speed: 247.9 kts&#xA;Heading: 11.4&#xA;Mission: </description>
          <Point>
            <coordinates>-86.893784,33.689301,11725</coordinates>
          </Point>
        </Placemark>
        <Placemark>
          <name>BELLS50 (EC45)</name>
          <description>Branch: &#xA;Altitude: 2750 ft&#xA;Speed: 130.8 kts&#xA;Heading: 315.3&#xA;Mission: </description>
          <Point>
            <coordinates>-85.115446,31.165604,2750</coordinates>
          </Point>
        </Placemark>
        <Placemark>
          <name>PAT375 (BE20)</name>
          <description>Branch: &#xA;Altitude: 21550 ft&#xA;Speed: 156.2 kts&#xA;Heading: 252.5&#xA;Mission: </description>
          <Point>
            <coordinates>-82.896709,34.800637,21550</coordinates>
          </Point>
        </Placemark>
        <Placemark>
          <name>TEST1234 ()</name>
          <description>Branch: &#xA;Altitude: 0 ft&#xA;Speed: 0.0 kts&#xA;Heading: 0.0&#xA;Mission: </description>
          <Point>
            <coordinates>0,0,0</coordinates>
          </Point>
        </Placemark>
        <Placemark>
          <name> (K35R)</name>
          <description>Branch: &#xA;Altitude: 8425 ft&#xA;Speed: 0.0 kts&#xA;Heading: 0.0&#xA;Mission: </description>
          <Point>
            <coordinates>0,0,8425</coordinates>
          </Point>
        </Placemark>
        <Placemark>
          <name>TOPCT26 (R135)</name>
          <description>Branch: &#xA;Altitude: 31975 ft&#xA;Speed: 413.1 kts&#xA;Heading: 327.7&#xA;Mission: </description>
          <Point>
            <coordinates>-102.385643,46.82103,31975</coordinates>
          </Point>
        </Placemark>
        <Placemark>
          <name>DEALS82 (EC45)</name>
          <description>Branch: &#xA;Altitude: 675 ft&#xA;Speed: 90.0 kts&#xA;Heading: 12.5&#xA;Mission: </description>
          <Point>
            <coordinates>-85.99231,31.38707,675</coordinates>
          </Point>
        </Placemark>
        <Placemark>
          <name>PAT016 (BE20)</name>
          <description>Branch: &#xA;Altitude: 775 ft&#xA;Speed: 149.0 kts&#xA;Heading: 35.7&#xA;Mission: </description>
          <Point>
            <coordinates>-68.784092,44.768921,775</coordinates>
          </Point>
        </Placemark>
        <Placemark>
          <name> ()</name>
          <description>Branch: &#xA;Altitude: 0 ft&#xA;Speed: 0.0 kts&#xA;Heading: 0.0&#xA;Mission: </description>
          <Point>
            <coordinates>0,0,0</coordinates>
          </Point>
        </Placemark>
        <Placemark>
          <name>RRR4946 (A400)</name>
          <description>Branch: &#xA;Altitude: 32000 ft&#xA;Speed: 370.0 kts&#xA;Heading: 326.2&#xA;Mission: </description>
          <Point>
            <coordinates>0,0,32000</coordinates>
          </Point>
        </Placemark>
        <Placemark>
          <name>FAM3206 (C295)</name>
          <description>Branch: &#xA;Altitude: 15700 ft&#xA;Speed: 242.5 kts&#xA;Heading: 279.7&#xA;Mission: </description>
          <Point>
            <coordinates>-99.468008,19.430511,15700</coordinates>
          </Point>
        </Placemark>
        <Placemark>
          <name> ()</name>
          <description>Branch: &#xA;Altitude: 0 ft&#xA;Speed: 0.0 kts&#xA;Heading: 0.0&#xA;Mission: </description>
          <Point>
            <coordinates>0,0,0</coordinates>
          </Point>
        </Placemark>
        <Placemark>
          <name>TEST1234 ()</name>
          <description>Branch: &#xA;Altitude: 0 ft&#xA;Speed: 0.0 kts&#xA;Heading: 0.0&#xA;Mission: </description>
          <Point>
            <coordinates>0,0,0</coordinates>
          </Point>
        </Placemark>
        <Placemark>
          <name>CHOUCA74 (EC45)</name>
          <description>Branch: &#xA;Altitude: 5850 ft&#xA;Speed: 0.0 kts&#xA;Heading: 0.0&#xA;Mission: </description>
          <Point>
            <coordinates>0,0,5850</coordinates>
          </Point>
        </Placemark>
        <Placemark>
          <name>HAVOC79 (C30J)</name>
          <description>Branch: &#xA;Altitude: 7250 ft&#xA;Speed: 290.0 kts&#xA;Heading: 63.0&#xA;Mission: </description>
          <Point>
            <coordinates>-83.889368,34.130741,7250</coordinates>
          </Point>
        </Placemark>
        <Placemark>
          <name>SKULL82 (H60)</name>
          <description>Branch: &#xA;Altitude: 5175 ft&#xA;Speed: 1.6 kts&#xA;Heading: 45.0&#xA;Mission: </description>
          <Point>
            <coordinates>-106.565781,34.952677,5175</coordinates>
          </Point>
        </Placemark>
        <Placemark>
          <name> ()</name>
          <description>Branch: &#xA;Altitude: 121000 ft&#xA;Speed: 0.0 kts&#xA;Heading: 0.0&#xA;Mission: </description>
          <Point>
            <coordinates>0,0,121000</coordinates>
          </Point>
        </Placemark>
        <Placemark>
          <name>C6562 (AS65)</name>
          <description>Branch: &#xA;Altitude: 1250 ft&#xA;Speed: 134.0 kts&#xA;Heading: 35.6&#xA;Mission: </description>
          <Point>
            <coordinates>-121.954392,38.327109,1250</coordinates>
          </Point>
        </Placemark>
        <Placemark>
          <name>FFAB123 ()</name>
          <description>Branch: &#xA;Altitude: 1100 ft&#xA;Speed: 83.8 kts&#xA;Heading: 109.5&#xA;Mission: </description>
          <Point>
            <coordinates>-117.378094,32.648071,1100</coordinates>
          </Point>
        </Placemark>
        <Placemark>
          <name>VADER02 (TEX2)</name>
          <description>Branch: &#xA;Altitude: 18000 ft&#xA;Speed: 300.6 kts&#xA;Heading: 343.4&#xA;Mission: </description>
          <Point>
            <coordinates>-97.553844,35.079206,18000</coordinates>
          </Point>
        </Placemark>
        <Placemark>
          <name>TETON34 (C130)</name>
          <description>Branch: &#xA;Altitude: 16200 ft&#xA;Speed: 242.0 kts&#xA;Heading: 115.0&#xA;Mission: </description>
          <Point>
            <coordinates>-104.359272,40.843246,16200</coordinates>
          </Point>
        </Placemark>
        <Placemark>
          <name>RCH400 (C17)</name>
          <description>Branch: &#xA;Altitude: 31000 ft&#xA;Speed: 489.0 kts&#xA;Heading: 105.0&#xA;Mission: </description>
          <Point>
            <coordinates>-6.650002,55.576482,31000</coordinates>
          </Point>
        </Placemark>
        <Placemark>
          <name>COBRA062 (EUFI)</name>
          <description>Branch: &#xA;Altitude: 0 ft&#xA;Speed: 0.0 kts&#xA;Heading: 0.0&#xA;Mission: </description>
          <Point>
            <coordinates>0,0,0</coordinates>
          </Point>
        </Placemark>
        <Placemark>
          <name>THNDR47 (DG1T)</name>
          <description>Branch: &#xA;Altitude: 7550 ft&#xA;Speed: 51.3 kts&#xA;Heading: 146.9&#xA;Mission: </description>
          <Point>
            <coordinates>-104.850769,38.994415,7550</coordinates>
          </Point>
        </Placemark>
        <Placemark>
          <name>R20720 (H60)</name>
          <description>Branch: &#xA;Altitude: 425 ft&#xA;Speed: 84.2 kts&#xA;Heading: 224.5&#xA;Mission: </description>
          <Point>
            <coordinates>-87.478112,36.683489,425</coordinates>
          </Point>
        </Placemark>
        <Placemark>
          <name>WINGS94 (TEX2)</name>
          <description>Branch: &#xA;Altitude: 9250 ft&#xA;Speed: 220.0 kts&#xA;Heading: 205.4&#xA;Mission: </description>
          <Point>
            <coordinates>-88.298073,33.307892,9250</coordinates>
          </Point>
        </Placemark>
        <Placemark>
          <name>TXLU03 (A139)</name>
          <description>Branch: &#xA;Altitude: 0 ft&#xA;Speed: 0.0 kts&#xA;Heading: 0.0&#xA;Mission: </description>
          <Point>
            <coordinates>0,0,0</coordinates>
          </Point>
        </Placemark>
        <Placemark>
          <name> ()</name>
          <description>Branch: &#xA;Altitude: 0 ft&#xA;Speed: 0.0 kts&#xA;Heading: 0.0&#xA;Mission: </description>
          <Point>
            <coordinates>0,0,0</coordinates>
          </Point>
        </Placemark>
        <Placemark>
          <name> ()</name>
          <description>Branch: &#xA;Altitude: 0 ft&#xA;Speed: 0.0 kts&#xA;Heading: 0.0&#xA;Mission: </description>
          <Point>
            <coordinates>0,0,0</coordinates>
          </Point>
        </Placemark>
        <Placemark>
          <name>TRIPLE41 (EUFI)</name>
          <description>Branch: &#xA;Altitude: -75 ft&#xA;Speed: 0.0 kts&#xA;Heading: 0.0&#xA;Mission: </description>
          <Point>
            <coordinates>0,0,-75</coordinates>
          </Point>
        </Placemark>