<?xml version="1.0" encoding="UTF-8"?>
<kml xmlns="http://www.opengis.net/kml/2.2">
  <Document>
    <name>US Military Tracker</name>
    <description>Generated: 2026-03-02T13:52:41Z | Chairman: none | Score: 0.00</description>
    <Folder>
      <name>Aircraft (357 tracked)</name>
      <Folder>
        <name>Unknown</name>
        <Placemark>
          <name>EMOJI22 (EC45)</name>
          <description>Branch: &#xA;Altitude: 750 ft&#xA;Speed: 61.7 kts&#xA;Heading: 204.9&#xA;Mission: </description>
          <Point>
            <coordinates>-85.643481,31.21835,750</coordinates>
          </Point>
        </Placemark>
        <Placemark>
          <name>GAF701 (A21N)</name>
          <description>Branch: &#xA;Altitude: 575 ft&#xA;Speed: 152.0 kts&#xA;Heading: 225.8&#xA;Mission: </description>
          <Point>
            <coordinates>-4.44372,55.866394,575</coordinates>
          </Point>
        </Placemark>
        <Placemark>
          <name> (EC35)</name>
          <description>Branch: &#xA;Altitude: 0 ft&#xA;Speed: 3.0 kts&#xA;Heading: 180.0&#xA;Mission: </description>
          <Point>
            <coordinates>-2.662851,52.794567,0</coordinates>
          </Point>
        </Placemark>
        <Placemark>
          <name>CNV5401 (B737)</name>
          <description>Branch: &#xA;Altitude: 2725 ft&#xA;Speed: 178.4 kts&#xA;Heading: 237.8&#xA;Mission: </description>
          <Point>
            <coordinates>14.453389,40.962478,2725</coordinates>
          </Point>
        </Placemark>
        <Placemark>
          <name> (A400)</name>
          <description>Branch: &#xA;Altitude: 30975 ft&#xA;Speed: 0.0 kts&#xA;Heading: 0.0&#xA;Mission: </description>
          <Point>
            <coordinates>29.022628,34.091171,30975</coordinates>
          </Point>
        </Placemark>
        <Placemark>
          <name>TEST1234 ()</name>
          <description>Branch: &#xA;Altitude: 0 ft&#xA;Speed: 0.0 kts&#xA;Heading: 0.0&#xA;Mission: </description>
          <Point>
            <coordinates>0,0,0</coordinates>
          </Point>
        </Placemark>
        <Placemark>
          <name>LION92 (A169)</name>
          <description>Branch: &#xA;Altitude: 950 ft&#xA;Speed: 50.5 kts&#xA;Heading: 146.3&#xA;Mission: </description>
          <Point>
            <coordinates>16.400053,48.601135,950</coordinates>
          </Point>
        </Placemark>
        <Placemark>
          <name>NUKED63 (EC45)</name>
          <description>Branch: &#xA;Altitude: 175 ft&#xA;Speed: 34.4 kts&#xA;Heading: 98.4&#xA;Mission: </description>
          <Point>
            <coordinates>-85.739459,31.149857,175</coordinates>
          </Point>
        </Placemark>
        <Placemark>
          <name>PAT269 (BE20)</name>
          <description>Branch: &#xA;Altitude: 25975 ft&#xA;Speed: 255.8 kts&#xA;Heading: 192.2&#xA;Mission: </description>
          <Point>
            <coordinates>-85.308655,40.550629,25975</coordinates>
          </Point>
        </Placemark>
        <Placemark>
          <name>GRZLY41 (H47)</name>
          <description>Branch: &#xA;Altitude: 600 ft&#xA;Speed: 0.0 kts&#xA;Heading: 0.0&#xA;Mission: </description>
          <Point>
            <coordinates>0,0,600</coordinates>
          </Point>
        </Placemark>
        <Placemark>
          <name> ()</name>
          <description>Branch: &#xA;Altitude: 525 ft&#xA;Speed: 0.0 kts&#xA;Heading: 0.0&#xA;Mission: </description>
          <Point>
            <coordinates>0,0,525</coordinates>
          </Point>
        </Placemark>
        <Placemark>
          <name>ECU64 (AS50)</name>
          <description>Branch: &#xA;Altitude: 0 ft&#xA;Speed: 0.0 kts&#xA;Heading: 0.0&#xA;Mission: </description>
          <Point>
            <coordinates>0,0,0</coordinates>
          </Point>
        </Placemark>
        <Placemark>
          <name>XCOPF (B722)</name>
          <description>Branch: &#xA;Altitude: 33000 ft&#xA;Speed: 470.7 kts&#xA;Heading: 81.9&#xA;Mission: </description>
          <Point>
            <coordinates>-95.880083,19.185294,33000</coordinates>
          </Point>
        </Placemark>
        <Placemark>
          <name>GEIV52 (H25A)</name>
          <description>Branch: &#xA;Altitude: 30000 ft&#xA;Speed: 358.5 kts&#xA;Heading: 177.0&#xA;Mission: </description>
          <Point>
            <coordinates>-42.798796,-23.731027,30000</coordinates>
          </Point>
        </Placemark>
        <Placemark>
          <name>CFC3629 (C17)</name>
          <description>Branch: &#xA;Altitude: 33000 ft&#xA;Speed: 435.3 kts&#xA;Heading: 102.5&#xA;Mission: </description>
          <Point>
            <coordinates>3.795441,46.531219,33000</coordinates>
          </Point>
        </Placemark>
        <Placemark>
          <name> (EC35)</name>
          <description>Branch: &#xA;Altitude: 275 ft&#xA;Speed: 0.0 kts&#xA;Heading: 0.0&#xA;Mission: </description>
          <Point>
            <coordinates>0,0,275</coordinates>
          </Point>
        </Placemark>
        <Placemark>
          <name>PNC0106 (H500)</name>
          <description>Branch: &#xA;Altitude: 8750 ft&#xA;Speed: 87.0 kts&#xA;Heading: 358.7&#xA;Mission: </description>
          <Point>
            <coordinates>-74.041241,4.875366,8750</coordinates>
          </Point>
        </Placemark>
        <Placemark>
          <name>PNTHR79 (H64)</name>
          <description>Branch: &#xA;Altitude: 1200 ft&#xA;Speed: 49.4 kts&#xA;Heading: 305.9&#xA;Mission: </description>
          <Point>
            <coordinates>-1.576538,51.13829,1200</coordinates>
          </Point>
        </Placemark>
        <Placemark>
          <name>BGST432 (BE20)</name>
          <description>Branch: &#xA;Altitude: 3875 ft&#xA;Speed: 172.0 kts&#xA;Heading: 79.9&#xA;Mission: </description>
          <Point>
            <coordinates>-96.782051,28.78775,3875</coordinates>
          </Point>
        </Placemark>
        <Placemark>
          <name>SPUD36 (H60)</name>
          <description>Branch: &#xA;Altitude: 550 ft&#xA;Speed: 94.8 kts&#xA;Heading: 222.4&#xA;Mission: </description>
          <Point>
            <coordinates>-85.785343,31.082748,550</coordinates>
          </Point>
        </Placemark>
        <Placemark>
          <name> ()</name>
          <description>Branch: &#xA;Altitude: 0 ft&#xA;Speed: 0.0 kts&#xA;Heading: 0.0&#xA;Mission: </description>
          <Point>
            <coordinates>0,0,0</coordinates>
          </Point>
        </Placemark>
        <Placemark>
          <name>JEDI52 (TEX2)</name>
          <description>Branch: &#xA;Altitude: 0 ft&#xA;Speed: 0.0 kts&#xA;Heading: 0.0&#xA;Mission: </description>
          <Point>
            <coordinates>0,0,0</coordinates>
          </Point>
        </Placemark>
        <Placemark>
          <name>FGN9356 (EC35)</name>
          <description>Branch: &#xA;Altitude: 0 ft&#xA;Speed: 0.0 kts&#xA;Heading: 0.0&#xA;Mission: </description>
          <Point>
            <coordinates>0,0,0</coordinates>
          </Point>
        </Placemark>
        <Placemark>
          <name>BALL11 (TEX2)</name>
          <description>Branch: &#xA;Altitude: 5100 ft&#xA;Speed: 254.0 kts&#xA;Heading: 349.9&#xA;Mission: </description>
          <Point>
            <coordinates>-97.897942,36.514179,5100</coordinates>
          </Point>
        </Placemark>
        <Placemark>
          <name>RESQ87 ()</name>
          <description>Branch: &#xA;Altitude: 950 ft&#xA;Speed: 120.5 kts&#xA;Heading: 337.1&#xA;Mission: </description>
          <Point>
            <coordinates>13.555908,51.195684,950</coordinates>
          </Point>
        </Placemark>
        <Placemark>
          <name> (C30J)</name>
          <description>Branch: &#xA;Altitude: 28000 ft&#xA;Speed: 0.0 kts&#xA;Heading: 0.0&#xA;Mission: </description>
          <Point>
            <coordinates>0,0,28000</coordinates>
          </Point>
        </Placemark>
        <Placemark>
          <name> ()</name>
          <description>Branch: &#xA;Altitude: 0 ft&#xA;Speed: 0.0 kts&#xA;Heading: 0.0&#xA;Mission: </description>
          <Point>
            <coordinates>0,0,0</coordinates>
          </Point>
        </Placemark>
        <Placemark>
          <name> ()</name>
          <description>Branch: &#xA;Altitude: 0 ft&#xA;Speed: 0.0 kts&#xA;Heading: 0.0&#xA;Mission: </description>
          <Point>
            <coordinates>0,0,0</coordinates>
          </Point>
        </Placemark>
        <Placemark>
          <name>NINJA12 (T38)</name>
          <description>Branch: &#xA;Altitude: 12325 ft&#xA;Speed: 410.3 kts&#xA;Heading: 304.8&#xA;Mission: </description>
          <Point>
            <coordinates>-87.886448,33.746695,12325</coordinates>
          </Point>
        </Placemark>
        <Placemark>
          <name>POBOY17 (EC45)</name>
          <description>Branch: &#xA;Altitude: 2275 ft&#xA;Speed: 97.5 kts&#xA;Heading: 243.2&#xA;Mission: </description>
          <Point>
            <coordinates>-86.638239,31.402324,2275</coordinates>
          </Point>
        </Placemark>
        <Placemark>
          <name>EMOJI7 (EC45)</name>
          <description>Branch: &#xA;Altitude: 150 ft&#xA;Speed: 20.1 kts&#xA;Heading: 116.6&#xA;Mission: </description>
          <Point>
            <coordinates>-85.652985,31.233758,150</coordinates>
          </Point>
        </Placemark>
        <Placemark>
          <name>PAT17 (H60)</name>
          <description>Branch: &#xA;Altitude: 3375 ft&#xA;Speed: 113.7 kts&#xA;Heading: 230.7&#xA;Mission: </description>
          <Point>
            <coordinates>-77.511351,38.41626,3375</coordinates>
          </Point>
        </Placemark>
        <Placemark>
          <name>DIAMO07 (PC7)</name>
          <description>Branch: &#xA;Altitude: 5975 ft&#xA;Speed: 180.0 kts&#xA;Heading: 152.0&#xA;Mission: </description>
          <Point>
            <coordinates>4.088795,51.37104,5975</coordinates>
          </Point>
        </Placemark>
        <Placemark>
          <name>GRYF02 (PZ3T)</name>
          <description>Branch: &#xA;Altitude: 3900 ft&#xA;Speed: 161.5 kts&#xA;Heading: 97.8&#xA;Mission: </description>
          <Point>
            <coordinates>21.311175,51.395737,3900</coordinates>
          </Point>
        </Placemark>
        <Placemark>
          <name> ()</name>
          <description>Branch: &#xA;Altitude: 18000 ft&#xA;Speed: 0.0 kts&#xA;Heading: 0.0&#xA;Mission: </description>
          <Point>
            <coordinates>0,0,18000</coordinates>
          </Point>
        </Placemark>
        <Placemark>
          <name> ()</name>
          <description>Branch: &#xA;Altitude: 80000 ft&#xA;Speed: 0.0 kts&#xA;Heading: 0.0&#xA;Mission: </description>
          <Point>
            <coordinates>0,0,80000</coordinates>
          </Point>
        </Placemark>
        <Placemark>
          <name>NICAD55 (EC45)</name>
          <description>Branch: &#xA;Altitude: 150 ft&#xA;Speed: 38.1 kts&#xA;Heading: 119.9&#xA;Mission: </description>
          <Point>
            <coordinates>-85.654907,31.232734,150</coordinates>
          </Point>
        </Placemark>
        <Placemark>
          <name>CORDT2 (TEX2)</name>
          <description>Branch: &#xA;Altitude: 325 ft&#xA;Speed: 241.5 kts&#xA;Heading: 159.4&#xA;Mission: </description>
          <Point>
            <coordinates>-3.82195,53.167869,325</coordinates>
          </Point>
        </Placemark>
        <Placemark>
          <name>PRF36 (G12T)</name>
          <description>Branch: &#xA;Altitude: 4350 ft&#xA;Speed: 134.6 kts&#xA;Heading: 238.7&#xA;Mission: </description>
          <Point>
            <coordinates>-0.38562,52.899635,4350</coordinates>
          </Point>
        </Placemark>
        <Placemark>
          <name>TEST1234 ()</name>
          <description>Branch: &#xA;Altitude: 0 ft&#xA;Speed: 0.0 kts&#xA;Heading: 0.0&#xA;Mission: </description>
          <Point>
            <coordinates>0,0,0</coordinates>
          </Point>
        </Placemark>
        <Placemark>
          <name>RECON22 (LYNX)</name>
          <description>Branch: &#xA;Altitude: 1100 ft&#xA;Speed: 0.0 kts&#xA;Heading: 0.0&#xA;Mission: </description>
          <Point>
            <coordinates>0,0,1100</coordinates>
          </Point>
        </Placemark>
        <Placemark>
          <name>G20606 (H60)</name>
          <description>Branch: &#xA;Altitude: 2125 ft&#xA;Speed: 140.2 kts&#xA;Heading: 132.1&#xA;Mission: </description>
          <Point>
            <coordinates>0,0,2125</coordinates>
          </Point>
        </Placemark>
        <Placemark>
          <name>RSD955 (A319)</name>
          <description>Branch: &#xA;Altitude: 2850 ft&#xA;Speed: 180.0 kts&#xA;Heading: 36.6&#xA;Mission: </description>
          <Point>
            <coordinates>0,0,2850</coordinates>
          </Point>
        </Placemark>
        <Placemark>
          <name>RN065 (TEX2)</name>
          <description>Branch: &#xA;Altitude: 7500 ft&#xA;Speed: 230.0 kts&#xA;Heading: 212.0&#xA;Mission: </description>
          <Point>
            <coordinates>-87.52099,30.943459,7500</coordinates>
          </Point>
        </Placemark>
        <Placemark>
          <name>CHEWY77 (TEX2)</name>
          <description>Branch: &#xA;Altitude: 1750 ft&#xA;Speed: 169.5 kts&#xA;Heading: 38.3&#xA;Mission: </description>
          <Point>
            <coordinates>-89.286104,30.568451,1750</coordinates>
          </Point>
        </Placemark>
        <Placemark>
          <name>RN204 (TEX2)</name>
          <description>Branch: &#xA;Altitude: 1725 ft&#xA;Speed: 193.7 kts&#xA;Heading: 130.2&#xA;Mission: </description>
          <Point>
            <coordinates>-86.341553,32.294266,1725</coordinates>
          </Point>
        </Placemark>
        <Placemark>
          <name>F263 (PC9)</name>
          <description>Branch: &#xA;Altitude: 14200 ft&#xA;Speed: 0.0 kts&#xA;Heading: 0.0&#xA;Mission: </description>
          <Point>
            <coordinates>0,0,14200</coordinates>
          </Point>
        </Placemark>
        <Placemark>
          <name>F269 (PC9)</name>
          <description>Branch: &#xA;Altitude: 1875 ft&#xA;Speed: 204.0 kts&#xA;Heading: 47.0&#xA;Mission: </description>
          <Point>
            <coordinates>-6.41667,53.304869,1875</coordinates>
          </Point>
        </Placemark>
        <Placemark>
          <name>CORDT1 (TEX2)</name>
          <description>Branch: &#xA;Altitude: 800 ft&#xA;Speed: 236.4 kts&#xA;Heading: 167.8&#xA;Mission: </description>
          <Point>
            <coordinates>-3.792707,53.157209,800</coordinates>
          </Point>
        </Placemark>
        <Placemark>
          <name>SYS92 (EC35)</name>
          <description>Branch: &#xA;Altitude: 875 ft&#xA;Speed: 47.9 kts&#xA;Heading: 156.6&#xA;Mission: </description>
          <Point>
            <coordinates>-2.540431,52.897215,875</coordinates>
          </Point>
        </Placemark>
        <Placemark>
          <name>DRAGONX ()</name>
          <description>Branch: &#xA;Altitude: 775 ft&#xA;Speed: 106.0 kts&#xA;Heading: 168.3&#xA;Mission: </description>
          <Point>
            <coordinates>4.342412,43.717857,775</coordinates>
          </Point>
        </Placemark>
        <Placemark>
          <name>BELLS10 (EC45)</name>
          <description>Branch: &#xA;Altitude: 2725 ft&#xA;Speed: 102.2 kts&#xA;Heading: 49.8&#xA;Mission: </description>
          <Point>
            <coordinates>-86.368588,31.095062,2725</coordinates>
          </Point>
        </Placemark>
        <Placemark>
          <name> (T38)</name>
          <description>Branch: &#xA;Altitude: 0 ft&#xA;Speed: 0.0 kts&#xA;Heading: 0.0&#xA;Mission: </description>
          <Point>
            <coordinates>0,0,0</coordinates>
          </Point>
        </Placemark>
        <Placemark>
          <name>CAPE48 (H60)</name>
          <description>Branch: &#xA;Altitude: 400 ft&#xA;Speed: 68.9 kts&#xA;Heading: 117.7&#xA;Mission: </description>
          <Point>
            <coordinates>-85.974939,31.389941,400</coordinates>
          </Point>
        </Placemark>
        <Placemark>
          <name>POBOY25 (EC45)</name>
          <description>Branch: &#xA;Altitude: 1175 ft&#xA;Speed: 93.1 kts&#xA;Heading: 271.9&#xA;Mission: </description>
          <Point>
            <coordinates>-85.354047,30.845606,1175</coordinates>
          </Point>
        </Placemark>
        <Placemark>
          <name>FORGE78 (GLF5)</name>
          <description>Branch: &#xA;Altitude: 10725 ft&#xA;Speed: 288.1 kts&#xA;Heading: 178.6&#xA;Mission: </description>
          <Point>
            <coordinates>-76.709827,38.550522,10725</coordinates>
          </Point>
        </Placemark>
        <Placemark>
          <name>ZM530 (EC35)</name>
          <description>Branch: &#xA;Altitude: 2000 ft&#xA;Speed: 95.0 kts&#xA;Heading: 181.2&#xA;Mission: </description>
          <Point>
            <coordinates>-1.466047,52.011186,2000</coordinates>
          </Point>
        </Placemark>
        <Placemark>
          <name>CNV6503 (C130)</name>
          <description>Branch: &#xA;Altitude: 24075 ft&#xA;Speed: 301.3 kts&#xA;Heading: 5.3&#xA;Mission: </description>
          <Point>
            <coordinates>9.464408,53.414474,24075</coordinates>
          </Point>
        </Placemark>
        <Placemark>
          <name>CFC01 (A332)</name>
          <description>Branch: &#xA;Altitude: 35000 ft&#xA;Speed: 504.9 kts&#xA;Heading: 135.0&#xA;Mission: </description>
          <Point>
            <coordinates>86.262687,19.807892,35000</coordinates>
          </Point>
        </Placemark>
        <Placemark>
          <name>FMY8055 (TBM7)</name>
          <description>Branch: &#xA;Altitude: 925 ft&#xA;Speed: 172.8 kts&#xA;Heading: 259.7&#xA;Mission: </description>
          <Point>
            <coordinates>-2.397549,48.650626,925</coordinates>
          </Point>
        </Placemark>
        <Placemark>
          <name> (K35R)</name>
          <description>Branch: &#xA;Altitude: 8150 ft&#xA;Speed: 250.0 kts&#xA;Heading: 249.8&#xA;Mission: </description>
          <Point>
            <coordinates>1.160376,52.39744,8150</coordinates>
          </Point>
        </Placemark>
        <Placemark>
          <name>RCH128 (C17)</name>
          <description>Branch: &#xA;Altitude: 34000 ft&#xA;Speed: 427.0 kts&#xA;Heading: 351.0&#xA;Mission: </description>
          <Point>
            <coordinates>23.420096,43.064977,34000</coordinates>
          </Point>
        </Placemark>
        <Placemark>
          <name>TEST1234 ()</name>
          <description>Branch: &#xA;Altitude: 0 ft&#xA;Speed: 0.0 kts&#xA;Heading: 0.0&#xA;Mission: </description>
          <Point>
            <coordinates>0,0,0</coordinates>
          </Point>
        </Placemark>
        <Placemark>
          <name>DRAGN21 (AS32)</name>
          <description>Branch: &#xA;Altitude: 0 ft&#xA;Speed: 0.0 kts&#xA;Heading: 0.0&#xA;Mission: </description>
          <Point>
            <coordinates>0,0,0</coordinates>
          </Point>
        </Placemark>
        <Placemark>
          <name>TACO11 (TEX2)</name>
          <description>Branch: &#xA;Altitude: 9425 ft&#xA;Speed: 212.4 kts&#xA;Heading: 163.9&#xA;Mission: </description>
          <Point>
            <coordinates>-89.000874,34.032107,9425</coordinates>
          </Point>
        </Placemark>
        <Placemark>
          <name>MEANY05 (EC45)</name>
          <description>Branch: &#xA;Altitude: 2025 ft&#xA;Speed: 94.5 kts&#xA;Heading: 247.0&#xA;Mission: </description>
          <Point>
            <coordinates>-85.813293,31.241226,2025</coordinates>
          </Point>
        </Placemark>
        <Placemark>
          <name>PICK33 (EC45)</name>
          <description>Branch: &#xA;Altitude: 550 ft&#xA;Speed: 102.2 kts&#xA;Heading: 273.9&#xA;Mission: </description>
          <Point>
            <coordinates>-85.740321,31.166931,550</coordinates>
          </Point>
        </Placemark>
        <Placemark>
          <name>SAVER20 (EC45)</name>
          <description>Branch: &#xA;Altitude: 375 ft&#xA;Speed: 49.3 kts&#xA;Heading: 72.3&#xA;Mission: </description>
          <Point>
            <coordinates>-85.567621,31.226403,375</coordinates>
          </Point>
        </Placemark>
        <Placemark>
          <name>CNV3915 (C130)</name>
          <description>Branch: &#xA;Altitude: 1725 ft&#xA;Speed: 127.6 kts&#xA;Heading: 305.4&#xA;Mission: </description>
          <Point>
            <coordinates>-63.546396,44.907361,1725</coordinates>
          </Point>
        </Placemark>
        <Placemark>
          <name>SYS79 (EC35)</name>
          <description>Branch: &#xA;Altitude: 1250 ft&#xA;Speed: 92.0 kts&#xA;Heading: 111.7&#xA;Mission: </description>
          <Point>
            <coordinates>-2.515182,52.753052,1250</coordinates>
          </Point>
        </Placemark>
        <Placemark>
          <name>CTM2088 (C30J)</name>
          <description>Branch: &#xA;Altitude: 27000 ft&#xA;Speed: 303.0 kts&#xA;Heading: 70.7&#xA;Mission: </description>
          <Point>
            <coordinates>3.690539,49.052093,27000</coordinates>
          </Point>
        </Placemark>
        <Placemark>
          <name>SNIPR11 ()</name>
          <description>Branch: &#xA;Altitude: 33000 ft&#xA;Speed: 0.0 kts&#xA;Heading: 0.0&#xA;Mission: </description>
          <Point>
            <coordinates>0,0,33000</coordinates>
          </Point>
        </Placemark>
        <Placemark>
          <name>VANT37 (A332)</name>
          <description>Branch: &#xA;Altitude: 23000 ft&#xA;Speed: 372.8 kts&#xA;Heading: 65.8&#xA;Mission: </description>
          <Point>
            <coordinates>7.403095,48.060111,23000</coordinates>
          </Point>
        </Placemark>
        <Placemark>
          <name>GAM026A ()</name>
          <description>Branch: &#xA;Altitude: 1150 ft&#xA;Speed: 86.3 kts&#xA;Heading: 315.0&#xA;Mission: </description>
          <Point>
            <coordinates>9.172211,52.181717,1150</coordinates>
          </Point>
        </Placemark>
        <Placemark>
          <name> (AS32)</name>
          <description>Branch: &#xA;Altitude: 600 ft&#xA;Speed: 0.0 kts&#xA;Heading: 0.0&#xA;Mission: </description>
          <Point>
            <coordinates>0,0,600</coordinates>
          </Point>
        </Placemark>
        <Placemark>
          <name>CESARF (E121)</name>
          <description>Branch: &#xA;Altitude: 800 ft&#xA;Speed: 0.0 kts&#xA;Heading: 0.0&#xA;Mission: </description>
          <Point>
            <coordinates>0,0,800</coordinates>
          </Point>
        </Placemark>
        <Placemark>
          <name>EXCBR88 (EH10)</name>
          <description>Branch: &#xA;Altitude: 1650 ft&#xA;Speed: 0.0 kts&#xA;Heading: 0.0&#xA;Mission: </description>
          <Point>
            <coordinates>0,0,1650</coordinates>
          </Point>
        </Placemark>
        <Placemark>
          <name> (C208)</name>
          <description>Branch: &#xA;Altitude: 0 ft&#xA;Speed: 0.0 kts&#xA;Heading: 0.0&#xA;Mission: </description>
          <Point>
            <coordinates>0,0,0</coordinates>
          </Point>
        </Placemark>
        <Placemark>
          <name> (C17)</name>
          <description>Branch: &#xA;Altitude: 0 ft&#xA;Speed: 0.0 kts&#xA;Heading: 0.0&#xA;Mission: </description>
          <Point>
            <coordinates>0,0,0</coordinates>
          </Point>
        </Placemark>
        <Placemark>
          <name>ROKT99 ()</name>
          <description>Branch: &#xA;Altitude: 6150 ft&#xA;Speed: 390.8 kts&#xA;Heading: 29.2&#xA;Mission: </description>
          <Point>
            <coordinates>-88.701244,30.933517,6150</coordinates>
          </Point>
        </Placemark>
        <Placemark>
          <name>BONES42 (T38)</name>
          <description>Branch: &#xA;Altitude: 16625 ft&#xA;Speed: 420.1 kts&#xA;Heading: 131.4&#xA;Mission: </description>
          <Point>
            <coordinates>-88.558549,34.106277,16625</coordinates>
          </Point>
        </Placemark>
        <Placemark>
          <name>TOTES75 (EC45)</name>
          <description>Branch: &#xA;Altitude: 300 ft&#xA;Speed: 0.0 kts&#xA;Heading: 0.0&#xA;Mission: </description>
          <Point>
            <coordinates>-85.944122,31.427788,300</coordinates>
          </Point>
        </Placemark>
        <Placemark>
          <name>NUKED07 (EC45)</name>
          <description>Branch: &#xA;Altitude: 450 ft&#xA;Speed: 62.2 kts&#xA;Heading: 184.6&#xA;Mission: </description>
          <Point>
            <coordinates>-85.756256,31.155225,450</coordinates>
          </Point>
        </Placemark>
        <Placemark>
          <name>POBOY58 (EC45)</name>
          <description>Branch: &#xA;Altitude: 3700 ft&#xA;Speed: 92.5 kts&#xA;Heading: 96.2&#xA;Mission: </description>
          <Point>
            <coordinates>-85.256222,30.798752,3700</coordinates>
          </Point>
        </Placemark>
        <Placemark>
          <name>MILAN79 (DH8D)</name>
          <description>Branch: &#xA;Altitude: 1600 ft&#xA;Speed: 228.9 kts&#xA;Heading: 350.9&#xA;Mission: </description>
          <Point>
            <coordinates>5.217484,43.316711,1600</coordinates>
          </Point>
        </Placemark>
        <Placemark>
          <name>GAFTT07 ()</name>
          <description>Branch: &#xA;Altitude: 62700 ft&#xA;Speed: 0.0 kts&#xA;Heading: 0.0&#xA;Mission: </description>
          <Point>
            <coordinates>0,0,62700</coordinates>
          </Point>
        </Placemark>
        <Placemark>
          <name>EMOJI20 (EC45)</name>
          <description>Branch: &#xA;Altitude: 525 ft&#xA;Speed: 61.3 kts&#xA;Heading: 204.1&#xA;Mission: </description>
          <Point>
            <coordinates>-85.664575,31.246141,525</coordinates>
          </Point>
        </Placemark>
        <Placemark>
          <name>CO106 (TUCA)</name>
          <description>Branch: &#xA;Altitude: 6500 ft&#xA;Speed: 180.5 kts&#xA;Heading: 158.6&#xA;Mission: </description>
          <Point>
            <coordinates>-47.979692,-21.98941,6500</coordinates>
          </Point>
        </Placemark>
        <Placemark>
          <name>SYS67 (EC35)</name>
          <description>Branch: &#xA;Altitude: 1525 ft&#xA;Speed: 67.4 kts&#xA;Heading: 186.0&#xA;Mission: </description>
          <Point>
            <coordinates>-2.663345,52.859573,1525</coordinates>
          </Point>
        </Placemark>
        <Placemark>
          <name>FGN9376 ()</name>
          <description>Branch: &#xA;Altitude: 575 ft&#xA;Speed: 101.0 kts&#xA;Heading: 200.0&#xA;Mission: </description>
          <Point>
            <coordinates>2.987053,50.373367,575</coordinates>
          </Point>
        </Placemark>
        <Placemark>
          <name>0 (P1)</name>
          <description>Branch: &#xA;Altitude: 26000 ft&#xA;Speed: 0.0 kts&#xA;Heading: 0.0&#xA;Mission: </description>
          <Point>
            <coordinates>134.196468,34.687607,26000</coordinates>
          </Point>
        </Placemark>
        <Placemark>
          <name>RRR9964 (A332)</name>
          <description>Branch: &#xA;Altitude: 20000 ft&#xA;Speed: 0.0 kts&#xA;Heading: 0.0&#xA;Mission: </description>
          <Point>
            <coordinates>0,0,20000</coordinates>
          </Point>
        </Placemark>
        <Placemark>
          <name>BURNER1 ()</name>
          <description>Branch: &#xA;Altitude: 3400 ft&#xA;Speed: 0.0 kts&#xA;Heading: 0.0&#xA;Mission: </description>
          <Point>
            <coordinates>0,0,3400</coordinates>
          </Point>
        </Placemark>
        <Placemark>
          <name>TEST1234 ()</name>
          <description>Branch: &#xA;Altitude: 0 ft&#xA;Speed: 0.0 kts&#xA;Heading: 0.0&#xA;Mission: </description>
          <Point>
            <coordinates>0,0,0</coordinates>
          </Point>
        </Placemark>
        <Placemark>
          <name>BALL05 (TEX2)</name>
          <description>Branch: &#xA;Altitude: 10975 ft&#xA;Speed: 227.5 kts&#xA;Heading: 48.7&#xA;Mission: </description>
          <Point>
            <coordinates>-97.641576,36.623483,10975</coordinates>
          </Point>
        </Placemark>
        <Placemark>
          <name>TEST1234 ()</name>
          <description>Branch: &#xA;Altitude: 0 ft&#xA;Speed: 0.0 kts&#xA;Heading: 0.0&#xA;Mission: </description>
          <Point>
            <coordinates>0,0,0</coordinates>
          </Point>
        </Placemark>
        <Placemark>
          <name> (K35R)</name>
          <description>Branch: &#xA;Altitude: 13875 ft&#xA;Speed: 366.0 kts&#xA;Heading: 105.5&#xA;Mission: </description>
          <Point>
            <coordinates>0,0,13875</coordinates>
          </Point>
        </Placemark>
        <Placemark>
          <name>RHINO25 (C30J)</name>
          <description>Branch: &#xA;Altitude: 475 ft&#xA;Speed: 186.0 kts&#xA;Heading: 49.0&#xA;Mission: </description>
          <Point>
            <coordinates>0,0,475</coordinates>
          </Point>
        </Placemark>
        <Placemark>
          <name>S1 (BTB2)</name>
          <description>Branch: &#xA;Altitude: 17025 ft&#xA;Speed: 0.0 kts&#xA;Heading: 0.0&#xA;Mission: </description>
          <Point>
            <coordinates>0,0,17025</coordinates>
          </Point>
        </Placemark>
        <Placemark>
          <name>NUKED37 (EC45)</name>
          <description>Branch: &#xA;Altitude: 400 ft&#xA;Speed: 0.0 kts&#xA;Heading: 0.0&#xA;Mission: </description>
          <Point>
            <coordinates>-85.723517,31.150151,400</coordinates>
          </Point>
        </Placemark>
        <Placemark>
          <name>SAVER07 (EC45)</name>
          <description>Branch: &#xA;Altitude: 75 ft&#xA;Speed: 45.3 kts&#xA;Heading: 68.0&#xA;Mission: </description>
          <Point>
            <coordinates>-85.564655,31.226124,75</coordinates>
          </Point>
        </Placemark>
        <Placemark>
          <name>SYS02 (EC35)</name>
          <description>Branch: &#xA;Altitude: 2575 ft&#xA;Speed: 110.3 kts&#xA;Heading: 43.5&#xA;Mission: </description>
          <Point>
            <coordinates>-2.328395,52.785443,2575</coordinates>
          </Point>
        </Placemark>
        <Placemark>
          <name>EE17 ()</name>
          <description>Branch: &#xA;Altitude: 2950 ft&#xA;Speed: 230.0 kts&#xA;Heading: 109.0&#xA;Mission: </description>
          <Point>
            <coordinates>11.743902,48.9211,2950</coordinates>
          </Point>
        </Placemark>
        <Placemark>
          <name>IFC0066 (C17)</name>
          <description>Branch: &#xA;Altitude: 35025 ft&#xA;Speed: 458.0 kts&#xA;Heading: 126.1&#xA;Mission: </description>
          <Point>
            <coordinates>18.58551,39.528297,35025</coordinates>
          </Point>
        </Placemark>
        <Placemark>
          <name>TEST1234 ()</name>
          <description>Branch: &#xA;Altitude: 0 ft&#xA;Speed: 0.0 kts&#xA;Heading: 0.0&#xA;Mission: </description>
          <Point>
            <coordinates>0,0,0</coordinates>
          </Point>
        </Placemark>
        <Placemark>
          <name>TALQN730 (LYNX)</name>
          <description>Branch: &#xA;Altitude: 1100 ft&#xA;Speed: 0.0 kts&#xA;Heading: 0.0&#xA;Mission: </description>
          <Point>
            <coordinates>0,0,1100</coordinates>
          </Point>
        </Placemark>
        <Placemark>
          <name>PAT319 (BE20)</name>
          <description>Branch: &#xA;Altitude: 10200 ft&#xA;Speed: 233.5 kts&#xA;Heading: 118.1&#xA;Mission: </description>
          <Point>
            <coordinates>-114.379161,42.685684,10200</coordinates>
          </Point>
        </Placemark>
        <Placemark>
          <name>POBOY81 (EC45)</name>
          <description>Branch: &#xA;Altitude: 1350 ft&#xA;Speed: 99.0 kts&#xA;Heading: 271.2&#xA;Mission: </description>
          <Point>
            <coordinates>-86.220218,31.727051,1350</coordinates>
          </Point>
        </Placemark>
        <Placemark>
          <name>NUKED35 (EC45)</name>
          <description>Branch: &#xA;Altitude: 600 ft&#xA;Speed: 99.1 kts&#xA;Heading: 272.9&#xA;Mission: </description>
          <Point>
            <coordinates>-85.73302,31.16677,600</coordinates>
          </Point>
        </Placemark>
        <Placemark>
          <name>BENGA98 (BE20)</name>
          <description>Branch: &#xA;Altitude: 27000 ft&#xA;Speed: 283.5 kts&#xA;Heading: 116.4&#xA;Mission: </description>
          <Point>
            <coordinates>7.047792,42.490768,27000</coordinates>
          </Point>
        </Placemark>
        <Placemark>
          <name>TEST1234 (TWR)</name>
          <description>Branch: &#xA;Altitude: 0 ft&#xA;Speed: 0.0 kts&#xA;Heading: 0.0&#xA;Mission: </description>
          <Point>
            <coordinates>0,0,0</coordinates>
          </Point>
        </Placemark>
        <Placemark>
          <name>X PSGC3A (C295)</name>
          <description>Branch: &#xA;Altitude: 12000 ft&#xA;Speed: 0.0 kts&#xA;Heading: 0.0&#xA;Mission: </description>
          <Point>
            <coordinates>0,0,12000</coordinates>
          </Point>
        </Placemark>
        <Placemark>
          <name> (F900)</name>
          <description>Branch: &#xA;Altitude: 0 ft&#xA;Speed: 0.0 kts&#xA;Heading: 0.0&#xA;Mission: </description>
          <Point>
            <coordinates>0,0,0</coordinates>
          </Point>
        </Placemark>
        <Placemark>
          <name> ()</name>
          <description>Branch: &#xA;Altitude: 0 ft&#xA;Speed: 287.7 kts&#xA;Heading: 80.8&#xA;Mission: </description>
          <Point>
            <coordinates>0,0,0</coordinates>
          </Point>
        </Placemark>
        <Placemark>
          <name>POBOY85 (EC45)</name>
          <description>Branch: &#xA;Altitude: 950 ft&#xA;Speed: 81.2 kts&#xA;Heading: 232.0&#xA;Mission: </description>
          <Point>
            <coordinates>-86.637799,31.853622,950</coordinates>
          </Point>
        </Placemark>
        <Placemark>
          <name> (C30J)</name>
          <description>Branch: &#xA;Altitude: 27000 ft&#xA;Speed: 0.0 kts&#xA;Heading: 0.0&#xA;Mission: </description>
          <Point>
            <coordinates>0,0,27000</coordinates>
          </Point>
        </Placemark>
        <Placemark>
          <name> (TEX2)</name>
          <description>Branch: &#xA;Altitude: 5850 ft&#xA;Speed: 209.5 kts&#xA;Heading: 188.8&#xA;Mission: </description>
          <Point>
            <coordinates>-88.512193,33.247888,5850</coordinates>
          </Point>
        </Placemark>
        <Placemark>
          <name>POBOY20 (EC45)</name>
          <description>Branch: &#xA;Altitude: 2725 ft&#xA;Speed: 99.3 kts&#xA;Heading: 302.2&#xA;Mission: </description>
          <Point>
            <coordinates>-85.113507,30.777969,2725</coordinates>
          </Point>
        </Placemark>
        <Placemark>
          <name>WING47 (C560)</name>
          <description>Branch: &#xA;Altitude: 14750 ft&#xA;Speed: 305.6 kts&#xA;Heading: 14.4&#xA;Mission: </description>
          <Point>
            <coordinates>-82.498398,28.699585,14750</coordinates>
          </Point>
        </Placemark>
        <Placemark>
          <name> (K35R)</name>
          <description>Branch: &#xA;Altitude: 17600 ft&#xA;Speed: 398.0 kts&#xA;Heading: 166.1&#xA;Mission: </description>
          <Point>
            <coordinates>0,0,17600</coordinates>
          </Point>
        </Placemark>
        <Placemark>
          <name>PLF032 (C295)</name>
          <description>Branch: &#xA;Altitude: 18000 ft&#xA;Speed: 0.0 kts&#xA;Heading: 0.0&#xA;Mission: </description>
          <Point>
            <coordinates>0,0,18000</coordinates>
          </Point>
        </Placemark>
        <Placemark>
          <name>BGST362 ()</name>
          <description>Branch: &#xA;Altitude: 17950 ft&#xA;Speed: 211.9 kts&#xA;Heading: 57.1&#xA;Mission: </description>
          <Point>
            <coordinates>-97.049631,28.011383,17950</coordinates>
          </Point>
        </Placemark>
        <Placemark>
          <name>JEDI19 (TEX2)</name>
          <description>Branch: &#xA;Altitude: 600 ft&#xA;Speed: 221.0 kts&#xA;Heading: 345.4&#xA;Mission: </description>
          <Point>
            <coordinates>-87.969306,31.324127,600</coordinates>
          </Point>
        </Placemark>
        <Placemark>
          <name>WEIRD24 (EC45)</name>
          <description>Branch: &#xA;Altitude: 1700 ft&#xA;Speed: 88.4 kts&#xA;Heading: 136.4&#xA;Mission: </description>
          <Point>
            <coordinates>-85.142427,30.802368,1700</coordinates>
          </Point>
        </Placemark>
        <Placemark>
          <name>PAT104 (C560)</name>
          <description>Branch: &#xA;Altitude: 6325 ft&#xA;Speed: 244.4 kts&#xA;Heading: 195.9&#xA;Mission: </description>
          <Point>
            <coordinates>-78.854078,35.659712,6325</coordinates>
          </Point>
        </Placemark>
        <Placemark>
          <name>BP02 (T38)</name>
          <description>Branch: &#xA;Altitude: 3600 ft&#xA;Speed: 356.5 kts&#xA;Heading: 70.5&#xA;Mission: </description>
          <Point>
            <coordinates>-76.190962,37.139375,3600</coordinates>
          </Point>
        </Placemark>
        <Placemark>
          <name>TR99 (G120)</name>
          <description>Branch: &#xA;Altitude: 3575 ft&#xA;Speed: 131.5 kts&#xA;Heading: 26.2&#xA;Mission: </description>
          <Point>
            <coordinates>16.007904,58.964264,3575</coordinates>
          </Point>
        </Placemark>
        <Placemark>
          <name> (EC45)</name>
          <description>Branch: &#xA;Altitude: 375 ft&#xA;Speed: 55.6 kts&#xA;Heading: 120.3&#xA;Mission: </description>
          <Point>
            <coordinates>0,0,375</coordinates>
          </Point>
        </Placemark>
        <Placemark>
          <name> (H64)</name>
          <description>Branch: &#xA;Altitude: 0 ft&#xA;Speed: 0.0 kts&#xA;Heading: 0.0&#xA;Mission: </description>
          <Point>
            <coordinates>0,0,0</coordinates>
          </Point>
        </Placemark>
        <Placemark>
          <name>RN163 (TEX2)</name>
          <description>Branch: &#xA;Altitude: 7275 ft&#xA;Speed: 270.4 kts&#xA;Heading: 108.8&#xA;Mission: </description>
          <Point>
            <coordinates>-86.453624,31.389908,7275</coordinates>
          </Point>
        </Placemark>
        <Placemark>
          <name>FORGE94 (GLF5)</name>
          <description>Branch: &#xA;Altitude: 2300 ft&#xA;Speed: 143.1 kts&#xA;Heading: 38.5&#xA;Mission: </description>
          <Point>
            <coordinates>-71.084976,41.557663,2300</coordinates>
          </Point>
        </Placemark>
        <Placemark>
          <name> (H64)</name>
          <description>Branch: &#xA;Altitude: 600 ft&#xA;Speed: 0.0 kts&#xA;Heading: 0.0&#xA;Mission: </description>
          <Point>
            <coordinates>0,0,600</coordinates>
          </Point>
        </Placemark>
        <Placemark>
          <name> (P3)</name>
          <description>Branch: &#xA;Altitude: 0 ft&#xA;Speed: 0.0 kts&#xA;Heading: 0.0&#xA;Mission: </description>
          <Point>
            <coordinates>0,0,0</coordinates>
          </Point>
        </Placemark>
        <Placemark>
          <name> (C17)</name>
          <description>Branch: &#xA;Altitude: 11350 ft&#xA;Speed: 0.0 kts&#xA;Heading: 0.0&#xA;Mission: </description>
          <Point>
            <coordinates>0,0,11350</coordinates>
          </Point>
        </Placemark>
        <Placemark>
          <name>SYS62 (EC35)</name>
          <description>Branch: &#xA;Altitude: 2075 ft&#xA;Speed: 113.2 kts&#xA;Heading: 357.0&#xA;Mission: </description>
          <Point>
            <coordinates>-2.573861,52.878687,2075</coordinates>
          </Point>
        </Placemark>
        <Placemark>
          <name>DMGDI ()</name>
          <description>Branch: &#xA;Altitude: 6750 ft&#xA;Speed: 0.0 kts&#xA;Heading: 0.0&#xA;Mission: </description>
          <Point>
            <coordinates>0,0,6750</coordinates>
          </Point>
        </Placemark>
        <Placemark>
          <name>JIMMY49 (TEX2)</name>
          <description>Branch: &#xA;Altitude: 6750 ft&#xA;Speed: 249.7 kts&#xA;Heading: 43.2&#xA;Mission: </description>
          <Point>
            <coordinates>-88.58523,33.081091,6750</coordinates>
          </Point>
        </Placemark>
        <Placemark>
          <name>JEDI66 (TEX2)</name>
          <description>Branch: &#xA;Altitude: 850 ft&#xA;Speed: 239.0 kts&#xA;Heading: 44.0&#xA;Mission: </description>
          <Point>
            <coordinates>-88.347796,30.940842,850</coordinates>
          </Point>
        </Placemark>
        <Placemark>
          <name>SAVER23 (EC45)</name>
          <description>Branch: &#xA;Altitude: 725 ft&#xA;Speed: 78.8 kts&#xA;Heading: 241.2&#xA;Mission: </description>
          <Point>
            <coordinates>-85.575095,31.237244,725</coordinates>
          </Point>
        </Placemark>
        <Placemark>
          <name>CO56 (TUCA)</name>
          <description>Branch: &#xA;Altitude: 11225 ft&#xA;Speed: 194.8 kts&#xA;Heading: 108.2&#xA;Mission: </description>
          <Point>
            <coordinates>-47.559065,-22.208313,11225</coordinates>
          </Point>
        </Placemark>
        <Placemark>
          <name>MITY88 ()</name>
          <description>Branch: &#xA;Altitude: 3975 ft&#xA;Speed: 87.3 kts&#xA;Heading: 256.8&#xA;Mission: </description>
          <Point>
            <coordinates>9.680256,48.197813,3975</coordinates>
          </Point>
        </Placemark>
        <Placemark>
          <name>SALTY02 (H64)</name>
          <description>Branch: &#xA;Altitude: 6000 ft&#xA;Speed: 122.7 kts&#xA;Heading: 72.5&#xA;Mission: </description>
          <Point>
            <coordinates>11.301679,49.365622,6000</coordinates>
          </Point>
        </Placemark>
        <Placemark>
          <name>VOODO17 ()</name>
          <description>Branch: &#xA;Altitude: 950 ft&#xA;Speed: 0.0 kts&#xA;Heading: 0.0&#xA;Mission: </description>
          <Point>
            <coordinates>0,0,950</coordinates>
          </Point>
        </Placemark>
        <Placemark>
          <name>TEST1234 (TWR)</name>
          <description>Branch: &#xA;Altitude: 0 ft&#xA;Speed: 0.0 kts&#xA;Heading: 0.0&#xA;Mission: </description>
          <Point>
            <coordinates>0,0,0</coordinates>
          </Point>
        </Placemark>
        <Placemark>
          <name>PAT841 (BE20)</name>
          <description>Branch: &#xA;Altitude: 24000 ft&#xA;Speed: 216.4 kts&#xA;Heading: 223.5&#xA;Mission: </description>
          <Point>
            <coordinates>-78.002867,41.131742,24000</coordinates>
          </Point>
        </Placemark>
        <Placemark>
          <name>TEST1234 ()</name>
          <description>Branch: &#xA;Altitude: 0 ft&#xA;Speed: 0.0 kts&#xA;Heading: 0.0&#xA;Mission: </description>
          <Point>
            <coordinates>0,0,0</coordinates>
          </Point>
        </Placemark>
        <Placemark>
          <name> ()</name>
          <description>Branch: &#xA;Altitude: 300 ft&#xA;Speed: 0.0 kts&#xA;Heading: 0.0&#xA;Mission: </description>
          <Point>
            <coordinates>0,0,300</coordinates>
          </Point>
        </Placemark>
        <Placemark>
          <name> (H64)</name>
          <description>Branch: &#xA;Altitude: 600 ft&#xA;Speed: 0.0 kts&#xA;Heading: 0.0&#xA;Mission: </description>
          <Point>
            <coordinates>0,0,600</coordinates>
          </Point>
        </Placemark>
        <Placemark>
          <name>A933 (PC7)</name>
          <description>Branch: &#xA;Altitude: 1600 ft&#xA;Speed: 0.0 kts&#xA;Heading: 0.0&#xA;Mission: </description>
          <Point>
            <coordinates>0,0,1600</coordinates>
          </Point>
        </Placemark>
        <Placemark>
          <name>CTM1740 (E121)</name>
          <description>Branch: &#xA;Altitude: 975 ft&#xA;Speed: 0.0 kts&#xA;Heading: 0.0&#xA;Mission: </description>
          <Point>
            <coordinates>0,0,975</coordinates>
          </Point>
        </Placemark>
        <Placemark>
          <name> ()</name>
          <description>Branch: &#xA;Altitude: 0 ft&#xA;Speed: 0.0 kts&#xA;Heading: 0.0&#xA;Mission: </description>
          <Point>
            <coordinates>0,0,0</coordinates>
          </Point>
        </Placemark>
        <Placemark>
          <name>POBOY02 (EC45)</name>
          <description>Branch: &#xA;Altitude: 2675 ft&#xA;Speed: 84.4 kts&#xA;Heading: 126.3&#xA;Mission: </description>
          <Point>
            <coordinates>-85.059222,31.268143,2675</coordinates>
          </Point>
        </Placemark>
        <Placemark>
          <name>R20946 (H60)</name>
          <description>Branch: &#xA;Altitude: 0 ft&#xA;Speed: 0.0 kts&#xA;Heading: 0.0&#xA;Mission: </description>
          <Point>
            <coordinates>-75.706436,44.054192,0</coordinates>
          </Point>
        </Placemark>
        <Placemark>
          <name> ()</name>
          <description>Branch: &#xA;Altitude: 0 ft&#xA;Speed: 0.0 kts&#xA;Heading: 0.0&#xA;Mission: </description>
          <Point>
            <coordinates>0,0,0</coordinates>
          </Point>
        </Placemark>
        <Placemark>
          <name> (K35R)</name>
          <description>Branch: &#xA;Altitude: 25 ft&#xA;Speed: 0.0 kts&#xA;Heading: 0.0&#xA;Mission: </description>
          <Point>
            <coordinates>0,0,25</coordinates>
          </Point>
        </Placemark>
        <Placemark>
          <name>096210 (C30J)</name>
          <description>Branch: &#xA;Altitude: 9775 ft&#xA;Speed: 0.7 kts&#xA;Heading: 0.0&#xA;Mission: </description>
          <Point>
            <coordinates>-106.590385,35.047225,9775</coordinates>
          </Point>
        </Placemark>
        <Placemark>
          <name>GRIFFON (AS50)</name>
          <description>Branch: &#xA;Altitude: 0 ft&#xA;Speed: 0.0 kts&#xA;Heading: 0.0&#xA;Mission: </description>
          <Point>
            <coordinates>0,0,0</coordinates>
          </Point>
        </Placemark>
        <Placemark>
          <name>VUAVF (B77W)</name>
          <description>Branch: &#xA;Altitude: 34625 ft&#xA;Speed: 450.5 kts&#xA;Heading: 357.3&#xA;Mission: </description>
          <Point>
            <coordinates>77.194035,26.56105,34625</coordinates>
          </Point>
        </Placemark>
        <Placemark>
          <name> (CL2T)</name>
          <description>Branch: &#xA;Altitude: 150 ft&#xA;Speed: 0.0 kts&#xA;Heading: 0.0&#xA;Mission: </description>
          <Point>
            <coordinates>0,0,150</coordinates>
          </Point>
        </Placemark>
        <Placemark>
          <name> (K35R)</name>
          <description>Branch: &#xA;Altitude: 16550 ft&#xA;Speed: 377.9 kts&#xA;Heading: 54.6&#xA;Mission: </description>
          <Point>
            <coordinates>-87.662397,43.160488,16550</coordinates>
          </Point>
        </Placemark>
        <Placemark>
          <name>RRR6102 (C17)</name>
          <description>Branch: &#xA;Altitude: 32000 ft&#xA;Speed: 367.2 kts&#xA;Heading: 254.0&#xA;Mission: </description>
          <Point>
            <coordinates>-83.678589,41.313583,32000</coordinates>
          </Point>
        </Placemark>
        <Placemark>
          <name>SNIPR12 ()</name>
          <description>Branch: &#xA;Altitude: 33275 ft&#xA;Speed: 0.0 kts&#xA;Heading: 0.0&#xA;Mission: </description>
          <Point>
            <coordinates>7.325624,54.523381,33275</coordinates>
          </Point>
        </Placemark>
        <Placemark>
          <name>MMF11 (A332)</name>
          <description>Branch: &#xA;Altitude: 23000 ft&#xA;Speed: 349.3 kts&#xA;Heading: 48.6&#xA;Mission: </description>
          <Point>
            <coordinates>17.530018,56.262268,23000</coordinates>
          </Point>
        </Placemark>
        <Placemark>
          <name> (H64)</name>
          <description>Branch: &#xA;Altitude: 600 ft&#xA;Speed: 0.0 kts&#xA;Heading: 0.0&#xA;Mission: </description>
          <Point>
            <coordinates>0,0,600</coordinates>
          </Point>
        </Placemark>
        <Placemark>
          <name>MOOSE57 (C17)</name>
          <description>Branch: &#xA;Altitude: 35975 ft&#xA;Speed: 0.0 kts&#xA;Heading: 0.0&#xA;Mission: </description>
          <Point>
            <coordinates>0,0,35975</coordinates>
          </Point>
        </Placemark>
        <Placemark>
          <name> (TEX2)</name>
          <description>Branch: &#xA;Altitude: 0 ft&#xA;Speed: 0.0 kts&#xA;Heading: 0.0&#xA;Mission: </description>
          <Point>
            <coordinates>0,0,0</coordinates>
          </Point>
        </Placemark>
        <Placemark>
          <name>NUKED39 (EC45)</name>
          <description>Branch: &#xA;Altitude: 250 ft&#xA;Speed: 43.6 kts&#xA;Heading: 99.2&#xA;Mission: </description>
          <Point>
            <coordinates>-85.742044,31.149582,250</coordinates>
          </Point>
        </Placemark>
        <Placemark>
          <name> (C30J)</name>
          <description>Branch: &#xA;Altitude: 6250 ft&#xA;Speed: 224.0 kts&#xA;Heading: 263.0&#xA;Mission: </description>
          <Point>
            <coordinates>-80.194039,32.957858,6250</coordinates>
          </Point>
        </Placemark>
        <Placemark>
          <name>GAF212 (A400)</name>
          <description>Branch: &#xA;Altitude: 4400 ft&#xA;Speed: 225.4 kts&#xA;Heading: 278.4&#xA;Mission: </description>
          <Point>
            <coordinates>-0.239114,53.33988,4400</coordinates>
          </Point>
        </Placemark>
        <Placemark>
          <name> (K35R)</name>
          <description>Branch: &#xA;Altitude: 37025 ft&#xA;Speed: 0.0 kts&#xA;Heading: 0.0&#xA;Mission: </description>
          <Point>
            <coordinates>0,0,37025</coordinates>
          </Point>
        </Placemark>
        <Placemark>
          <name>HUF122 (A319)</name>
          <description>Branch: &#xA;Altitude: 19250 ft&#xA;Speed: 417.2 kts&#xA;Heading: 315.4&#xA;Mission: </description>
          <Point>
            <coordinates>20.986566,46.128754,19250</coordinates>
          </Point>
        </Placemark>
        <Placemark>
          <name> (C5M)</name>
          <description>Branch: &#xA;Altitude: 0 ft&#xA;Speed: 0.0 kts&#xA;Heading: 0.0&#xA;Mission: </description>
          <Point>
            <coordinates>0,0,0</coordinates>
          </Point>
        </Placemark>
        <Placemark>
          <name> (K35R)</name>
          <description>Branch: &#xA;Altitude: 37050 ft&#xA;Speed: 476.0 kts&#xA;Heading: 122.5&#xA;Mission: </description>
          <Point>
            <coordinates>0,0,37050</coordinates>
          </Point>
        </Placemark>
        <Placemark>
          <name> (EC45)</name>
          <description>Branch: &#xA;Altitude: 100 ft&#xA;Speed: 0.0 kts&#xA;Heading: 0.0&#xA;Mission: </description>
          <Point>
            <coordinates>-85.555811,31.22887,100</coordinates>
          </Point>
        </Placemark>
        <Placemark>
          <name>PNC0277 (E145)</name>
          <description>Branch: &#xA;Altitude: 32025 ft&#xA;Speed: 470.0 kts&#xA;Heading: 345.1&#xA;Mission: </description>
          <Point>
            <coordinates>-74.150406,7.970078,32025</coordinates>
          </Point>
        </Placemark>
        <Placemark>
          <name>DIAMO23 (PC7)</name>
          <description>Branch: &#xA;Altitude: 5500 ft&#xA;Speed: 203.0 kts&#xA;Heading: 276.0&#xA;Mission: </description>
          <Point>
            <coordinates>4.101132,51.595859,5500</coordinates>
          </Point>
        </Placemark>
        <Placemark>
          <name>CNV6302 (SW4)</name>
          <description>Branch: &#xA;Altitude: 20000 ft&#xA;Speed: 235.7 kts&#xA;Heading: 243.0&#xA;Mission: </description>
          <Point>
            <coordinates>20.534886,43.5735,20000</coordinates>
          </Point>
        </Placemark>
        <Placemark>
          <name>GAFTT33 ()</name>
          <description>Branch: &#xA;Altitude: 62700 ft&#xA;Speed: 0.0 kts&#xA;Heading: 0.0&#xA;Mission: </description>
          <Point>
            <coordinates>0,0,62700</coordinates>
          </Point>
        </Placemark>
        <Placemark>
          <name> (NH90)</name>
          <description>Branch: &#xA;Altitude: 7000 ft&#xA;Speed: 0.0 kts&#xA;Heading: 0.0&#xA;Mission: </description>
          <Point>
            <coordinates>0,0,7000</coordinates>
          </Point>
        </Placemark>
        <Placemark>
          <name>RRR1310 (F900)</name>
          <description>Branch: &#xA;Altitude: 14525 ft&#xA;Speed: 340.0 kts&#xA;Heading: 60.2&#xA;Mission: </description>
          <Point>
            <coordinates>22.095659,50.851547,14525</coordinates>
          </Point>
        </Placemark>
        <Placemark>
          <name>R03318 (H64)</name>
          <description>Branch: &#xA;Altitude: 0 ft&#xA;Speed: 45.0 kts&#xA;Heading: 121.1&#xA;Mission: </description>
          <Point>
            <coordinates>-106.341064,31.852753,0</coordinates>
          </Point>
        </Placemark>
        <Placemark>
          <name>NUKED33 (EC45)</name>
          <description>Branch: &#xA;Altitude: 450 ft&#xA;Speed: 65.5 kts&#xA;Heading: 195.9&#xA;Mission: </description>
          <Point>
            <coordinates>-85.756146,31.163651,450</coordinates>
          </Point>
        </Placemark>
        <Placemark>
          <name> (EC45)</name>
          <description>Branch: &#xA;Altitude: 225 ft&#xA;Speed: 0.0 kts&#xA;Heading: 0.0&#xA;Mission: </description>
          <Point>
            <coordinates>-85.72868,31.14773,225</coordinates>
          </Point>
        </Placemark>
        <Placemark>
          <name>RIVER21 ()</name>
          <description>Branch: &#xA;Altitude: 5100 ft&#xA;Speed: 274.3 kts&#xA;Heading: 95.7&#xA;Mission: </description>
          <Point>
            <coordinates>-82.110799,25.406021,5100</coordinates>
          </Point>
        </Placemark>
        <Placemark>
          <name>GRFN433 (A109)</name>
          <description>Branch: &#xA;Altitude: 400 ft&#xA;Speed: 153.0 kts&#xA;Heading: 42.0&#xA;Mission: </description>
          <Point>
            <coordinates>3.131227,51.164817,400</coordinates>
          </Point>
        </Placemark>
        <Placemark>
          <name>GAM500A (EC35)</name>
          <description>Branch: &#xA;Altitude: 150 ft&#xA;Speed: 52.8 kts&#xA;Heading: 288.8&#xA;Mission: </description>
          <Point>
            <coordinates>8.904419,52.647949,150</coordinates>
          </Point>
        </Placemark>
        <Placemark>
          <name> (B350)</name>
          <description>Branch: &#xA;Altitude: 0 ft&#xA;Speed: 0.0 kts&#xA;Heading: 0.0&#xA;Mission: </description>
          <Point>
            <coordinates>0,0,0</coordinates>
          </Point>
        </Placemark>
        <Placemark>
          <name>JEDI26 (TEX2)</name>
          <description>Branch: &#xA;Altitude: 1225 ft&#xA;Speed: 239.2 kts&#xA;Heading: 37.0&#xA;Mission: </description>
          <Point>
            <coordinates>-87.918695,31.110069,1225</coordinates>
          </Point>
        </Placemark>
        <Placemark>
          <name>MX054 (TEX2)</name>
          <description>Branch: &#xA;Altitude: 24875 ft&#xA;Speed: 192.0 kts&#xA;Heading: 270.0&#xA;Mission: </description>
          <Point>
            <coordinates>-86.987915,31.166382,24875</coordinates>
          </Point>
        </Placemark>
        <Placemark>
          <name>PHORSE ()</name>
          <description>Branch: &#xA;Altitude: 17525 ft&#xA;Speed: 480.0 kts&#xA;Heading: 90.7&#xA;Mission: </description>
          <Point>
            <coordinates>-82.254232,25.525406,17525</coordinates>
          </Point>
        </Placemark>
        <Placemark>
          <name>GNY4370 ()</name>
          <description>Branch: &#xA;Altitude: 625 ft&#xA;Speed: 130.1 kts&#xA;Heading: 267.8&#xA;Mission: </description>
          <Point>
            <coordinates>8.99231,53.833706,625</coordinates>
          </Point>
        </Placemark>
        <Placemark>
          <name>AZUR32 ()</name>
          <description>Branch: &#xA;Altitude: 125 ft&#xA;Speed: 2.3 kts&#xA;Heading: 153.4&#xA;Mission: </description>
          <Point>
            <coordinates>4.918043,43.519958,125</coordinates>
          </Point>
        </Placemark>
        <Placemark>
          <name>MM55064 (M339)</name>
          <description>Branch: &#xA;Altitude: 900 ft&#xA;Speed: 0.0 kts&#xA;Heading: 0.0&#xA;Mission: </description>
          <Point>
            <coordinates>0,0,900</coordinates>
          </Point>
        </Placemark>
        <Placemark>
          <name>R8724644 (H60)</name>
          <description>Branch: &#xA;Altitude: 2800 ft&#xA;Speed: 107.5 kts&#xA;Heading: 71.6&#xA;Mission: </description>
          <Point>
            <coordinates>-67.324369,18.217753,2800</coordinates>
          </Point>
        </Placemark>
        <Placemark>
          <name>TEST1234 (TWR)</name>
          <description>Branch: &#xA;Altitude: 0 ft&#xA;Speed: 0.0 kts&#xA;Heading: 0.0&#xA;Mission: </description>
          <Point>
            <coordinates>0,0,0</coordinates>
          </Point>
        </Placemark>
        <Placemark>
          <name>SVF816 (C130)</name>
          <description>Branch: &#xA;Altitude: 3500 ft&#xA;Speed: 0.0 kts&#xA;Heading: 0.0&#xA;Mission: </description>
          <Point>
            <coordinates>0,0,3500</coordinates>
          </Point>
        </Placemark>
        <Placemark>
          <name>BELL40 (B212)</name>
          <description>Branch: &#xA;Altitude: 0 ft&#xA;Speed: 0.0 kts&#xA;Heading: 0.0&#xA;Mission: </description>
          <Point>
            <coordinates>0,0,0</coordinates>
          </Point>
        </Placemark>
        <Placemark>
          <name> ()</name>
          <description>Branch: &#xA;Altitude: 0 ft&#xA;Speed: 0.0 kts&#xA;Heading: 0.0&#xA;Mission: </description>
          <Point>
            <coordinates>0,0,0</coordinates>
          </Point>
        </Placemark>
        <Placemark>
          <name>MM55076 (M339)</name>
          <description>Branch: &#xA;Altitude: -200 ft&#xA;Speed: 0.0 kts&#xA;Heading: 0.0&#xA;Mission: </description>
          <Point>
            <coordinates>0,0,-200</coordinates>
          </Point>
        </Placemark>
        <Placemark>
          <name> (P8)</name>
          <description>Branch: &#xA;Altitude: 33000 ft&#xA;Speed: 440.0 kts&#xA;Heading: 36.0&#xA;Mission: </description>
          <Point>
            <coordinates>-79.992478,33.539174,33000</coordinates>
          </Point>
        </Placemark>
        <Placemark>
          <name>SUI001 (GL7T)</name>
          <description>Branch: &#xA;Altitude: 0 ft&#xA;Speed: 0.1 kts&#xA;Heading: 0.0&#xA;Mission: </description>
          <Point>
            <coordinates>7.504074,46.910156,0</coordinates>
          </Point>
        </Placemark>
        <Placemark>
          <name>R72106 (EC45)</name>
          <description>Branch: &#xA;Altitude: 3350 ft&#xA;Speed: 102.7 kts&#xA;Heading: 144.9&#xA;Mission: </description>
          <Point>
            <coordinates>10.967665,47.728287,3350</coordinates>
          </Point>
        </Placemark>
        <Placemark>
          <name>BB141 (TEX2)</name>
          <description>Branch: &#xA;Altitude: 9400 ft&#xA;Speed: 125.9 kts&#xA;Heading: 247.1&#xA;Mission: </description>
          <Point>
            <coordinates>-87.109058,31.274911,9400</coordinates>
          </Point>
        </Placemark>
        <Placemark>
          <name>BONES41 (T38)</name>
          <description>Branch: &#xA;Altitude: 16700 ft&#xA;Speed: 467.0 kts&#xA;Heading: 90.4&#xA;Mission: </description>
          <Point>
            <coordinates>-88.572578,34.109569,16700</coordinates>
          </Point>
        </Placemark>
        <Placemark>
          <name>DAF4385 (CL60)</name>
          <description>Branch: &#xA;Altitude: 5450 ft&#xA;Speed: 309.1 kts&#xA;Heading: 133.6&#xA;Mission: </description>
          <Point>
            <coordinates>9.256153,57.203201,5450</coordinates>
          </Point>
        </Placemark>
        <Placemark>
          <name>CTM2081 (C30J)</name>
          <description>Branch: &#xA;Altitude: 0 ft&#xA;Speed: 52.5 kts&#xA;Heading: 293.0&#xA;Mission: </description>
          <Point>
            <coordinates>18.473995,54.375469,0</coordinates>
          </Point>
        </Placemark>
        <Placemark>
          <name>TEST1234 ()</name>
          <description>Branch: &#xA;Altitude: 0 ft&#xA;Speed: 0.0 kts&#xA;Heading: 0.0&#xA;Mission: </description>
          <Point>
            <coordinates>0,0,0</coordinates>
          </Point>
        </Placemark>
        <Placemark>
          <name>VUAVV (E35L)</name>
          <description>Branch: &#xA;Altitude: 8050 ft&#xA;Speed: 244.0 kts&#xA;Heading: 269.5&#xA;Mission: </description>
          <Point>
            <coordinates>77.692889,28.555282,8050</coordinates>
          </Point>
        </Placemark>
        <Placemark>
          <name>BELLS45 (EC45)</name>
          <description>Branch: &#xA;Altitude: 150 ft&#xA;Speed: 22.4 kts&#xA;Heading: 116.6&#xA;Mission: </description>
          <Point>
            <coordinates>-85.650732,31.231477,150</coordinates>
          </Point>
        </Placemark>
        <Placemark>
          <name>BAF670 (A400)</name>
          <description>Branch: &#xA;Altitude: 2825 ft&#xA;Speed: 234.4 kts&#xA;Heading: 154.2&#xA;Mission: </description>
          <Point>
            <coordinates>4.563186,50.359745,2825</coordinates>
          </Point>
        </Placemark>
        <Placemark>
          <name>BAT01 (H64)</name>
          <description>Branch: &#xA;Altitude: 100 ft&#xA;Speed: 45.3 kts&#xA;Heading: 45.0&#xA;Mission: </description>
          <Point>
            <coordinates>4.937592,51.559164,100</coordinates>
          </Point>
        </Placemark>
        <Placemark>
          <name>SALTY11 (H64)</name>
          <description>Branch: &#xA;Altitude: 1700 ft&#xA;Speed: 86.4 kts&#xA;Heading: 73.9&#xA;Mission: </description>
          <Point>
            <coordinates>10.655259,49.310989,1700</coordinates>
          </Point>
        </Placemark>
        <Placemark>
          <name>OLIVE27 (C135)</name>
          <description>Branch: &#xA;Altitude: 36000 ft&#xA;Speed: 428.9 kts&#xA;Heading: 297.3&#xA;Mission: </description>
          <Point>
            <coordinates>-8.769764,49.99585,36000</coordinates>
          </Point>
        </Placemark>
        <Placemark>
          <name>TEST1234 ()</name>
          <description>Branch: &#xA;Altitude: 0 ft&#xA;Speed: 0.0 kts&#xA;Heading: 0.0&#xA;Mission: </description>
          <Point>
            <coordinates>0,0,0</coordinates>
          </Point>
        </Placemark>
        <Placemark>
          <name>VIPER83 (PC7)</name>
          <description>Branch: &#xA;Altitude: 7000 ft&#xA;Speed: 0.0 kts&#xA;Heading: 0.0&#xA;Mission: </description>
          <Point>
            <coordinates>0,0,7000</coordinates>
          </Point>
        </Placemark>
        <Placemark>
          <name> (H64)</name>
          <description>Branch: &#xA;Altitude: 1300 ft&#xA;Speed: 0.0 kts&#xA;Heading: 0.0&#xA;Mission: </description>
          <Point>
            <coordinates>0,0,1300</coordinates>
          </Point>
        </Placemark>
        <Placemark>
          <name>EMOJI11 (EC45)</name>
          <description>Branch: &#xA;Altitude: 225 ft&#xA;Speed: 68.0 kts&#xA;Heading: 123.0&#xA;Mission: </description>
          <Point>
            <coordinates>-85.652271,31.232874,225</coordinates>
          </Point>
        </Placemark>
        <Placemark>
          <name> (K35R)</name>
          <description>Branch: &#xA;Altitude: 37000 ft&#xA;Speed: 0.0 kts&#xA;Heading: 0.0&#xA;Mission: </description>
          <Point>
            <coordinates>0,0,37000</coordinates>
          </Point>
        </Placemark>
        <Placemark>
          <name> (TEX2)</name>
          <description>Branch: &#xA;Altitude: 750 ft&#xA;Speed: 216.0 kts&#xA;Heading: 7.7&#xA;Mission: </description>
          <Point>
            <coordinates>0,0,750</coordinates>
          </Point>
        </Placemark>
        <Placemark>
          <name> (NH90)</name>
          <description>Branch: &#xA;Altitude: 0 ft&#xA;Speed: 0.0 kts&#xA;Heading: 0.0&#xA;Mission: </description>
          <Point>
            <coordinates>0,0,0</coordinates>
          </Point>
        </Placemark>
        <Placemark>
          <name>TEST1234 ()</name>
          <description>Branch: &#xA;Altitude: 0 ft&#xA;Speed: 0.0 kts&#xA;Heading: 0.0&#xA;Mission: </description>
          <Point>
            <coordinates>0,0,0</coordinates>
          </Point>
        </Placemark>
        <Placemark>
          <name>RCH460 (C17)</name>
          <description>Branch: &#xA;Altitude: 38000 ft&#xA;Speed: 399.0 kts&#xA;Heading: 273.0&#xA;Mission: </description>
          <Point>
            <coordinates>-88.001549,34.407565,38000</coordinates>
          </Point>
        </Placemark>
        <Placemark>
          <name>TRITN04 (NH90)</name>
          <description>Branch: &#xA;Altitude: 50 ft&#xA;Speed: 16.0 kts&#xA;Heading: 273.6&#xA;Mission: </description>
          <Point>
            <coordinates>3.153299,51.404526,50</coordinates>
          </Point>
        </Placemark>
        <Placemark>
          <name>T335 (AS32)</name>
          <description>Branch: &#xA;Altitude: 4950 ft&#xA;Speed: 132.0 kts&#xA;Heading: 70.2&#xA;Mission: </description>
          <Point>
            <coordinates>7.849113,46.792263,4950</coordinates>
          </Point>
        </Placemark>
        <Placemark>
          <name>DIESL31 (C30J)</name>
          <description>Branch: &#xA;Altitude: 27025 ft&#xA;Speed: 312.5 kts&#xA;Heading: 3.1&#xA;Mission: </description>
          <Point>
            <coordinates>11.456197,61.75415,27025</coordinates>
          </Point>
        </Placemark>
        <Placemark>
          <name>CTM1485 (CN35)</name>
          <description>Branch: &#xA;Altitude: 14600 ft&#xA;Speed: 0.0 kts&#xA;Heading: 0.0&#xA;Mission: </description>
          <Point>
            <coordinates>0,0,14600</coordinates>
          </Point>
        </Placemark>
        <Placemark>
          <name>FMAYJ (AS55)</name>
          <description>Branch: &#xA;Altitude: 6575 ft&#xA;Speed: 0.0 kts&#xA;Heading: 0.0&#xA;Mission: </description>
          <Point>
            <coordinates>0,0,6575</coordinates>
          </Point>
        </Placemark>
        <Placemark>
          <name>TEST1234 ()</name>
          <description>Branch: &#xA;Altitude: 0 ft&#xA;Speed: 0.0 kts&#xA;Heading: 0.0&#xA;Mission: </description>
          <Point>
            <coordinates>0,0,0</coordinates>
          </Point>
        </Placemark>
        <Placemark>
          <name>BB224 (TEX2)</name>
          <description>Branch: &#xA;Altitude: 4250 ft&#xA;Speed: 231.4 kts&#xA;Heading: 3.2&#xA;Mission: </description>
          <Point>
            <coordinates>-86.986569,30.876114,4250</coordinates>
          </Point>
        </Placemark>
        <Placemark>
          <name>UAT61 (G115)</name>
          <description>Branch: &#xA;Altitude: 1075 ft&#xA;Speed: 136.2 kts&#xA;Heading: 327.6&#xA;Mission: </description>
          <Point>
            <coordinates>-0.812836,52.459991,1075</coordinates>
          </Point>
        </Placemark>
        <Placemark>
          <name>RCH223 (C17)</name>
          <description>Branch: &#xA;Altitude: 36000 ft&#xA;Speed: 0.0 kts&#xA;Heading: 0.0&#xA;Mission: </description>
          <Point>
            <coordinates>0,0,36000</coordinates>
          </Point>
        </Placemark>
        <Placemark>
          <name>TEST1234 ()</name>
          <description>Branch: &#xA;Altitude: 0 ft&#xA;Speed: 0.0 kts&#xA;Heading: 0.0&#xA;Mission: </description>
          <Point>
            <coordinates>0,0,0</coordinates>
          </Point>
        </Placemark>
        <Placemark>
          <name>CINE33 (SR20)</name>
          <description>Branch: &#xA;Altitude: 1200 ft&#xA;Speed: 118.0 kts&#xA;Heading: 304.3&#xA;Mission: </description>
          <Point>
            <coordinates>0,0,1200</coordinates>
          </Point>
        </Placemark>
        <Placemark>
          <name> ()</name>
          <description>Branch: &#xA;Altitude: 0 ft&#xA;Speed: 0.0 kts&#xA;Heading: 0.0&#xA;Mission: </description>
          <Point>
            <coordinates>0,0,0</coordinates>
          </Point>
        </Placemark>
        <Placemark>
          <name>45646 (T134)</name>
          <description>Branch: &#xA;Altitude: 28000 ft&#xA;Speed: 0.0 kts&#xA;Heading: 0.0&#xA;Mission: </description>
          <Point>
            <coordinates>0,0,28000</coordinates>
          </Point>
        </Placemark>
        <Placemark>
          <name>WEIRD13 (EC45)</name>
          <description>Branch: &#xA;Altitude: 1575 ft&#xA;Speed: 84.5 kts&#xA;Heading: 219.7&#xA;Mission: </description>
          <Point>
            <coordinates>-86.245752,31.115935,1575</coordinates>
          </Point>
        </Placemark>
        <Placemark>
          <name>V613 (PC6T)</name>
          <description>Branch: &#xA;Altitude: 1125 ft&#xA;Speed: 86.6 kts&#xA;Heading: 310.3&#xA;Mission: </description>
          <Point>
            <coordinates>8.918621,46.165878,1125</coordinates>
          </Point>
        </Placemark>
        <Placemark>
          <name>TEST1234 (TWR)</name>
          <description>Branch: &#xA;Altitude: 0 ft&#xA;Speed: 0.0 kts&#xA;Heading: 0.0&#xA;Mission: </description>
          <Point>
            <coordinates>0,0,0</coordinates>
          </Point>
        </Placemark>
        <Placemark>
          <name> (EC45)</name>
          <description>Branch: &#xA;Altitude: 0 ft&#xA;Speed: 77.9 kts&#xA;Heading: 114.3&#xA;Mission: </description>
          <Point>
            <coordinates>0,0,0</coordinates>
          </Point>
        </Placemark>
        <Placemark>
          <name>MAE42 (PC21)</name>
          <description>Branch: &#xA;Altitude: 4000 ft&#xA;Speed: 240.8 kts&#xA;Heading: 212.1&#xA;Mission: </description>
          <Point>
            <coordinates>-0.507448,45.744736,4000</coordinates>
          </Point>
        </Placemark>
        <Placemark>
          <name> ()</name>
          <description>Branch: &#xA;Altitude: 0 ft&#xA;Speed: 0.0 kts&#xA;Heading: 0.0&#xA;Mission: </description>
          <Point>
            <coordinates>0,0,0</coordinates>
          </Point>
        </Placemark>
        <Placemark>
          <name>MX046 (TEX2)</name>
          <description>Branch: &#xA;Altitude: 10600 ft&#xA;Speed: 159.5 kts&#xA;Heading: 290.9&#xA;Mission: </description>
          <Point>
            <coordinates>-87.208649,30.978885,10600</coordinates>
          </Point>
        </Placemark>
        <Placemark>
          <name>SAVER48 (EC45)</name>
          <description>Branch: &#xA;Altitude: 650 ft&#xA;Speed: 92.8 kts&#xA;Heading: 329.6&#xA;Mission: </description>
          <Point>
            <coordinates>-85.546912,31.243628,650</coordinates>
          </Point>
        </Placemark>
        <Placemark>
          <name>FOXX367 (BE20)</name>
          <description>Branch: &#xA;Altitude: 23000 ft&#xA;Speed: 273.1 kts&#xA;Heading: 42.9&#xA;Mission: </description>
          <Point>
            <coordinates>-78.054028,35.088889,23000</coordinates>
          </Point>
        </Placemark>
        <Placemark>
          <name>VOODO25 ()</name>
          <description>Branch: &#xA;Altitude: 3750 ft&#xA;Speed: 0.0 kts&#xA;Heading: 0.0&#xA;Mission: </description>
          <Point>
            <coordinates>0,0,3750</coordinates>
          </Point>
        </Placemark>
        <Placemark>
          <name>EDGE14 (PC12)</name>
          <description>Branch: &#xA;Altitude: 3000 ft&#xA;Speed: 230.3 kts&#xA;Heading: 102.3&#xA;Mission: </description>
          <Point>
            <coordinates>11.745723,48.919876,3000</coordinates>
          </Point>
        </Placemark>
        <Placemark>
          <name>MM55068 (M339)</name>
          <description>Branch: &#xA;Altitude: 12900 ft&#xA;Speed: 0.0 kts&#xA;Heading: 0.0&#xA;Mission: </description>
          <Point>
            <coordinates>0,0,12900</coordinates>
          </Point>
        </Placemark>
        <Placemark>
          <name> (C27J)</name>
          <description>Branch: &#xA;Altitude: 24000 ft&#xA;Speed: 0.0 kts&#xA;Heading: 0.0&#xA;Mission: </description>
          <Point>
            <coordinates>0,0,24000</coordinates>
          </Point>
        </Placemark>
        <Placemark>
          <name>RECON21 (LYNX)</name>
          <description>Branch: &#xA;Altitude: 1375 ft&#xA;Speed: 0.0 kts&#xA;Heading: 0.0&#xA;Mission: </description>
          <Point>
            <coordinates>0,0,1375</coordinates>
          </Point>
        </Placemark>
        <Placemark>
          <name> (A748)</name>
          <description>Branch: &#xA;Altitude: 2900 ft&#xA;Speed: 0.0 kts&#xA;Heading: 0.0&#xA;Mission: </description>
          <Point>
            <coordinates>0,0,2900</coordinates>
          </Point>
        </Placemark>
        <Placemark>
          <name>CAPE05 (H60)</name>
          <description>Branch: &#xA;Altitude: 650 ft&#xA;Speed: 88.0 kts&#xA;Heading: 178.7&#xA;Mission: </description>
          <Point>
            <coordinates>-85.991638,31.349487,650</coordinates>
          </Point>
        </Placemark>
        <Placemark>
          <name>PAT26 (H60)</name>
          <description>Branch: &#xA;Altitude: 3375 ft&#xA;Speed: 115.0 kts&#xA;Heading: 310.1&#xA;Mission: </description>
          <Point>
            <coordinates>-77.755439,39.51622,3375</coordinates>
          </Point>
        </Placemark>
        <Placemark>
          <name>BN01 (T38)</name>
          <description>Branch: &#xA;Altitude: 2100 ft&#xA;Speed: 343.9 kts&#xA;Heading: 163.1&#xA;Mission: </description>
          <Point>
            <coordinates>-75.835,36.444397,2100</coordinates>
          </Point>
        </Placemark>
        <Placemark>
          <name>PANTR1 ()</name>
          <description>Branch: &#xA;Altitude: 15100 ft&#xA;Speed: 396.0 kts&#xA;Heading: 177.0&#xA;Mission: </description>
          <Point>
            <coordinates>9.110281,54.047486,15100</coordinates>
          </Point>
        </Placemark>
        <Placemark>
          <name>IEI2858 (D228)</name>
          <description>Branch: &#xA;Altitude: 13000 ft&#xA;Speed: 249.2 kts&#xA;Heading: 105.6&#xA;Mission: </description>
          <Point>
            <coordinates>15.671248,41.100924,13000</coordinates>
          </Point>
        </Placemark>
        <Placemark>
          <name>GOLD06 (B762)</name>
          <description>Branch: &#xA;Altitude: 30025 ft&#xA;Speed: 457.2 kts&#xA;Heading: 336.4&#xA;Mission: </description>
          <Point>
            <coordinates>22.078949,45.774257,30025</coordinates>
          </Point>
        </Placemark>
        <Placemark>
          <name>FMY8533 (AS32)</name>
          <description>Branch: &#xA;Altitude: 8000 ft&#xA;Speed: 0.0 kts&#xA;Heading: 0.0&#xA;Mission: </description>
          <Point>
            <coordinates>0,0,8000</coordinates>
          </Point>
        </Placemark>
        <Placemark>
          <name>FAB8821 (EC35)</name>
          <description>Branch: &#xA;Altitude: 2950 ft&#xA;Speed: 76.6 kts&#xA;Heading: 319.2&#xA;Mission: </description>
          <Point>
            <coordinates>-45.674061,-23.108597,2950</coordinates>
          </Point>
        </Placemark>
        <Placemark>
          <name>SH049 (TEX2)</name>
          <description>Branch: &#xA;Altitude: 3925 ft&#xA;Speed: 200.2 kts&#xA;Heading: 6.3&#xA;Mission: </description>
          <Point>
            <coordinates>-86.997766,30.804174,3925</coordinates>
          </Point>
        </Placemark>
        <Placemark>
          <name>SPUD38 (H60)</name>
          <description>Branch: &#xA;Altitude: 375 ft&#xA;Speed: 110.4 kts&#xA;Heading: 274.7&#xA;Mission: </description>
          <Point>
            <coordinates>-86.471827,31.225113,375</coordinates>
          </Point>
        </Placemark>
        <Placemark>
          <name>POBOY13 (EC45)</name>
          <description>Branch: &#xA;Altitude: 2675 ft&#xA;Speed: 89.8 kts&#xA;Heading: 198.8&#xA;Mission: </description>
          <Point>
            <coordinates>-85.505768,31.759752,2675</coordinates>
          </Point>
        </Placemark>
        <Placemark>
          <name>R01970 (T206)</name>
          <description>Branch: &#xA;Altitude: 2625 ft&#xA;Speed: 121.2 kts&#xA;Heading: 295.9&#xA;Mission: </description>
          <Point>
            <coordinates>-73.777937,41.835754,2625</coordinates>
          </Point>
        </Placemark>
        <Placemark>
          <name>00000000 ()</name>
          <description>Branch: &#xA;Altitude: 70000 ft&#xA;Speed: 0.7 kts&#xA;Heading: 0.0&#xA;Mission: </description>
          <Point>
            <coordinates>0,0,70000</coordinates>
          </Point>
        </Placemark>
        <Placemark>
          <name>TXLU03 (A139)</name>
          <description>Branch: &#xA;Altitude: 0 ft&#xA;Speed: 0.0 kts&#xA;Heading: 0.0&#xA;Mission: </description>
          <Point>
            <coordinates>0,0,0</coordinates>
          </Point>
        </Placemark>
        <Placemark>
          <name>RCH857 (C17)</name>
          <description>Branch: &#xA;Altitude: 33975 ft&#xA;Speed: 0.0 kts&#xA;Heading: 0.0&#xA;Mission: </description>
          <Point>
            <coordinates>0,0,33975</coordinates>
          </Point>
        </Placemark>
        <Placemark>
          <name> (K35R)</name>
          <description>Branch: &#xA;Altitude: 4875 ft&#xA;Speed: 0.0 kts&#xA;Heading: 0.0&#xA;Mission: </description>
          <Point>
            <coordinates>0,0,4875</coordinates>
          </Point>
        </Placemark>
        <Placemark>
          <name>POBOY41 (EC45)</name>
          <description>Branch: &#xA;Altitude: 3725 ft&#xA;Speed: 110.7 kts&#xA;Heading: 286.8&#xA;Mission: </description>
          <Point>
            <coordinates>-86.661287,31.474365,3725</coordinates>
          </Point>
        </Placemark>
        <Placemark>
          <name>ASLAN70 (A400)</name>
          <description>Branch: &#xA;Altitude: 1025 ft&#xA;Speed: 291.2 kts&#xA;Heading: 27.6&#xA;Mission: </description>
          <Point>
            <coordinates>-1.823137,51.476761,1025</coordinates>
          </Point>
        </Placemark>
        <Placemark>
          <name>UAQ23 (G115)</name>
          <description>Branch: &#xA;Altitude: 2275 ft&#xA;Speed: 103.8 kts&#xA;Heading: 254.4&#xA;Mission: </description>
          <Point>
            <coordinates>-1.665479,54.227631,2275</coordinates>
          </Point>
        </Placemark>
        <Placemark>
          <name>WIT31 (G115)</name>
          <description>Branch: &#xA;Altitude: 7700 ft&#xA;Speed: 87.9 kts&#xA;Heading: 160.7&#xA;Mission: </description>
          <Point>
            <coordinates>-0.514526,52.854858,7700</coordinates>
          </Point>
        </Placemark>
        <Placemark>
          <name> ()</name>
          <description>Branch: &#xA;Altitude: 0 ft&#xA;Speed: 0.0 kts&#xA;Heading: 0.0&#xA;Mission: </description>
          <Point>
            <coordinates>0,0,0</coordinates>
          </Point>
        </Placemark>
        <Placemark>
          <name>N7874N (C172)</name>
          <description>Branch: &#xA;Altitude: 6400 ft&#xA;Speed: 86.3 kts&#xA;Heading: 135.0&#xA;Mission: </description>
          <Point>
            <coordinates>-104.698853,38.810275,6400</coordinates>
          </Point>
        </Placemark>
        <Placemark>
          <name>RRR1914 (F900)</name>
          <description>Branch: &#xA;Altitude: 22900 ft&#xA;Speed: 406.1 kts&#xA;Heading: 88.9&#xA;Mission: </description>
          <Point>
            <coordinates>-1.957879,50.66217,22900</coordinates>
          </Point>
        </Placemark>
        <Placemark>
          <name>TEST1234 ()</name>
          <description>Branch: &#xA;Altitude: 0 ft&#xA;Speed: 0.0 kts&#xA;Heading: 0.0&#xA;Mission: </description>
          <Point>
            <coordinates>0,0,0</coordinates>
          </Point>
        </Placemark>
        <Placemark>
          <name>CFC2902 (C30J)</name>
          <description>Branch: &#xA;Altitude: 26000 ft&#xA;Speed: 358.4 kts&#xA;Heading: 272.6&#xA;Mission: </description>
          <Point>
            <coordinates>15.504456,50.047211,26000</coordinates>
          </Point>
        </Placemark>
        <Placemark>
          <name>GAF313 (C30J)</name>
          <description>Branch: &#xA;Altitude: 27000 ft&#xA;Speed: 300.0 kts&#xA;Heading: 23.5&#xA;Mission: </description>
          <Point>
            <coordinates>15.61744,67.499817,27000</coordinates>
          </Point>
        </Placemark>
        <Placemark>
          <name> (IL76)</name>
          <description>Branch: &#xA;Altitude: 31000 ft&#xA;Speed: 0.0 kts&#xA;Heading: 0.0&#xA;Mission: </description>
          <Point>
            <coordinates>0,0,31000</coordinates>
          </Point>
        </Placemark>
        <Placemark>
          <name>JANET31 (B736)</name>
          <description>Branch: &#xA;Altitude: 0 ft&#xA;Speed: 9.2 kts&#xA;Heading: 0.0&#xA;Mission: </description>
          <Point>
            <coordinates>-115.161037,36.09581,0</coordinates>
          </Point>
        </Placemark>
        <Placemark>
          <name>SSG04A (A319)</name>
          <description>Branch: &#xA;Altitude: 41000 ft&#xA;Speed: 449.0 kts&#xA;Heading: 103.3&#xA;Mission: </description>
          <Point>
            <coordinates>10.99623,49.934738,41000</coordinates>
          </Point>
        </Placemark>
        <Placemark>
          <name> (CL2T)</name>
          <description>Branch: &#xA;Altitude: 375 ft&#xA;Speed: 0.0 kts&#xA;Heading: 0.0&#xA;Mission: </description>
          <Point>
            <coordinates>0,0,375</coordinates>
          </Point>
        </Placemark>
        <Placemark>
          <name> (H60)</name>
          <description>Branch: &#xA;Altitude: 3250 ft&#xA;Speed: 107.2 kts&#xA;Heading: 143.3&#xA;Mission: </description>
          <Point>
            <coordinates>-86.244076,31.532181,3250</coordinates>
          </Point>
        </Placemark>
        <Placemark>
          <name>FNY55A2 (FA10)</name>
          <description>Branch: &#xA;Altitude: 21000 ft&#xA;Speed: 366.0 kts&#xA;Heading: 80.3&#xA;Mission: </description>
          <Point>
            <coordinates>-2.701079,48.946023,21000</coordinates>
          </Point>
        </Placemark>
        <Placemark>
          <name>UAA122 (G115)</name>
          <description>Branch: &#xA;Altitude: 2575 ft&#xA;Speed: 101.1 kts&#xA;Heading: 8.5&#xA;Mission: </description>
          <Point>
            <coordinates>-2.858193,56.388382,2575</coordinates>
          </Point>
        </Placemark>
        <Placemark>
          <name>RCH1841 (C17)</name>
          <description>Branch: &#xA;Altitude: 32000 ft&#xA;Speed: 406.0 kts&#xA;Heading: 223.0&#xA;Mission: </description>
          <Point>
            <coordinates>-76.868546,39.093273,32000</coordinates>
          </Point>
        </Placemark>
        <Placemark>
          <name> (K35R)</name>
          <description>Branch: &#xA;Altitude: 37000 ft&#xA;Speed: 0.0 kts&#xA;Heading: 0.0&#xA;Mission: </description>
          <Point>
            <coordinates>0,0,37000</coordinates>
          </Point>
        </Placemark>
        <Placemark>
          <name>SYS71 (EC35)</name>
          <description>Branch: &#xA;Altitude: 500 ft&#xA;Speed: 50.0 kts&#xA;Heading: 205.3&#xA;Mission: </description>
          <Point>
            <coordinates>-2.914886,52.734787,500</coordinates>
          </Point>
        </Placemark>
        <Placemark>
          <name>BDIT37 (TEX2)</name>
          <description>Branch: &#xA;Altitude: 0 ft&#xA;Speed: 14.2 kts&#xA;Heading: 295.3&#xA;Mission: </description>
          <Point>
            <coordinates>-105.568258,50.336981,0</coordinates>
          </Point>
        </Placemark>
        <Placemark>
          <name>UAA105 (G115)</name>
          <description>Branch: &#xA;Altitude: 3575 ft&#xA;Speed: 125.9 kts&#xA;Heading: 14.3&#xA;Mission: </description>
          <Point>
            <coordinates>-2.833224,56.359543,3575</coordinates>
          </Point>
        </Placemark>
        <Placemark>
          <name> (H64)</name>
          <description>Branch: &#xA;Altitude: 600 ft&#xA;Speed: 0.0 kts&#xA;Heading: 0.0&#xA;Mission: </description>
          <Point>
            <coordinates>0,0,600</coordinates>
          </Point>
        </Placemark>
        <Placemark>
          <name> (E121)</name>
          <description>Branch: &#xA;Altitude: 375 ft&#xA;Speed: 0.0 kts&#xA;Heading: 0.0&#xA;Mission: </description>
          <Point>
            <coordinates>0,0,375</coordinates>
          </Point>
        </Placemark>
        <Placemark>
          <name>BB190 (TEX2)</name>
          <description>Branch: &#xA;Altitude: 9425 ft&#xA;Speed: 117.1 kts&#xA;Heading: 92.0&#xA;Mission: </description>
          <Point>
            <coordinates>-87.315135,31.403275,9425</coordinates>
          </Point>
        </Placemark>
        <Placemark>
          <name>WINGS12 (TEX2)</name>
          <description>Branch: &#xA;Altitude: 10725 ft&#xA;Speed: 243.9 kts&#xA;Heading: 35.3&#xA;Mission: </description>
          <Point>
            <coordinates>-88.875389,33.928574,10725</coordinates>
          </Point>
        </Placemark>
        <Placemark>
          <name>RN129 (TEX2)</name>
          <description>Branch: &#xA;Altitude: 5400 ft&#xA;Speed: 242.1 kts&#xA;Heading: 1.4&#xA;Mission: </description>
          <Point>
            <coordinates>-86.99436,31.006863,5400</coordinates>
          </Point>
        </Placemark>
        <Placemark>
          <name>SAVER69 (EC45)</name>
          <description>Branch: &#xA;Altitude: 525 ft&#xA;Speed: 55.1 kts&#xA;Heading: 150.6&#xA;Mission: </description>
          <Point>
            <coordinates>-85.579596,31.230174,525</coordinates>
          </Point>
        </Placemark>
        <Placemark>
          <name>SAVER12 (EC45)</name>
          <description>Branch: &#xA;Altitude: 800 ft&#xA;Speed: 73.6 kts&#xA;Heading: 238.9&#xA;Mission: </description>
          <Point>
            <coordinates>-85.541113,31.220535,800</coordinates>
          </Point>
        </Placemark>
        <Placemark>
          <name>RCH227 (C17)</name>
          <description>Branch: &#xA;Altitude: 37975 ft&#xA;Speed: 371.3 kts&#xA;Heading: 288.0&#xA;Mission: </description>
          <Point>
            <coordinates>-84.642391,34.034713,37975</coordinates>
          </Point>
        </Placemark>
        <Placemark>
          <name>WING48 (C560)</name>
          <description>Branch: &#xA;Altitude: 30000 ft&#xA;Speed: 368.2 kts&#xA;Heading: 298.4&#xA;Mission: </description>
          <Point>
            <coordinates>-84.195648,30.354154,30000</coordinates>
          </Point>
        </Placemark>
        <Placemark>
          <name>G26561 (H60)</name>
          <description>Branch: &#xA;Altitude: 4700 ft&#xA;Speed: 139.6 kts&#xA;Heading: 73.8&#xA;Mission: </description>
          <Point>
            <coordinates>-81.935692,35.749329,4700</coordinates>
          </Point>
        </Placemark>
        <Placemark>
          <name>RCH178 (C30J)</name>
          <description>Branch: &#xA;Altitude: 24000 ft&#xA;Speed: 255.9 kts&#xA;Heading: 205.0&#xA;Mission: </description>
          <Point>
            <coordinates>-86.602011,36.656303,24000</coordinates>
          </Point>
        </Placemark>
        <Placemark>
          <name>C6606 (AS65)</name>
          <description>Branch: &#xA;Altitude: 1875 ft&#xA;Speed: 89.0 kts&#xA;Heading: 0.0&#xA;Mission: </description>
          <Point>
            <coordinates>-76.801778,38.7789,1875</coordinates>
          </Point>
        </Placemark>
        <Placemark>
          <name>CEF713 (L410)</name>
          <description>Branch: &#xA;Altitude: 2400 ft&#xA;Speed: 157.0 kts&#xA;Heading: 64.7&#xA;Mission: </description>
          <Point>
            <coordinates>14.120104,50.069725,2400</coordinates>
          </Point>
        </Placemark>
        <Placemark>
          <name>CO110 (TUCA)</name>
          <description>Branch: &#xA;Altitude: 10025 ft&#xA;Speed: 213.7 kts&#xA;Heading: 330.0&#xA;Mission: </description>
          <Point>
            <coordinates>-47.572449,-21.608414,10025</coordinates>
          </Point>
        </Placemark>
        <Placemark>
          <name>MC5002 (C5M)</name>
          <description>Branch: &#xA;Altitude: 37996 ft&#xA;Speed: 0.0 kts&#xA;Heading: 232.4&#xA;Mission: </description>
          <Point>
            <coordinates>90.846806,3.119087,37996</coordinates>
          </Point>
        </Placemark>
        <Placemark>
          <name>RCH1833 (C17)</name>
          <description>Branch: &#xA;Altitude: 32000 ft&#xA;Speed: 0.0 kts&#xA;Heading: 0.0&#xA;Mission: </description>
          <Point>
            <coordinates>0,0,32000</coordinates>
          </Point>
        </Placemark>
        <Placemark>
          <name> ()</name>
          <description>Branch: &#xA;Altitude: 0 ft&#xA;Speed: 0.0 kts&#xA;Heading: 0.0&#xA;Mission: </description>
          <Point>
            <coordinates>0,0,0</coordinates>
          </Point>
        </Placemark>
        <Placemark>
          <name>BARBO61 (CN35)</name>
          <description>Branch: &#xA;Altitude: 7900 ft&#xA;Speed: 0.0 kts&#xA;Heading: 0.0&#xA;Mission: </description>
          <Point>
            <coordinates>0,0,7900</coordinates>
          </Point>
        </Placemark>
        <Placemark>
          <name>AAC821 (G115)</name>
          <description>Branch: &#xA;Altitude: 4475 ft&#xA;Speed: 55.0 kts&#xA;Heading: 155.3&#xA;Mission: </description>
          <Point>
            <coordinates>-1.754303,50.97619,4475</coordinates>
          </Point>
        </Placemark>
        <Placemark>
          <name>NITRO1 ()</name>
          <description>Branch: &#xA;Altitude: 18800 ft&#xA;Speed: 382.0 kts&#xA;Heading: 202.0&#xA;Mission: </description>
          <Point>
            <coordinates>7.635018,51.736653,18800</coordinates>
          </Point>
        </Placemark>
        <Placemark>
          <name>MESSY05 (EC45)</name>
          <description>Branch: &#xA;Altitude: 750 ft&#xA;Speed: 93.0 kts&#xA;Heading: 244.5&#xA;Mission: </description>
          <Point>
            <coordinates>-85.555481,31.213275,750</coordinates>
          </Point>
        </Placemark>
        <Placemark>
          <name>GAF197 (A400)</name>
          <description>Branch: &#xA;Altitude: 33975 ft&#xA;Speed: 384.1 kts&#xA;Heading: 262.7&#xA;Mission: </description>
          <Point>
            <coordinates>22.258065,54.13385,33975</coordinates>
          </Point>
        </Placemark>
        <Placemark>
          <name>FMY8030 (TBM7)</name>
          <description>Branch: &#xA;Altitude: 0 ft&#xA;Speed: 0.0 kts&#xA;Heading: 0.0&#xA;Mission: </description>
          <Point>
            <coordinates>0,0,0</coordinates>
          </Point>
        </Placemark>
        <Placemark>
          <name> (H64)</name>
          <description>Branch: &#xA;Altitude: 500 ft&#xA;Speed: 0.0 kts&#xA;Heading: 0.0&#xA;Mission: </description>
          <Point>
            <coordinates>0,0,500</coordinates>
          </Point>
        </Placemark>
        <Placemark>
          <name> ()</name>
          <description>Branch: &#xA;Altitude: 700 ft&#xA;Speed: 0.0 kts&#xA;Heading: 0.0&#xA;Mission: </description>
          <Point>
            <coordinates>0,0,700</coordinates>
          </Point>
        </Placemark>
        <Placemark>
          <name>CNTOR60 (A400)</name>
          <description>Branch: &#xA;Altitude: 6025 ft&#xA;Speed: 216.3 kts&#xA;Heading: 303.7&#xA;Mission: </description>
          <Point>
            <coordinates>-3.251953,51.366531,6025</coordinates>
          </Point>
        </Placemark>
        <Placemark>
          <name> ()</name>
          <description>Branch: &#xA;Altitude: 0 ft&#xA;Speed: 0.0 kts&#xA;Heading: 0.0&#xA;Mission: </description>
          <Point>
            <coordinates>0,0,0</coordinates>
          </Point>
        </Placemark>
        <Placemark>
          <name>GRINCH8 (TEX2)</name>
          <description>Branch: &#xA;Altitude: 10450 ft&#xA;Speed: 102.0 kts&#xA;Heading: 0.0&#xA;Mission: </description>
          <Point>
            <coordinates>-88.221168,33.327771,10450</coordinates>
          </Point>
        </Placemark>
        <Placemark>
          <name>EMOJI39 (EC45)</name>
          <description>Branch: &#xA;Altitude: 750 ft&#xA;Speed: 99.8 kts&#xA;Heading: 298.1&#xA;Mission: </description>
          <Point>
            <coordinates>-85.666827,31.226729,750</coordinates>
          </Point>
        </Placemark>
        <Placemark>
          <name>G17 (EXPL)</name>
          <description>Branch: &#xA;Altitude: 500 ft&#xA;Speed: 0.0 kts&#xA;Heading: 0.0&#xA;Mission: </description>
          <Point>
            <coordinates>0,0,500</coordinates>
          </Point>
        </Placemark>
        <Placemark>
          <name>GRZLY17 (H47)</name>
          <description>Branch: &#xA;Altitude: 1800 ft&#xA;Speed: 229.0 kts&#xA;Heading: 61.0&#xA;Mission: </description>
          <Point>
            <coordinates>5.32334,51.477957,1800</coordinates>
          </Point>
        </Placemark>
        <Placemark>
          <name>JOKER88 ()</name>
          <description>Branch: &#xA;Altitude: 1675 ft&#xA;Speed: 63.0 kts&#xA;Heading: 5.4&#xA;Mission: </description>
          <Point>
            <coordinates>9.939106,49.378784,1675</coordinates>
          </Point>
        </Placemark>
        <Placemark>
          <name>TEST1234 (TWR)</name>
          <description>Branch: &#xA;Altitude: 0 ft&#xA;Speed: 0.0 kts&#xA;Heading: 0.0&#xA;Mission: </description>
          <Point>
            <coordinates>0,0,0</coordinates>
          </Point>
        </Placemark>
        <Placemark>
          <name>EASY325 (H47)</name>
          <description>Branch: &#xA;Altitude: 0 ft&#xA;Speed: 0.0 kts&#xA;Heading: 0.0&#xA;Mission: </description>
          <Point>
            <coordinates>0,0,0</coordinates>
          </Point>
        </Placemark>
        <Placemark>
          <name> ()</name>
          <description>Branch: &#xA;Altitude: 0 ft&#xA;Speed: 0.0 kts&#xA;Heading: 0.0&#xA;Mission: </description>
          <Point>
            <coordinates>0,0,0</coordinates>
          </Point>
        </Placemark>
        <Placemark>
          <name>TSTR61 (H60)</name>
          <description>Branch: &#xA;Altitude: 1500 ft&#xA;Speed: 117.8 kts&#xA;Heading: 263.2&#xA;Mission: </description>
          <Point>
            <coordinates>-76.551898,38.272596,1500</coordinates>
          </Point>
        </Placemark>
        <Placemark>
          <name>CTM1286 (TBM7)</name>
          <description>Branch: &#xA;Altitude: 6000 ft&#xA;Speed: 164.6 kts&#xA;Heading: 208.3&#xA;Mission: </description>
          <Point>
            <coordinates>2.008174,48.300385,6000</coordinates>
          </Point>
        </Placemark>
        <Placemark>
          <name>DIAMO23 (PC7)</name>
          <description>Branch: &#xA;Altitude: 6000 ft&#xA;Speed: 0.0 kts&#xA;Heading: 0.0&#xA;Mission: </description>
          <Point>
            <coordinates>0,0,6000</coordinates>
          </Point>
        </Placemark>
        <Placemark>
          <name>TRKPG (GLF5)</name>
          <description>Branch: &#xA;Altitude: 24000 ft&#xA;Speed: 365.0 kts&#xA;Heading: 11.2&#xA;Mission: </description>
          <Point>
            <coordinates>7.145602,46.28183,24000</coordinates>
          </Point>
        </Placemark>
        <Placemark>
          <name>EDGE01 ()</name>
          <description>Branch: &#xA;Altitude: 3700 ft&#xA;Speed: 239.0 kts&#xA;Heading: 94.0&#xA;Mission: </description>
          <Point>
            <coordinates>11.675015,48.851392,3700</coordinates>
          </Point>
        </Placemark>
        <Placemark>
          <name> ()</name>
          <description>Branch: &#xA;Altitude: 0 ft&#xA;Speed: 0.0 kts&#xA;Heading: 0.0&#xA;Mission: </description>
          <Point>
            <coordinates>0,0,0</coordinates>
          </Point>
        </Placemark>
        <Placemark>
          <name>CAPE79 (H60)</name>
          <description>Branch: &#xA;Altitude: 800 ft&#xA;Speed: 105.3 kts&#xA;Heading: 292.9&#xA;Mission: </description>
          <Point>
            <coordinates>-85.960052,31.405816,800</coordinates>
          </Point>
        </Placemark>
        <Placemark>
          <name>SUI741 (DHC6)</name>
          <description>Branch: &#xA;Altitude: 5750 ft&#xA;Speed: 160.2 kts&#xA;Heading: 328.8&#xA;Mission: </description>
          <Point>
            <coordinates>8.920074,47.33139,5750</coordinates>
          </Point>
        </Placemark>
        <Placemark>
          <name>LIMIT07 ()</name>
          <description>Branch: &#xA;Altitude: 5700 ft&#xA;Speed: 95.7 kts&#xA;Heading: 327.8&#xA;Mission: </description>
          <Point>
            <coordinates>11.107658,47.503464,5700</coordinates>
          </Point>
        </Placemark>
        <Placemark>
          <name>GAM329A ()</name>
          <description>Branch: &#xA;Altitude: 2775 ft&#xA;Speed: 0.0 kts&#xA;Heading: 0.0&#xA;Mission: </description>
          <Point>
            <coordinates>0,0,2775</coordinates>
          </Point>
        </Placemark>
        <Placemark>
          <name>IAM0123 (P180)</name>
          <description>Branch: &#xA;Altitude: 26000 ft&#xA;Speed: 0.0 kts&#xA;Heading: 0.0&#xA;Mission: </description>
          <Point>
            <coordinates>0,0,26000</coordinates>
          </Point>
        </Placemark>
        <Placemark>
          <name> (EC45)</name>
          <description>Branch: &#xA;Altitude: 0 ft&#xA;Speed: 0.0 kts&#xA;Heading: 0.0&#xA;Mission: </description>
          <Point>
            <coordinates>0,0,0</coordinates>
          </Point>
        </Placemark>
        <Placemark>
          <name>SPAR18 (B737)</name>
          <description>Branch: &#xA;Altitude: 34000 ft&#xA;Speed: 354.7 kts&#xA;Heading: 295.9&#xA;Mission: </description>
          <Point>
            <coordinates>-81.422119,40.863281,34000</coordinates>
          </Point>
        </Placemark>
        <Placemark>
          <name>SYS150 (EC35)</name>
          <description>Branch: &#xA;Altitude: 1650 ft&#xA;Speed: 74.0 kts&#xA;Heading: 251.1&#xA;Mission: </description>
          <Point>
            <coordinates>-2.76416,52.612687,1650</coordinates>
          </Point>
        </Placemark>
        <Placemark>
          <name>RAGE1 ()</name>
          <description>Branch: &#xA;Altitude: 7500 ft&#xA;Speed: 436.0 kts&#xA;Heading: 33.0&#xA;Mission: </description>
          <Point>
            <coordinates>8.508948,53.579716,7500</coordinates>
          </Point>
        </Placemark>
        <Placemark>
          <name> (PC9)</name>
          <description>Branch: &#xA;Altitude: 4050 ft&#xA;Speed: 0.0 kts&#xA;Heading: 0.0&#xA;Mission: </description>
          <Point>
            <coordinates>0,0,4050</coordinates>
          </Point>
        </Placemark>
        <Placemark>
          <name>PLF623 (W3)</name>
          <description>Branch: &#xA;Altitude: 0 ft&#xA;Speed: 0.0 kts&#xA;Heading: 0.0&#xA;Mission: </description>
          <Point>
            <coordinates>0,0,0</coordinates>
          </Point>
        </Placemark>
        <Placemark>
          <name> (H64)</name>
          <description>Branch: &#xA;Altitude: 600 ft&#xA;Speed: 0.0 kts&#xA;Heading: 0.0&#xA;Mission: </description>
          <Point>
            <coordinates>0,0,600</coordinates>
          </Point>
        </Placemark>
        <Placemark>
          <name>BRIO66 (CL60)</name>
          <description>Branch: &#xA;Altitude: 36000 ft&#xA;Speed: 321.3 kts&#xA;Heading: 272.3&#xA;Mission: </description>
          <Point>
            <coordinates>20.626988,53.847107,36000</coordinates>
          </Point>
        </Placemark>
        <Placemark>
          <name> ()</name>
          <description>Branch: &#xA;Altitude: 0 ft&#xA;Speed: 0.0 kts&#xA;Heading: 0.0&#xA;Mission: </description>
          <Point>
            <coordinates>0,0,0</coordinates>
          </Point>
        </Placemark>