<?xml version="1.0" encoding="UTF-8"?>
<kml xmlns="http://www.opengis.net/kml/2.2">
  <Document>
    <name>US Military Tracker</name>
    <description>Generated: 2026-03-02T21:40:29Z | Chairman: groq | Score: 0.00</description>
    <Folder>
      <name>Aircraft (375 tracked)</name>
      <Folder>
        <name>USN</name>
        <Placemark>
          <name>0720075 (H-60 Black Hawk)</name>
          <description>Type: H-60 Black Hawk&#xA;Callsign: 0720075&#xA;Hex: ae4818&#xA;Branch: USN&#xA;Mission: training&#xA;Altitude: 1800 ft&#xA;Speed: 90.1 kts&#xA;Heading: 120.0&#xA;Source: airplanes.live</description>
          <Point>
            <coordinates>-97.819842,31.054321,1800</coordinates>
          </Point>
        </Placemark>
        <Placemark>
          <name>CAPE32 (H-60 Black Hawk)</name>
          <description>Type: H-60 Black Hawk&#xA;Callsign: CAPE32&#xA;Hex: ae487a&#xA;Branch: USN&#xA;Mission: training&#xA;Altitude: 0 ft&#xA;Speed: 89.0 kts&#xA;Heading: 88.2&#xA;Source: airplanes.live</description>
          <Point>
            <coordinates>-86.012184,31.371321,0</coordinates>
          </Point>
        </Placemark>
      </Folder>
      <Folder>
        <name>USAF</name>
        <Placemark>
          <name>ae0627 (KC-135 Stratotanker)</name>
          <description>Type: KC-135 Stratotanker&#xA;Hex: ae0627&#xA;Branch: USAF&#xA;Mission: tanker&#xA;Altitude: 22625 ft&#xA;Speed: 437.4 kts&#xA;Heading: 64.0&#xA;Source: airplanes.live</description>
          <Point>
            <coordinates>-67.906092,45.281501,22625</coordinates>
          </Point>
        </Placemark>
        <Placemark>
          <name>TOPCT26 (RC-135 Rivet Joint)</name>
          <description>Type: RC-135 Rivet Joint&#xA;Callsign: TOPCT26&#xA;Hex: ae1253&#xA;Branch: USAF&#xA;Mission: ISR&#xA;Altitude: 1950 ft&#xA;Speed: 208.1 kts&#xA;Heading: 312.3&#xA;Source: airplanes.live</description>
          <Point>
            <coordinates>-95.914917,41.077194,1950</coordinates>
          </Point>
        </Placemark>
        <Placemark>
          <name>CFC2569 (C30J)</name>
          <description>Type: C30J&#xA;Callsign: CFC2569&#xA;Hex: c2b5c1&#xA;Branch: USAF&#xA;Mission: Transport&#xA;Altitude: 29000 ft&#xA;Speed: 341.7 kts&#xA;Heading: 153.2&#xA;Source: airplanes.live</description>
          <Point>
            <coordinates>-83.466312,29.471756,29000</coordinates>
          </Point>
        </Placemark>
        <Placemark>
          <name>RIVER21 (Unknown Type)</name>
          <description>Type: Unknown Type&#xA;Callsign: RIVER21&#xA;Hex: ae61cb&#xA;Branch: USAF&#xA;Mission: transport&#xA;Altitude: 39400 ft&#xA;Speed: 470.8 kts&#xA;Heading: 273.4&#xA;Source: airplanes.live</description>
          <Point>
            <coordinates>-83.402865,25.61104,39400</coordinates>
          </Point>
        </Placemark>
        <Placemark>
          <name>ae07ff (C-17 Globemaster III)</name>
          <description>Type: C-17 Globemaster III&#xA;Hex: ae07ff&#xA;Branch: USAF&#xA;Mission: transport&#xA;Altitude: 0 ft&#xA;Speed: 0.0 kts&#xA;Heading: 0.0&#xA;Source: adsb.lol</description>
          <Point>
            <coordinates>0,0,0</coordinates>
          </Point>
        </Placemark>
        <Placemark>
          <name>ae68a6 (Unknown Type)</name>
          <description>Type: Unknown Type&#xA;Hex: ae68a6&#xA;Branch: USAF&#xA;Mission: ISR&#xA;Altitude: 34000 ft&#xA;Speed: 376.2 kts&#xA;Heading: 284.0&#xA;Source: airplanes.live</description>
          <Point>
            <coordinates>-115.992828,47.515915,34000</coordinates>
          </Point>
        </Placemark>
        <Placemark>
          <name>GOAT20 (TEX2)</name>
          <description>Type: TEX2&#xA;Callsign: GOAT20&#xA;Hex: ae13b6&#xA;Branch: USAF&#xA;Mission: training&#xA;Altitude: 1750 ft&#xA;Speed: 197.5 kts&#xA;Heading: 259.2&#xA;Source: adsb.lol</description>
          <Point>
            <coordinates>-98.288107,29.503272,1750</coordinates>
          </Point>
        </Placemark>
        <Placemark>
          <name>RHODY62 (C30J)</name>
          <description>Type: C30J&#xA;Callsign: RHODY62&#xA;Hex: ae143e&#xA;Branch: USAF&#xA;Mission: transport&#xA;Altitude: 3325 ft&#xA;Speed: 268.1 kts&#xA;Heading: 335.5&#xA;Source: adsb.lol</description>
          <Point>
            <coordinates>-89.226013,31.396784,3325</coordinates>
          </Point>
        </Placemark>
        <Placemark>
          <name>MORPH33 (EC45)</name>
          <description>Type: EC45&#xA;Callsign: MORPH33&#xA;Hex: ae205a&#xA;Branch: USAF&#xA;Mission: ISR&#xA;Altitude: 600 ft&#xA;Speed: 65.0 kts&#xA;Heading: 30.3&#xA;Source: airplanes.live</description>
          <Point>
            <coordinates>-85.670204,31.235229,600</coordinates>
          </Point>
        </Placemark>
        <Placemark>
          <name>WEIRD42 (EC45)</name>
          <description>Type: EC45&#xA;Callsign: WEIRD42&#xA;Hex: ae5a71&#xA;Branch: USAF&#xA;Mission: ISR&#xA;Altitude: 325 ft&#xA;Speed: 49.0 kts&#xA;Heading: 98.0&#xA;Source: airplanes.live</description>
          <Point>
            <coordinates>-85.742905,31.151642,325</coordinates>
          </Point>
        </Placemark>
        <Placemark>
          <name>RCH400 (C-17 Globemaster III)</name>
          <description>Type: C-17 Globemaster III&#xA;Callsign: RCH400&#xA;Hex: ae07fd&#xA;Branch: USAF&#xA;Mission: Transport&#xA;Altitude: 8875 ft&#xA;Speed: 277.0 kts&#xA;Heading: 152.0&#xA;Source: airplanes.live</description>
          <Point>
            <coordinates>6.820104,50.332142,8875</coordinates>
          </Point>
        </Placemark>
      </Folder>
      <Folder>
        <name>Unknown</name>
        <Placemark>
          <name>T7ANG (GL7T)</name>
          <description>Type: GL7T&#xA;Callsign: T7ANG&#xA;Hex: 5003eb&#xA;Altitude: 0 ft&#xA;Speed: 4.8 kts&#xA;Heading: 0.0&#xA;Source: adsb.lol</description>
          <Point>
            <coordinates>58.276731,23.603218,0</coordinates>
          </Point>
        </Placemark>
        <Placemark>
          <name>ae2661 (AS65)</name>
          <description>Type: AS65&#xA;Hex: ae2661&#xA;Altitude: 1200 ft&#xA;Speed: 71.1 kts&#xA;Heading: 3.2&#xA;Source: airplanes.live</description>
          <Point>
            <coordinates>-157.664185,21.40821,1200</coordinates>
          </Point>
        </Placemark>
        <Placemark>
          <name>RCH284 (C-17 Globemaster III)</name>
          <description>Type: C-17 Globemaster III&#xA;Callsign: RCH284&#xA;Hex: ae123f&#xA;Altitude: 31000 ft&#xA;Speed: 0.0 kts&#xA;Heading: 0.0&#xA;Source: airplanes.live</description>
          <Point>
            <coordinates>0,0,31000</coordinates>
          </Point>
        </Placemark>
        <Placemark>
          <name>LOOT88 (TEX2)</name>
          <description>Type: TEX2&#xA;Callsign: LOOT88&#xA;Hex: ae13a1&#xA;Altitude: 3000 ft&#xA;Speed: 148.0 kts&#xA;Heading: 359.2&#xA;Source: airplanes.live</description>
          <Point>
            <coordinates>-97.382069,35.294815,3000</coordinates>
          </Point>
        </Placemark>
        <Placemark>
          <name>TEST1234 (TWR)</name>
          <description>Type: TWR&#xA;Callsign: TEST1234&#xA;Hex: adfbde&#xA;Altitude: 0 ft&#xA;Speed: 0.0 kts&#xA;Heading: 0.0&#xA;Source: adsb.lol</description>
          <Point>
            <coordinates>0,0,0</coordinates>
          </Point>
        </Placemark>
        <Placemark>
          <name>BALL66 (TEX2)</name>
          <description>Type: TEX2&#xA;Callsign: BALL66&#xA;Hex: ae1e65&#xA;Altitude: 12950 ft&#xA;Speed: 311.3 kts&#xA;Heading: 141.9&#xA;Source: airplanes.live</description>
          <Point>
            <coordinates>-97.870068,35.680708,12950</coordinates>
          </Point>
        </Placemark>
        <Placemark>
          <name>CAPE20 (H-60 Black Hawk)</name>
          <description>Type: H-60 Black Hawk&#xA;Callsign: CAPE20&#xA;Hex: ae50c1&#xA;Altitude: 800 ft&#xA;Speed: 105.0 kts&#xA;Heading: 52.2&#xA;Source: airplanes.live</description>
          <Point>
            <coordinates>-85.980431,31.448318,800</coordinates>
          </Point>
        </Placemark>
        <Placemark>
          <name>IBIS73 (Unknown Type)</name>
          <description>Type: Unknown Type&#xA;Callsign: IBIS73&#xA;Hex: 35360b&#xA;Altitude: 2800 ft&#xA;Speed: 134.0 kts&#xA;Heading: 268.7&#xA;Source: airplanes.live</description>
          <Point>
            <coordinates>-3.726562,40.260544,2800</coordinates>
          </Point>
        </Placemark>
        <Placemark>
          <name>TXLU03 (A139)</name>
          <description>Type: A139&#xA;Callsign: TXLU03&#xA;Hex: 4ca331&#xA;Altitude: 0 ft&#xA;Speed: 0.0 kts&#xA;Heading: 0.0&#xA;Source: airplanes.live</description>
          <Point>
            <coordinates>0,0,0</coordinates>
          </Point>
        </Placemark>
        <Placemark>
          <name>WING14 (BE20)</name>
          <description>Type: BE20&#xA;Callsign: WING14&#xA;Hex: adfe97&#xA;Altitude: 1125 ft&#xA;Speed: 132.0 kts&#xA;Heading: 276.0&#xA;Source: adsb.lol</description>
          <Point>
            <coordinates>-76.799482,40.243152,1125</coordinates>
          </Point>
        </Placemark>
        <Placemark>
          <name>SKULL82 (H-60 Black Hawk)</name>
          <description>Type: H-60 Black Hawk&#xA;Callsign: SKULL82&#xA;Hex: ae6da4&#xA;Altitude: 0 ft&#xA;Speed: 7.2 kts&#xA;Heading: 0.0&#xA;Source: adsb.lol</description>
          <Point>
            <coordinates>-106.565799,34.950153,0</coordinates>
          </Point>
        </Placemark>
        <Placemark>
          <name>CFC3360 (A310)</name>
          <description>Type: A310&#xA;Callsign: CFC3360&#xA;Hex: c2b37d&#xA;Altitude: 0 ft&#xA;Speed: 0.0 kts&#xA;Heading: 0.0&#xA;Source: adsb.lol</description>
          <Point>
            <coordinates>-147.857437,64.821477,0</coordinates>
          </Point>
        </Placemark>
        <Placemark>
          <name>VIRAL43 (TEX2)</name>
          <description>Type: TEX2&#xA;Callsign: VIRAL43&#xA;Hex: ae10fd&#xA;Altitude: 1100 ft&#xA;Speed: 101.1 kts&#xA;Heading: 134.6&#xA;Source: airplanes.live</description>
          <Point>
            <coordinates>-100.786567,29.366272,1100</coordinates>
          </Point>
        </Placemark>
        <Placemark>
          <name>CODE21 (TEX2)</name>
          <description>Type: TEX2&#xA;Callsign: CODE21&#xA;Hex: ae1750&#xA;Altitude: 9950 ft&#xA;Speed: 279.3 kts&#xA;Heading: 72.9&#xA;Source: airplanes.live</description>
          <Point>
            <coordinates>-97.549419,36.511898,9950</coordinates>
          </Point>
        </Placemark>
        <Placemark>
          <name>RN223 (TEX2)</name>
          <description>Type: TEX2&#xA;Callsign: RN223&#xA;Hex: ae54f1&#xA;Altitude: 3850 ft&#xA;Speed: 223.0 kts&#xA;Heading: 270.5&#xA;Source: airplanes.live</description>
          <Point>
            <coordinates>-87.520715,30.791233,3850</coordinates>
          </Point>
        </Placemark>
        <Placemark>
          <name>ae576d (AH-64 Apache)</name>
          <description>Type: AH-64 Apache&#xA;Hex: ae576d&#xA;Altitude: 800 ft&#xA;Speed: 0.0 kts&#xA;Heading: 0.0&#xA;Source: adsb.lol</description>
          <Point>
            <coordinates>0,0,800</coordinates>
          </Point>
        </Placemark>
        <Placemark>
          <name>ICY14 (Unknown Type)</name>
          <description>Type: Unknown Type&#xA;Callsign: ICY14&#xA;Hex: ae0cce&#xA;Altitude: 4400 ft&#xA;Speed: 123.3 kts&#xA;Heading: 184.2&#xA;Source: airplanes.live</description>
          <Point>
            <coordinates>-148.934361,63.748535,4400</coordinates>
          </Point>
        </Placemark>
        <Placemark>
          <name>C6058 (H-60 Black Hawk)</name>
          <description>Type: H-60 Black Hawk&#xA;Callsign: C6058&#xA;Hex: ae6cec&#xA;Altitude: 750 ft&#xA;Speed: 86.3 kts&#xA;Heading: 57.8&#xA;Source: airplanes.live</description>
          <Point>
            <coordinates>-119.110508,34.142389,750</coordinates>
          </Point>
        </Placemark>
        <Placemark>
          <name>TAHOE51 (TEX2)</name>
          <description>Type: TEX2&#xA;Callsign: TAHOE51&#xA;Hex: ae1e93&#xA;Altitude: 2450 ft&#xA;Speed: 223.4 kts&#xA;Heading: 165.2&#xA;Source: airplanes.live</description>
          <Point>
            <coordinates>-98.198125,29.244186,2450</coordinates>
          </Point>
        </Placemark>
        <Placemark>
          <name>PATRT7 (H-60 Black Hawk)</name>
          <description>Type: H-60 Black Hawk&#xA;Callsign: PATRT7&#xA;Hex: ae478d&#xA;Altitude: 5350 ft&#xA;Speed: 115.4 kts&#xA;Heading: 236.3&#xA;Source: airplanes.live</description>
          <Point>
            <coordinates>-72.700745,41.311615,5350</coordinates>
          </Point>
        </Placemark>
        <Placemark>
          <name>ae5990 (CH-47 Chinook)</name>
          <description>Type: CH-47 Chinook&#xA;Hex: ae5990&#xA;Altitude: 775 ft&#xA;Speed: 89.1 kts&#xA;Heading: 357.4&#xA;Source: adsb.lol</description>
          <Point>
            <coordinates>0,0,775</coordinates>
          </Point>
        </Placemark>
        <Placemark>
          <name>35abf9 (Unknown Type)</name>
          <description>Type: Unknown Type&#xA;Hex: 35abf9&#xA;Altitude: 0 ft&#xA;Speed: 0.0 kts&#xA;Heading: 0.0&#xA;Source: adsb.lol</description>
          <Point>
            <coordinates>0,0,0</coordinates>
          </Point>
        </Placemark>
        <Placemark>
          <name>LEPD31 (TEX2)</name>
          <description>Type: TEX2&#xA;Callsign: LEPD31&#xA;Hex: c2b0a3&#xA;Altitude: 2600 ft&#xA;Speed: 109.4 kts&#xA;Heading: 85.3&#xA;Source: airplanes.live</description>
          <Point>
            <coordinates>-105.603622,50.340271,2600</coordinates>
          </Point>
        </Placemark>
        <Placemark>
          <name>CASH11 (TEX2)</name>
          <description>Type: TEX2&#xA;Callsign: CASH11&#xA;Hex: ae1e8f&#xA;Altitude: 12175 ft&#xA;Speed: 267.4 kts&#xA;Heading: 192.5&#xA;Source: airplanes.live</description>
          <Point>
            <coordinates>-100.677338,30.85217,12175</coordinates>
          </Point>
        </Placemark>
        <Placemark>
          <name>CODY06 (C-17 Globemaster III)</name>
          <description>Type: C-17 Globemaster III&#xA;Callsign: CODY06&#xA;Hex: ae07fa&#xA;Altitude: 37025 ft&#xA;Speed: 483.0 kts&#xA;Heading: 108.5&#xA;Source: airplanes.live</description>
          <Point>
            <coordinates>-94.48394,36.367634,37025</coordinates>
          </Point>
        </Placemark>
        <Placemark>
          <name>BASS42 (T-38 Talon)</name>
          <description>Type: T-38 Talon&#xA;Callsign: BASS42&#xA;Hex: adff6a&#xA;Altitude: 15825 ft&#xA;Speed: 501.0 kts&#xA;Heading: 222.9&#xA;Source: airplanes.live</description>
          <Point>
            <coordinates>-88.420029,34.051798,15825</coordinates>
          </Point>
        </Placemark>
        <Placemark>
          <name>CHAOS21 (AH-64 Apache)</name>
          <description>Type: AH-64 Apache&#xA;Callsign: CHAOS21&#xA;Hex: ae6dbc&#xA;Altitude: 500 ft&#xA;Speed: 132.0 kts&#xA;Heading: 233.7&#xA;Source: airplanes.live</description>
          <Point>
            <coordinates>-80.496712,33.792175,500</coordinates>
          </Point>
        </Placemark>
        <Placemark>
          <name>TEST1234 (Unknown Type)</name>
          <description>Type: Unknown Type&#xA;Callsign: TEST1234&#xA;Hex: adfbdf&#xA;Altitude: 0 ft&#xA;Speed: 0.0 kts&#xA;Heading: 0.0&#xA;Source: adsb.lol</description>
          <Point>
            <coordinates>0,0,0</coordinates>
          </Point>
        </Placemark>
        <Placemark>
          <name>ae5f47 (P-8A Poseidon)</name>
          <description>Type: P-8A Poseidon&#xA;Hex: ae5f47&#xA;Altitude: 33000 ft&#xA;Speed: 455.5 kts&#xA;Heading: 109.6&#xA;Source: adsb.lol</description>
          <Point>
            <coordinates>-114.314667,46.96463,33000</coordinates>
          </Point>
        </Placemark>
        <Placemark>
          <name>ae048c (KC-135 Stratotanker)</name>
          <description>Type: KC-135 Stratotanker&#xA;Hex: ae048c&#xA;Altitude: 35000 ft&#xA;Speed: 0.0 kts&#xA;Heading: 0.0&#xA;Source: adsb.lol</description>
          <Point>
            <coordinates>0,0,35000</coordinates>
          </Point>
        </Placemark>
        <Placemark>
          <name>3ea3b8 (Unknown Type)</name>
          <description>Type: Unknown Type&#xA;Hex: 3ea3b8&#xA;Altitude: 0 ft&#xA;Speed: 0.0 kts&#xA;Heading: 0.0&#xA;Source: airplanes.live</description>
          <Point>
            <coordinates>0,0,0</coordinates>
          </Point>
        </Placemark>
        <Placemark>
          <name>ae62f0 (Unknown Type)</name>
          <description>Type: Unknown Type&#xA;Hex: ae62f0&#xA;Altitude: 10750 ft&#xA;Speed: 0.0 kts&#xA;Heading: 0.0&#xA;Source: airplanes.live</description>
          <Point>
            <coordinates>0,0,10750</coordinates>
          </Point>
        </Placemark>
        <Placemark>
          <name>ae05ab (KC-135 Stratotanker)</name>
          <description>Type: KC-135 Stratotanker&#xA;Hex: ae05ab&#xA;Altitude: 36000 ft&#xA;Speed: 411.0 kts&#xA;Heading: 303.0&#xA;Source: adsb.lol</description>
          <Point>
            <coordinates>-112.544193,53.404102,36000</coordinates>
          </Point>
        </Placemark>
        <Placemark>
          <name>BALL55 (TEX2)</name>
          <description>Type: TEX2&#xA;Callsign: BALL55&#xA;Hex: ae01ea&#xA;Altitude: 3600 ft&#xA;Speed: 194.4 kts&#xA;Heading: 169.3&#xA;Source: airplanes.live</description>
          <Point>
            <coordinates>-97.289137,35.481836,3600</coordinates>
          </Point>
        </Placemark>
        <Placemark>
          <name>STGRY22 (BE9L)</name>
          <description>Type: BE9L&#xA;Callsign: STGRY22&#xA;Hex: ae14a7&#xA;Altitude: 2050 ft&#xA;Speed: 135.0 kts&#xA;Heading: 131.4&#xA;Source: airplanes.live</description>
          <Point>
            <coordinates>-96.906036,28.84251,2050</coordinates>
          </Point>
        </Placemark>
        <Placemark>
          <name>BOBCT15 (HAWK)</name>
          <description>Type: HAWK&#xA;Callsign: BOBCT15&#xA;Hex: ae62c8&#xA;Altitude: 15725 ft&#xA;Speed: 316.4 kts&#xA;Heading: 347.6&#xA;Source: airplanes.live</description>
          <Point>
            <coordinates>-88.199158,30.858215,15725</coordinates>
          </Point>
        </Placemark>
        <Placemark>
          <name>BONES22 (T-38 Talon)</name>
          <description>Type: T-38 Talon&#xA;Callsign: BONES22&#xA;Hex: adff94&#xA;Altitude: 16325 ft&#xA;Speed: 431.1 kts&#xA;Heading: 353.1&#xA;Source: airplanes.live</description>
          <Point>
            <coordinates>-87.973303,34.527283,16325</coordinates>
          </Point>
        </Placemark>
        <Placemark>
          <name>ae63d5 (B762)</name>
          <description>Type: B762&#xA;Hex: ae63d5&#xA;Altitude: 21675 ft&#xA;Speed: 0.0 kts&#xA;Heading: 0.0&#xA;Source: adsb.lol</description>
          <Point>
            <coordinates>0,0,21675</coordinates>
          </Point>
        </Placemark>
        <Placemark>
          <name>445566 (Unknown Type)</name>
          <description>Type: Unknown Type&#xA;Hex: 445566&#xA;Altitude: 0 ft&#xA;Speed: 0.0 kts&#xA;Heading: 0.0&#xA;Source: adsb.lol</description>
          <Point>
            <coordinates>0,0,0</coordinates>
          </Point>
        </Placemark>
        <Placemark>
          <name>WATTS57 (H-60 Black Hawk)</name>
          <description>Type: H-60 Black Hawk&#xA;Callsign: WATTS57&#xA;Hex: ae0ac7&#xA;Altitude: 2100 ft&#xA;Speed: 106.8 kts&#xA;Heading: 314.6&#xA;Source: airplanes.live</description>
          <Point>
            <coordinates>-111.413342,32.528824,2100</coordinates>
          </Point>
        </Placemark>
        <Placemark>
          <name>SAM218 (GLF5)</name>
          <description>Type: GLF5&#xA;Callsign: SAM218&#xA;Hex: ae6cf2&#xA;Altitude: 41025 ft&#xA;Speed: 559.4 kts&#xA;Heading: 87.8&#xA;Source: airplanes.live</description>
          <Point>
            <coordinates>-110.954075,35.171985,41025</coordinates>
          </Point>
        </Placemark>
        <Placemark>
          <name>BALL24 (TEX2)</name>
          <description>Type: TEX2&#xA;Callsign: BALL24&#xA;Hex: ae13c6&#xA;Altitude: 9425 ft&#xA;Speed: 209.4 kts&#xA;Heading: 335.1&#xA;Source: airplanes.live</description>
          <Point>
            <coordinates>-97.438095,35.633271,9425</coordinates>
          </Point>
        </Placemark>
        <Placemark>
          <name>BONES21 (T-38 Talon)</name>
          <description>Type: T-38 Talon&#xA;Callsign: BONES21&#xA;Hex: adff7c&#xA;Altitude: 16325 ft&#xA;Speed: 429.8 kts&#xA;Heading: 352.4&#xA;Source: airplanes.live</description>
          <Point>
            <coordinates>-87.992024,34.524857,16325</coordinates>
          </Point>
        </Placemark>
        <Placemark>
          <name>CHEWY44 (TEX2)</name>
          <description>Type: TEX2&#xA;Callsign: CHEWY44&#xA;Hex: ae1ead&#xA;Altitude: 3300 ft&#xA;Speed: 271.9 kts&#xA;Heading: 63.8&#xA;Source: airplanes.live</description>
          <Point>
            <coordinates>-87.599927,30.321893,3300</coordinates>
          </Point>
        </Placemark>
        <Placemark>
          <name>TEMAN71 (T-38 Talon)</name>
          <description>Type: T-38 Talon&#xA;Callsign: TEMAN71&#xA;Hex: adff52&#xA;Altitude: 0 ft&#xA;Speed: 20.5 kts&#xA;Heading: 329.1&#xA;Source: adsb.lol</description>
          <Point>
            <coordinates>-98.266248,29.525356,0</coordinates>
          </Point>
        </Placemark>
        <Placemark>
          <name>BULET56 (H-60 Black Hawk)</name>
          <description>Type: H-60 Black Hawk&#xA;Callsign: BULET56&#xA;Hex: ae2776&#xA;Altitude: 675 ft&#xA;Speed: 108.5 kts&#xA;Heading: 292.8&#xA;Source: airplanes.live</description>
          <Point>
            <coordinates>-117.316187,32.643448,675</coordinates>
          </Point>
        </Placemark>
        <Placemark>
          <name>VAIL51 (CH-47 Chinook)</name>
          <description>Type: CH-47 Chinook&#xA;Callsign: VAIL51&#xA;Hex: ae52d8&#xA;Altitude: 6425 ft&#xA;Speed: 101.0 kts&#xA;Heading: 111.0&#xA;Source: airplanes.live</description>
          <Point>
            <coordinates>-104.60159,39.622273,6425</coordinates>
          </Point>
        </Placemark>
        <Placemark>
          <name>RCH724 (KC-135 Stratotanker)</name>
          <description>Type: KC-135 Stratotanker&#xA;Callsign: RCH724&#xA;Hex: ae0693&#xA;Altitude: 31000 ft&#xA;Speed: 489.0 kts&#xA;Heading: 65.0&#xA;Source: adsb.lol</description>
          <Point>
            <coordinates>-85.859432,43.142869,31000</coordinates>
          </Point>
        </Placemark>
        <Placemark>
          <name>VGBND20 (LYNX)</name>
          <description>Type: LYNX&#xA;Callsign: VGBND20&#xA;Hex: 43cf31&#xA;Altitude: 275 ft&#xA;Speed: 0.0 kts&#xA;Heading: 0.0&#xA;Source: adsb.lol</description>
          <Point>
            <coordinates>0,0,275</coordinates>
          </Point>
        </Placemark>
        <Placemark>
          <name>c2f844 (Unknown Type)</name>
          <description>Type: Unknown Type&#xA;Hex: c2f844&#xA;Altitude: 0 ft&#xA;Speed: 0.0 kts&#xA;Heading: 0.0&#xA;Source: adsb.lol</description>
          <Point>
            <coordinates>0,0,0</coordinates>
          </Point>
        </Placemark>
        <Placemark>
          <name>ae2216 (Unknown Type)</name>
          <description>Type: Unknown Type&#xA;Hex: ae2216&#xA;Altitude: 700 ft&#xA;Speed: 0.0 kts&#xA;Heading: 0.0&#xA;Source: adsb.lol</description>
          <Point>
            <coordinates>0,0,700</coordinates>
          </Point>
        </Placemark>
        <Placemark>
          <name>BELLS09 (EC45)</name>
          <description>Type: EC45&#xA;Callsign: BELLS09&#xA;Hex: ae1f49&#xA;Altitude: 800 ft&#xA;Speed: 97.1 kts&#xA;Heading: 92.4&#xA;Source: airplanes.live</description>
          <Point>
            <coordinates>-86.452978,30.827957,800</coordinates>
          </Point>
        </Placemark>
        <Placemark>
          <name>00000000 (Unknown Type)</name>
          <description>Type: Unknown Type&#xA;Callsign: 00000000&#xA;Hex: adf8ce&#xA;Altitude: 70000 ft&#xA;Speed: 0.7 kts&#xA;Heading: 0.0&#xA;Source: adsb.lol</description>
          <Point>
            <coordinates>0,0,70000</coordinates>
          </Point>
        </Placemark>
        <Placemark>
          <name>SHARK51 (SR20)</name>
          <description>Type: SR20&#xA;Callsign: SHARK51&#xA;Hex: ae4edb&#xA;Altitude: 8000 ft&#xA;Speed: 131.0 kts&#xA;Heading: 345.9&#xA;Source: airplanes.live</description>
          <Point>
            <coordinates>-104.77488,39.00444,8000</coordinates>
          </Point>
        </Placemark>
        <Placemark>
          <name>FANGS63 (TEX2)</name>
          <description>Type: TEX2&#xA;Callsign: FANGS63&#xA;Hex: ae172c&#xA;Altitude: 8475 ft&#xA;Speed: 224.4 kts&#xA;Heading: 284.7&#xA;Source: airplanes.live</description>
          <Point>
            <coordinates>-98.123097,28.857453,8475</coordinates>
          </Point>
        </Placemark>
        <Placemark>
          <name>ae0145 (KC-135 Stratotanker)</name>
          <description>Type: KC-135 Stratotanker&#xA;Hex: ae0145&#xA;Altitude: 16425 ft&#xA;Speed: 385.0 kts&#xA;Heading: 49.0&#xA;Source: airplanes.live</description>
          <Point>
            <coordinates>-94.93952,38.930163,16425</coordinates>
          </Point>
        </Placemark>
        <Placemark>
          <name>TEST1234 (TWR)</name>
          <description>Type: TWR&#xA;Callsign: TEST1234&#xA;Hex: adfbdd&#xA;Altitude: 0 ft&#xA;Speed: 0.0 kts&#xA;Heading: 0.0&#xA;Source: adsb.lol</description>
          <Point>
            <coordinates>0,0,0</coordinates>
          </Point>
        </Placemark>
        <Placemark>
          <name>ae6049 (AH-64 Apache)</name>
          <description>Type: AH-64 Apache&#xA;Hex: ae6049&#xA;Altitude: 2900 ft&#xA;Speed: 97.0 kts&#xA;Heading: 20.0&#xA;Source: airplanes.live</description>
          <Point>
            <coordinates>-123.154006,47.310302,2900</coordinates>
          </Point>
        </Placemark>
        <Placemark>
          <name>SHARK52 (SR20)</name>
          <description>Type: SR20&#xA;Callsign: SHARK52&#xA;Hex: ae4edc&#xA;Altitude: 8625 ft&#xA;Speed: 130.7 kts&#xA;Heading: 21.1&#xA;Source: airplanes.live</description>
          <Point>
            <coordinates>-104.763916,39.054907,8625</coordinates>
          </Point>
        </Placemark>
        <Placemark>
          <name>SHINR82 (TEX2)</name>
          <description>Type: TEX2&#xA;Callsign: SHINR82&#xA;Hex: adff06&#xA;Altitude: 3900 ft&#xA;Speed: 213.8 kts&#xA;Heading: 222.3&#xA;Source: airplanes.live</description>
          <Point>
            <coordinates>-97.592897,36.342494,3900</coordinates>
          </Point>
        </Placemark>
        <Placemark>
          <name>VV8E705 (A119)</name>
          <description>Type: A119&#xA;Callsign: VV8E705&#xA;Hex: ae73e6&#xA;Altitude: 1725 ft&#xA;Speed: 122.6 kts&#xA;Heading: 354.4&#xA;Source: airplanes.live</description>
          <Point>
            <coordinates>-86.488306,30.815231,1725</coordinates>
          </Point>
        </Placemark>
        <Placemark>
          <name>TEST1234 (Unknown Type)</name>
          <description>Type: Unknown Type&#xA;Callsign: TEST1234&#xA;Hex: adfbe1&#xA;Altitude: 0 ft&#xA;Speed: 0.0 kts&#xA;Heading: 0.0&#xA;Source: adsb.lol</description>
          <Point>
            <coordinates>0,0,0</coordinates>
          </Point>
        </Placemark>
        <Placemark>
          <name>ARCH52 (TEX2)</name>
          <description>Type: TEX2&#xA;Callsign: ARCH52&#xA;Hex: c2b049&#xA;Altitude: 7975 ft&#xA;Speed: 231.5 kts&#xA;Heading: 328.8&#xA;Source: airplanes.live</description>
          <Point>
            <coordinates>-106.173899,50.165955,7975</coordinates>
          </Point>
        </Placemark>
        <Placemark>
          <name>DUKE88 (TEX2)</name>
          <description>Type: TEX2&#xA;Callsign: DUKE88&#xA;Hex: ae13ca&#xA;Altitude: 2850 ft&#xA;Speed: 163.2 kts&#xA;Heading: 244.2&#xA;Source: airplanes.live</description>
          <Point>
            <coordinates>-97.35149,37.777496,2850</coordinates>
          </Point>
        </Placemark>
        <Placemark>
          <name>SPUD55 (H-60 Black Hawk)</name>
          <description>Type: H-60 Black Hawk&#xA;Callsign: SPUD55&#xA;Hex: ae484e&#xA;Altitude: 0 ft&#xA;Speed: 103.0 kts&#xA;Heading: 171.7&#xA;Source: airplanes.live</description>
          <Point>
            <coordinates>-86.035583,31.344925,0</coordinates>
          </Point>
        </Placemark>
        <Placemark>
          <name>TEST1234 (Unknown Type)</name>
          <description>Type: Unknown Type&#xA;Callsign: TEST1234&#xA;Hex: adf993&#xA;Altitude: 0 ft&#xA;Speed: 0.0 kts&#xA;Heading: 0.0&#xA;Source: airplanes.live</description>
          <Point>
            <coordinates>0,0,0</coordinates>
          </Point>
        </Placemark>
        <Placemark>
          <name>00972064 (EC45)</name>
          <description>Type: EC45&#xA;Callsign: 00972064&#xA;Hex: ae1f4f&#xA;Altitude: 3450 ft&#xA;Speed: 75.0 kts&#xA;Heading: 103.1&#xA;Source: adsb.lol</description>
          <Point>
            <coordinates>-97.696907,26.04808,3450</coordinates>
          </Point>
        </Placemark>
        <Placemark>
          <name>ae6793 (Unknown Type)</name>
          <description>Type: Unknown Type&#xA;Hex: ae6793&#xA;Altitude: 27950 ft&#xA;Speed: 348.8 kts&#xA;Heading: 266.2&#xA;Source: airplanes.live</description>
          <Point>
            <coordinates>-116.002991,47.412964,27950</coordinates>
          </Point>
        </Placemark>
        <Placemark>
          <name>LOOT77 (BE40)</name>
          <description>Type: BE40&#xA;Callsign: LOOT77&#xA;Hex: adfcdf&#xA;Altitude: 7425 ft&#xA;Speed: 260.9 kts&#xA;Heading: 45.2&#xA;Source: airplanes.live</description>
          <Point>
            <coordinates>-98.122616,36.137741,7425</coordinates>
          </Point>
        </Placemark>
        <Placemark>
          <name>QUESO82 (C560)</name>
          <description>Type: C560&#xA;Callsign: QUESO82&#xA;Hex: adfec0&#xA;Altitude: 36000 ft&#xA;Speed: 359.4 kts&#xA;Heading: 264.9&#xA;Source: airplanes.live</description>
          <Point>
            <coordinates>-94.028577,32.503464,36000</coordinates>
          </Point>
        </Placemark>
        <Placemark>
          <name>ae2061 (EC45)</name>
          <description>Type: EC45&#xA;Hex: ae2061&#xA;Altitude: 750 ft&#xA;Speed: 83.0 kts&#xA;Heading: 132.6&#xA;Source: airplanes.live</description>
          <Point>
            <coordinates>-85.917206,31.3986,750</coordinates>
          </Point>
        </Placemark>
        <Placemark>
          <name>MORPH42 (EC45)</name>
          <description>Type: EC45&#xA;Callsign: MORPH42&#xA;Hex: ae5a8e&#xA;Altitude: 850 ft&#xA;Speed: 96.1 kts&#xA;Heading: 2.4&#xA;Source: airplanes.live</description>
          <Point>
            <coordinates>-85.713501,31.235596,850</coordinates>
          </Point>
        </Placemark>
        <Placemark>
          <name>ae0388 (KC-135 Stratotanker)</name>
          <description>Type: KC-135 Stratotanker&#xA;Hex: ae0388&#xA;Altitude: 31000 ft&#xA;Speed: 516.0 kts&#xA;Heading: 73.0&#xA;Source: adsb.lol</description>
          <Point>
            <coordinates>-73.434631,46.773501,31000</coordinates>
          </Point>
        </Placemark>
        <Placemark>
          <name>ICY97 (H-60 Black Hawk)</name>
          <description>Type: H-60 Black Hawk&#xA;Callsign: ICY97&#xA;Hex: ae0de3&#xA;Altitude: 0 ft&#xA;Speed: 0.0 kts&#xA;Heading: 0.0&#xA;Source: airplanes.live</description>
          <Point>
            <coordinates>0,0,0</coordinates>
          </Point>
        </Placemark>
        <Placemark>
          <name>N7874N (C172)</name>
          <description>Type: C172&#xA;Callsign: N7874N&#xA;Hex: aaad78&#xA;Altitude: 6200 ft&#xA;Speed: 18.4 kts&#xA;Heading: 225.0&#xA;Source: adsb.lol</description>
          <Point>
            <coordinates>-104.692017,38.809483,6200</coordinates>
          </Point>
        </Placemark>
        <Placemark>
          <name>JINX31 (TEX2)</name>
          <description>Type: TEX2&#xA;Callsign: JINX31&#xA;Hex: ae1425&#xA;Altitude: 9925 ft&#xA;Speed: 203.7 kts&#xA;Heading: 223.4&#xA;Source: airplanes.live</description>
          <Point>
            <coordinates>-97.688634,29.100632,9925</coordinates>
          </Point>
        </Placemark>
        <Placemark>
          <name>PAT979 (SW4)</name>
          <description>Type: SW4&#xA;Callsign: PAT979&#xA;Hex: adfd80&#xA;Altitude: 18000 ft&#xA;Speed: 270.7 kts&#xA;Heading: 251.7&#xA;Source: airplanes.live</description>
          <Point>
            <coordinates>-93.766333,31.43789,18000</coordinates>
          </Point>
        </Placemark>
        <Placemark>
          <name>adfe71 (C-130 Hercules)</name>
          <description>Type: C-130 Hercules&#xA;Hex: adfe71&#xA;Altitude: 19100 ft&#xA;Speed: 0.0 kts&#xA;Heading: 0.0&#xA;Source: airplanes.live</description>
          <Point>
            <coordinates>0,0,19100</coordinates>
          </Point>
        </Placemark>
        <Placemark>
          <name>WATTS74 (EC45)</name>
          <description>Type: EC45&#xA;Callsign: WATTS74&#xA;Hex: ae1f4b&#xA;Altitude: 0 ft&#xA;Speed: 1.9 kts&#xA;Heading: 180.0&#xA;Source: airplanes.live</description>
          <Point>
            <coordinates>-111.487692,32.665203,0</coordinates>
          </Point>
        </Placemark>
        <Placemark>
          <name>RASTA41 (TEX2)</name>
          <description>Type: TEX2&#xA;Callsign: RASTA41&#xA;Hex: ae141f&#xA;Altitude: 1300 ft&#xA;Speed: 130.2 kts&#xA;Heading: 137.5&#xA;Source: airplanes.live</description>
          <Point>
            <coordinates>-100.777271,29.356064,1300</coordinates>
          </Point>
        </Placemark>
        <Placemark>
          <name>BGST343 (BE20)</name>
          <description>Type: BE20&#xA;Callsign: BGST343&#xA;Hex: aecaa3&#xA;Altitude: 6975 ft&#xA;Speed: 217.2 kts&#xA;Heading: 105.8&#xA;Source: airplanes.live</description>
          <Point>
            <coordinates>-98.140223,28.291424,6975</coordinates>
          </Point>
        </Placemark>
        <Placemark>
          <name>LYRE71 (TEX2)</name>
          <description>Type: TEX2&#xA;Callsign: LYRE71&#xA;Hex: ae1e4c&#xA;Altitude: 13950 ft&#xA;Speed: 284.9 kts&#xA;Heading: 240.1&#xA;Source: airplanes.live</description>
          <Point>
            <coordinates>-97.240367,30.020645,13950</coordinates>
          </Point>
        </Placemark>
        <Placemark>
          <name>PAT375 (BE20)</name>
          <description>Type: BE20&#xA;Callsign: PAT375&#xA;Hex: ae03fa&#xA;Altitude: 26000 ft&#xA;Speed: 234.7 kts&#xA;Heading: 250.3&#xA;Source: airplanes.live</description>
          <Point>
            <coordinates>-88.690945,33.150547,26000</coordinates>
          </Point>
        </Placemark>
        <Placemark>
          <name>ae3a65 (Unknown Type)</name>
          <description>Type: Unknown Type&#xA;Hex: ae3a65&#xA;Altitude: 28000 ft&#xA;Speed: 359.0 kts&#xA;Heading: 170.0&#xA;Source: adsb.lol</description>
          <Point>
            <coordinates>-81.582944,29.776144,28000</coordinates>
          </Point>
        </Placemark>
        <Placemark>
          <name>G9426581 (H-60 Black Hawk)</name>
          <description>Type: H-60 Black Hawk&#xA;Callsign: G9426581&#xA;Hex: ae0a3f&#xA;Altitude: 1900 ft&#xA;Speed: 0.0 kts&#xA;Heading: 0.0&#xA;Source: airplanes.live</description>
          <Point>
            <coordinates>0,0,1900</coordinates>
          </Point>
        </Placemark>
        <Placemark>
          <name>R43012 (AH-64 Apache)</name>
          <description>Type: AH-64 Apache&#xA;Callsign: R43012&#xA;Hex: ae5975&#xA;Altitude: 3000 ft&#xA;Speed: 0.0 kts&#xA;Heading: 0.0&#xA;Source: airplanes.live</description>
          <Point>
            <coordinates>0,0,3000</coordinates>
          </Point>
        </Placemark>
        <Placemark>
          <name>ae43dd (BE20)</name>
          <description>Type: BE20&#xA;Hex: ae43dd&#xA;Altitude: 5625 ft&#xA;Speed: 159.5 kts&#xA;Heading: 169.9&#xA;Source: airplanes.live</description>
          <Point>
            <coordinates>-96.882723,28.739502,5625</coordinates>
          </Point>
        </Placemark>
        <Placemark>
          <name>PISTOL3 (T-38 Talon)</name>
          <description>Type: T-38 Talon&#xA;Callsign: PISTOL3&#xA;Hex: adff86&#xA;Altitude: 15050 ft&#xA;Speed: 98.0 kts&#xA;Heading: 261.8&#xA;Source: airplanes.live</description>
          <Point>
            <coordinates>-89.220657,34.33181,15050</coordinates>
          </Point>
        </Placemark>
        <Placemark>
          <name>R20764 (H-60 Black Hawk)</name>
          <description>Type: H-60 Black Hawk&#xA;Callsign: R20764&#xA;Hex: ae5ade&#xA;Altitude: 2825 ft&#xA;Speed: 90.8 kts&#xA;Heading: 196.6&#xA;Source: adsb.lol</description>
          <Point>
            <coordinates>-87.31805,36.838601,2825</coordinates>
          </Point>
        </Placemark>
        <Placemark>
          <name>ae2068 (EC45)</name>
          <description>Type: EC45&#xA;Hex: ae2068&#xA;Altitude: 1775 ft&#xA;Speed: 0.0 kts&#xA;Heading: 0.0&#xA;Source: airplanes.live</description>
          <Point>
            <coordinates>-85.897375,31.11249,1775</coordinates>
          </Point>
        </Placemark>
        <Placemark>
          <name>c2ba79 (Unknown Type)</name>
          <description>Type: Unknown Type&#xA;Hex: c2ba79&#xA;Altitude: 116300 ft&#xA;Speed: 0.0 kts&#xA;Heading: 0.0&#xA;Source: adsb.lol</description>
          <Point>
            <coordinates>0,0,116300</coordinates>
          </Point>
        </Placemark>
        <Placemark>
          <name>KATT21 (TEX2)</name>
          <description>Type: TEX2&#xA;Callsign: KATT21&#xA;Hex: ae1145&#xA;Altitude: 3275 ft&#xA;Speed: 223.9 kts&#xA;Heading: 104.2&#xA;Source: airplanes.live</description>
          <Point>
            <coordinates>-87.890248,30.331146,3275</coordinates>
          </Point>
        </Placemark>
        <Placemark>
          <name>NINJA32 (T-38 Talon)</name>
          <description>Type: T-38 Talon&#xA;Callsign: NINJA32&#xA;Hex: ae00da&#xA;Altitude: 13875 ft&#xA;Speed: 284.0 kts&#xA;Heading: 213.8&#xA;Source: adsb.lol</description>
          <Point>
            <coordinates>-87.726288,33.865915,13875</coordinates>
          </Point>
        </Placemark>
        <Placemark>
          <name>C6513 (AS65)</name>
          <description>Type: AS65&#xA;Callsign: C6513&#xA;Hex: ae2667&#xA;Altitude: 1700 ft&#xA;Speed: 82.4 kts&#xA;Heading: 119.0&#xA;Source: airplanes.live</description>
          <Point>
            <coordinates>-81.026367,29.949196,1700</coordinates>
          </Point>
        </Placemark>
        <Placemark>
          <name>adfdd5 (C-130 Hercules)</name>
          <description>Type: C-130 Hercules&#xA;Hex: adfdd5&#xA;Altitude: 24000 ft&#xA;Speed: 0.0 kts&#xA;Heading: 0.0&#xA;Source: airplanes.live</description>
          <Point>
            <coordinates>0,0,24000</coordinates>
          </Point>
        </Placemark>
        <Placemark>
          <name>ae1c35 (EC45)</name>
          <description>Type: EC45&#xA;Hex: ae1c35&#xA;Altitude: 650 ft&#xA;Speed: 0.0 kts&#xA;Heading: 0.0&#xA;Source: adsb.lol</description>
          <Point>
            <coordinates>-85.643921,31.222539,650</coordinates>
          </Point>
        </Placemark>
        <Placemark>
          <name>TEST1234 (Unknown Type)</name>
          <description>Type: Unknown Type&#xA;Callsign: TEST1234&#xA;Hex: adf994&#xA;Altitude: 0 ft&#xA;Speed: 0.0 kts&#xA;Heading: 0.0&#xA;Source: adsb.lol</description>
          <Point>
            <coordinates>0,0,0</coordinates>
          </Point>
        </Placemark>
        <Placemark>
          <name>SHOOT92 (T-38 Talon)</name>
          <description>Type: T-38 Talon&#xA;Callsign: SHOOT92&#xA;Hex: ae0027&#xA;Altitude: 6725 ft&#xA;Speed: 357.1 kts&#xA;Heading: 352.4&#xA;Source: airplanes.live</description>
          <Point>
            <coordinates>-97.345129,33.124374,6725</coordinates>
          </Point>
        </Placemark>
        <Placemark>
          <name>SPOOKY1 (T-38 Talon)</name>
          <description>Type: T-38 Talon&#xA;Callsign: SPOOKY1&#xA;Hex: adffc6&#xA;Altitude: 19025 ft&#xA;Speed: 420.4 kts&#xA;Heading: 300.3&#xA;Source: adsb.lol</description>
          <Point>
            <coordinates>-88.520107,33.761219,19025</coordinates>
          </Point>
        </Placemark>
        <Placemark>
          <name>SH246 (TEX2)</name>
          <description>Type: TEX2&#xA;Callsign: SH246&#xA;Hex: ae58eb&#xA;Altitude: 6300 ft&#xA;Speed: 210.1 kts&#xA;Heading: 268.4&#xA;Source: airplanes.live</description>
          <Point>
            <coordinates>-87.210297,30.811483,6300</coordinates>
          </Point>
        </Placemark>
        <Placemark>
          <name>FFAB123 (H-60 Black Hawk)</name>
          <description>Type: H-60 Black Hawk&#xA;Callsign: FFAB123&#xA;Hex: ae4f87&#xA;Altitude: 175 ft&#xA;Speed: 101.9 kts&#xA;Heading: 166.4&#xA;Source: airplanes.live</description>
          <Point>
            <coordinates>-81.258791,29.752625,175</coordinates>
          </Point>
        </Placemark>
        <Placemark>
          <name>DUKE81 (TEX2)</name>
          <description>Type: TEX2&#xA;Callsign: DUKE81&#xA;Hex: ae01f0&#xA;Altitude: 1875 ft&#xA;Speed: 143.1 kts&#xA;Heading: 357.6&#xA;Source: airplanes.live</description>
          <Point>
            <coordinates>-97.382228,35.394504,1875</coordinates>
          </Point>
        </Placemark>
        <Placemark>
          <name>ae1458 (C-17 Globemaster III)</name>
          <description>Type: C-17 Globemaster III&#xA;Hex: ae1458&#xA;Altitude: 32000 ft&#xA;Speed: 0.0 kts&#xA;Heading: 0.0&#xA;Source: adsb.lol</description>
          <Point>
            <coordinates>0,0,32000</coordinates>
          </Point>
        </Placemark>
        <Placemark>
          <name>N7870N (C172)</name>
          <description>Type: C172&#xA;Callsign: N7870N&#xA;Hex: aaacec&#xA;Altitude: 7000 ft&#xA;Speed: 92.2 kts&#xA;Heading: 170.6&#xA;Source: adsb.lol</description>
          <Point>
            <coordinates>-104.338054,38.79657,7000</coordinates>
          </Point>
        </Placemark>
        <Placemark>
          <name>HOBBY05 (C30J)</name>
          <description>Type: C30J&#xA;Callsign: HOBBY05&#xA;Hex: ae1443&#xA;Altitude: 6725 ft&#xA;Speed: 267.9 kts&#xA;Heading: 304.1&#xA;Source: airplanes.live</description>
          <Point>
            <coordinates>-157.776955,20.905167,6725</coordinates>
          </Point>
        </Placemark>
        <Placemark>
          <name>R26344 (H-60 Black Hawk)</name>
          <description>Type: H-60 Black Hawk&#xA;Callsign: R26344&#xA;Hex: ae0cc7&#xA;Altitude: 4450 ft&#xA;Speed: 110.5 kts&#xA;Heading: 153.7&#xA;Source: airplanes.live</description>
          <Point>
            <coordinates>-116.533328,34.889877,4450</coordinates>
          </Point>
        </Placemark>
        <Placemark>
          <name>BDIT304 (TEX2)</name>
          <description>Type: TEX2&#xA;Callsign: BDIT304&#xA;Hex: c2b017&#xA;Altitude: 3025 ft&#xA;Speed: 201.6 kts&#xA;Heading: 184.3&#xA;Source: airplanes.live</description>
          <Point>
            <coordinates>-105.556566,50.320222,3025</coordinates>
          </Point>
        </Placemark>
        <Placemark>
          <name>CHEWY31 (TEX2)</name>
          <description>Type: TEX2&#xA;Callsign: CHEWY31&#xA;Hex: ae11cc&#xA;Altitude: 2250 ft&#xA;Speed: 212.6 kts&#xA;Heading: 81.1&#xA;Source: airplanes.live</description>
          <Point>
            <coordinates>-87.238177,30.313339,2250</coordinates>
          </Point>
        </Placemark>
        <Placemark>
          <name>ae0505 (KC-135 Stratotanker)</name>
          <description>Type: KC-135 Stratotanker&#xA;Hex: ae0505&#xA;Altitude: 10425 ft&#xA;Speed: 0.0 kts&#xA;Heading: 0.0&#xA;Source: adsb.lol</description>
          <Point>
            <coordinates>0,0,10425</coordinates>
          </Point>
        </Placemark>
        <Placemark>
          <name>TEST1234 (Unknown Type)</name>
          <description>Type: Unknown Type&#xA;Callsign: TEST1234&#xA;Hex: adf992&#xA;Altitude: 0 ft&#xA;Speed: 0.0 kts&#xA;Heading: 0.0&#xA;Source: adsb.lol</description>
          <Point>
            <coordinates>0,0,0</coordinates>
          </Point>
        </Placemark>
        <Placemark>
          <name>N43128 (P28A)</name>
          <description>Type: P28A&#xA;Callsign: N43128&#xA;Hex: a52994&#xA;Altitude: 2800 ft&#xA;Speed: 89.1 kts&#xA;Heading: 331.1&#xA;Source: adsb.lol</description>
          <Point>
            <coordinates>-71.439972,42.57843,2800</coordinates>
          </Point>
        </Placemark>
        <Placemark>
          <name>TACK2 (T-38 Talon)</name>
          <description>Type: T-38 Talon&#xA;Callsign: TACK2&#xA;Hex: ae003a&#xA;Altitude: 19100 ft&#xA;Speed: 541.3 kts&#xA;Heading: 281.2&#xA;Source: airplanes.live</description>
          <Point>
            <coordinates>-99.187898,29.512527,19100</coordinates>
          </Point>
        </Placemark>
        <Placemark>
          <name>ae5f3a (P-8A Poseidon)</name>
          <description>Type: P-8A Poseidon&#xA;Hex: ae5f3a&#xA;Altitude: 4300 ft&#xA;Speed: 258.2 kts&#xA;Heading: 177.6&#xA;Source: adsb.lol</description>
          <Point>
            <coordinates>-81.63865,30.118057,4300</coordinates>
          </Point>
        </Placemark>
        <Placemark>
          <name>c27530 (Unknown Type)</name>
          <description>Type: Unknown Type&#xA;Hex: c27530&#xA;Altitude: 0 ft&#xA;Speed: 0.0 kts&#xA;Heading: 0.0&#xA;Source: adsb.lol</description>
          <Point>
            <coordinates>0,0,0</coordinates>
          </Point>
        </Placemark>
        <Placemark>
          <name>R08478 (CH-47 Chinook)</name>
          <description>Type: CH-47 Chinook&#xA;Callsign: R08478&#xA;Hex: ae6996&#xA;Altitude: 3450 ft&#xA;Speed: 111.4 kts&#xA;Heading: 331.6&#xA;Source: adsb.lol</description>
          <Point>
            <coordinates>-116.775643,32.655557,3450</coordinates>
          </Point>
        </Placemark>
        <Placemark>
          <name>KATT28 (TEX2)</name>
          <description>Type: TEX2&#xA;Callsign: KATT28&#xA;Hex: ae1142&#xA;Altitude: 14775 ft&#xA;Speed: 201.1 kts&#xA;Heading: 178.0&#xA;Source: airplanes.live</description>
          <Point>
            <coordinates>-87.183929,30.532216,14775</coordinates>
          </Point>
        </Placemark>
        <Placemark>
          <name>BELLS17 (EC45)</name>
          <description>Type: EC45&#xA;Callsign: BELLS17&#xA;Hex: ae205b&#xA;Altitude: 750 ft&#xA;Speed: 99.8 kts&#xA;Heading: 37.7&#xA;Source: airplanes.live</description>
          <Point>
            <coordinates>-86.494702,30.813671,750</coordinates>
          </Point>
        </Placemark>
        <Placemark>
          <name>TEST1234 (Unknown Type)</name>
          <description>Type: Unknown Type&#xA;Callsign: TEST1234&#xA;Hex: adf997&#xA;Altitude: 0 ft&#xA;Speed: 0.0 kts&#xA;Heading: 0.0&#xA;Source: airplanes.live</description>
          <Point>
            <coordinates>0,0,0</coordinates>
          </Point>
        </Placemark>
        <Placemark>
          <name>TEAL29 (C30J)</name>
          <description>Type: C30J&#xA;Callsign: TEAL29&#xA;Hex: ae0112&#xA;Altitude: 10850 ft&#xA;Speed: 272.7 kts&#xA;Heading: 86.0&#xA;Source: airplanes.live</description>
          <Point>
            <coordinates>-91.957434,30.258955,10850</coordinates>
          </Point>
        </Placemark>
        <Placemark>
          <name>ae1fc3 (EC45)</name>
          <description>Type: EC45&#xA;Hex: ae1fc3&#xA;Altitude: 650 ft&#xA;Speed: 0.0 kts&#xA;Heading: 0.0&#xA;Source: airplanes.live</description>
          <Point>
            <coordinates>-85.727252,31.163651,650</coordinates>
          </Point>
        </Placemark>
        <Placemark>
          <name>ae4f14 (C-17 Globemaster III)</name>
          <description>Type: C-17 Globemaster III&#xA;Hex: ae4f14&#xA;Altitude: 13775 ft&#xA;Speed: 0.0 kts&#xA;Heading: 0.0&#xA;Source: airplanes.live</description>
          <Point>
            <coordinates>0,0,13775</coordinates>
          </Point>
        </Placemark>
        <Placemark>
          <name>N453SP (C172)</name>
          <description>Type: C172&#xA;Callsign: N453SP&#xA;Hex: a57edf&#xA;Altitude: 0 ft&#xA;Speed: 0.0 kts&#xA;Heading: 0.0&#xA;Source: adsb.lol</description>
          <Point>
            <coordinates>-149.516912,61.412109,0</coordinates>
          </Point>
        </Placemark>
        <Placemark>
          <name>BOLT54 (C172)</name>
          <description>Type: C172&#xA;Callsign: BOLT54&#xA;Hex: aa7e89&#xA;Altitude: 10200 ft&#xA;Speed: 84.7 kts&#xA;Heading: 120.5&#xA;Source: adsb.lol</description>
          <Point>
            <coordinates>-104.279779,39.090088,10200</coordinates>
          </Point>
        </Placemark>
        <Placemark>
          <name>ae9277 (Unknown Type)</name>
          <description>Type: Unknown Type&#xA;Hex: ae9277&#xA;Altitude: 0 ft&#xA;Speed: 0.0 kts&#xA;Heading: 0.0&#xA;Source: adsb.lol</description>
          <Point>
            <coordinates>0,0,0</coordinates>
          </Point>
        </Placemark>
        <Placemark>
          <name>TEST1234 (Unknown Type)</name>
          <description>Type: Unknown Type&#xA;Callsign: TEST1234&#xA;Hex: adfbe2&#xA;Altitude: 0 ft&#xA;Speed: 0.0 kts&#xA;Heading: 0.0&#xA;Source: adsb.lol</description>
          <Point>
            <coordinates>0,0,0</coordinates>
          </Point>
        </Placemark>
        <Placemark>
          <name>BRACE32 (H-60 Black Hawk)</name>
          <description>Type: H-60 Black Hawk&#xA;Callsign: BRACE32&#xA;Hex: ae2767&#xA;Altitude: 475 ft&#xA;Speed: 103.2 kts&#xA;Heading: 286.3&#xA;Source: airplanes.live</description>
          <Point>
            <coordinates>-117.994621,32.868347,475</coordinates>
          </Point>
        </Placemark>
        <Placemark>
          <name>ae5c58 (P-8A Poseidon)</name>
          <description>Type: P-8A Poseidon&#xA;Hex: ae5c58&#xA;Altitude: 5300 ft&#xA;Speed: 0.0 kts&#xA;Heading: 0.0&#xA;Source: adsb.lol</description>
          <Point>
            <coordinates>0,0,5300</coordinates>
          </Point>
        </Placemark>
        <Placemark>
          <name>ae04ce (KC-135 Stratotanker)</name>
          <description>Type: KC-135 Stratotanker&#xA;Hex: ae04ce&#xA;Altitude: 34000 ft&#xA;Speed: 0.0 kts&#xA;Heading: 0.0&#xA;Source: adsb.lol</description>
          <Point>
            <coordinates>0,0,34000</coordinates>
          </Point>
        </Placemark>
        <Placemark>
          <name>SHARK71 (SR20)</name>
          <description>Type: SR20&#xA;Callsign: SHARK71&#xA;Hex: ae4ee4&#xA;Altitude: 0 ft&#xA;Speed: 0.1 kts&#xA;Heading: 0.0&#xA;Source: airplanes.live</description>
          <Point>
            <coordinates>-104.814078,38.972706,0</coordinates>
          </Point>
        </Placemark>
        <Placemark>
          <name>KATT19 (TEX2)</name>
          <description>Type: TEX2&#xA;Callsign: KATT19&#xA;Hex: ae1148&#xA;Altitude: 7825 ft&#xA;Speed: 171.0 kts&#xA;Heading: 15.3&#xA;Source: airplanes.live</description>
          <Point>
            <coordinates>-87.753021,30.57011,7825</coordinates>
          </Point>
        </Placemark>
        <Placemark>
          <name>HAF356C (C-130 Hercules)</name>
          <description>Type: C-130 Hercules&#xA;Callsign: HAF356C&#xA;Hex: 4682ef&#xA;Altitude: 18000 ft&#xA;Speed: 0.0 kts&#xA;Heading: 0.0&#xA;Source: airplanes.live</description>
          <Point>
            <coordinates>0,0,18000</coordinates>
          </Point>
        </Placemark>
        <Placemark>
          <name>COBRA12 (T-38 Talon)</name>
          <description>Type: T-38 Talon&#xA;Callsign: COBRA12&#xA;Hex: ae00d0&#xA;Altitude: 2975 ft&#xA;Speed: 173.5 kts&#xA;Heading: 249.1&#xA;Source: airplanes.live</description>
          <Point>
            <coordinates>-117.831631,34.930984,2975</coordinates>
          </Point>
        </Placemark>
        <Placemark>
          <name>TRON11 (GLF5)</name>
          <description>Type: GLF5&#xA;Callsign: TRON11&#xA;Hex: ae142e&#xA;Altitude: 2900 ft&#xA;Speed: 139.4 kts&#xA;Heading: 317.6&#xA;Source: airplanes.live</description>
          <Point>
            <coordinates>-110.863037,32.147719,2900</coordinates>
          </Point>
        </Placemark>
        <Placemark>
          <name>ORCA81 (T-38 Talon)</name>
          <description>Type: T-38 Talon&#xA;Callsign: ORCA81&#xA;Hex: ae00a6&#xA;Altitude: 12125 ft&#xA;Speed: 293.0 kts&#xA;Heading: 85.3&#xA;Source: airplanes.live</description>
          <Point>
            <coordinates>-99.632824,33.725327,12125</coordinates>
          </Point>
        </Placemark>
        <Placemark>
          <name>COMT451 (A400M Atlas)</name>
          <description>Type: A400M Atlas&#xA;Callsign: COMT451&#xA;Hex: 43c5e1&#xA;Altitude: 700 ft&#xA;Speed: 267.5 kts&#xA;Heading: 144.6&#xA;Source: adsb.lol</description>
          <Point>
            <coordinates>-2.329559,51.038291,700</coordinates>
          </Point>
        </Placemark>
        <Placemark>
          <name>RCH690 (C-17 Globemaster III)</name>
          <description>Type: C-17 Globemaster III&#xA;Callsign: RCH690&#xA;Hex: ae1459&#xA;Altitude: 27000 ft&#xA;Speed: 411.0 kts&#xA;Heading: 86.0&#xA;Source: airplanes.live</description>
          <Point>
            <coordinates>10.477171,49.739483,27000</coordinates>
          </Point>
        </Placemark>
        <Placemark>
          <name>e483ad (P-3C Orion)</name>
          <description>Type: P-3C Orion&#xA;Hex: e483ad&#xA;Altitude: 22000 ft&#xA;Speed: 0.0 kts&#xA;Heading: 0.0&#xA;Source: airplanes.live</description>
          <Point>
            <coordinates>0,0,22000</coordinates>
          </Point>
        </Placemark>
        <Placemark>
          <name>WATTS42 (EC45)</name>
          <description>Type: EC45&#xA;Callsign: WATTS42&#xA;Hex: ae1f42&#xA;Altitude: 2325 ft&#xA;Speed: 78.1 kts&#xA;Heading: 87.8&#xA;Source: adsb.lol</description>
          <Point>
            <coordinates>-111.477612,32.652374,2325</coordinates>
          </Point>
        </Placemark>
        <Placemark>
          <name>CASH51 (TEX2)</name>
          <description>Type: TEX2&#xA;Callsign: CASH51&#xA;Hex: ae11b7&#xA;Altitude: 19050 ft&#xA;Speed: 289.4 kts&#xA;Heading: 37.7&#xA;Source: airplanes.live</description>
          <Point>
            <coordinates>-100.200916,29.993188,19050</coordinates>
          </Point>
        </Placemark>
        <Placemark>
          <name>E83173 (C30J)</name>
          <description>Type: C30J&#xA;Callsign: E83173&#xA;Hex: ae29dd&#xA;Altitude: 9300 ft&#xA;Speed: 266.0 kts&#xA;Heading: 209.0&#xA;Source: airplanes.live</description>
          <Point>
            <coordinates>-97.662731,30.20754,9300</coordinates>
          </Point>
        </Placemark>
        <Placemark>
          <name>PAT175 (BE20)</name>
          <description>Type: BE20&#xA;Callsign: PAT175&#xA;Hex: adfedb&#xA;Altitude: 27000 ft&#xA;Speed: 278.2 kts&#xA;Heading: 40.0&#xA;Source: airplanes.live</description>
          <Point>
            <coordinates>-95.124149,34.968551,27000</coordinates>
          </Point>
        </Placemark>
        <Placemark>
          <name>BGST307 (BE20)</name>
          <description>Type: BE20&#xA;Callsign: BGST307&#xA;Hex: af20c1&#xA;Altitude: 18000 ft&#xA;Speed: 204.0 kts&#xA;Heading: 254.9&#xA;Source: airplanes.live</description>
          <Point>
            <coordinates>-93.912802,29.344529,18000</coordinates>
          </Point>
        </Placemark>
        <Placemark>
          <name>KATT25 (TEX2)</name>
          <description>Type: TEX2&#xA;Callsign: KATT25&#xA;Hex: ae114e&#xA;Altitude: 12100 ft&#xA;Speed: 214.5 kts&#xA;Heading: 110.5&#xA;Source: airplanes.live</description>
          <Point>
            <coordinates>-87.666724,30.45601,12100</coordinates>
          </Point>
        </Placemark>
        <Placemark>
          <name>KATT26 (TEX2)</name>
          <description>Type: TEX2&#xA;Callsign: KATT26&#xA;Hex: ae113f&#xA;Altitude: 10275 ft&#xA;Speed: 201.4 kts&#xA;Heading: 263.2&#xA;Source: airplanes.live</description>
          <Point>
            <coordinates>-87.456775,30.467322,10275</coordinates>
          </Point>
        </Placemark>
        <Placemark>
          <name>VV4E631 (A119)</name>
          <description>Type: A119&#xA;Callsign: VV4E631&#xA;Hex: ae6d51&#xA;Altitude: 775 ft&#xA;Speed: 133.0 kts&#xA;Heading: 350.0&#xA;Source: airplanes.live</description>
          <Point>
            <coordinates>-87.141457,30.760437,775</coordinates>
          </Point>
        </Placemark>
        <Placemark>
          <name>ae685b (Unknown Type)</name>
          <description>Type: Unknown Type&#xA;Hex: ae685b&#xA;Altitude: 31925 ft&#xA;Speed: 382.3 kts&#xA;Heading: 349.6&#xA;Source: airplanes.live</description>
          <Point>
            <coordinates>-83.106976,33.839218,31925</coordinates>
          </Point>
        </Placemark>
        <Placemark>
          <name>RUDY36 (V-22 Osprey)</name>
          <description>Type: V-22 Osprey&#xA;Callsign: RUDY36&#xA;Hex: ae6b9c&#xA;Altitude: 1300 ft&#xA;Speed: 115.0 kts&#xA;Heading: 319.0&#xA;Source: airplanes.live</description>
          <Point>
            <coordinates>-120.73214,35.799683,1300</coordinates>
          </Point>
        </Placemark>
        <Placemark>
          <name>G08748 (CH-47 Chinook)</name>
          <description>Type: CH-47 Chinook&#xA;Callsign: G08748&#xA;Hex: ae4cf3&#xA;Altitude: 0 ft&#xA;Speed: 0.0 kts&#xA;Heading: 0.0&#xA;Source: adsb.lol</description>
          <Point>
            <coordinates>-118.833103,45.695386,0</coordinates>
          </Point>
        </Placemark>
        <Placemark>
          <name>ORCA82 (T-38 Talon)</name>
          <description>Type: T-38 Talon&#xA;Callsign: ORCA82&#xA;Hex: ae005b&#xA;Altitude: 15075 ft&#xA;Speed: 387.6 kts&#xA;Heading: 337.1&#xA;Source: airplanes.live</description>
          <Point>
            <coordinates>-99.466553,33.784588,15075</coordinates>
          </Point>
        </Placemark>
        <Placemark>
          <name>FAST22 (T-38 Talon)</name>
          <description>Type: T-38 Talon&#xA;Callsign: FAST22&#xA;Hex: ae63d0&#xA;Altitude: 3800 ft&#xA;Speed: 251.5 kts&#xA;Heading: 173.8&#xA;Source: airplanes.live</description>
          <Point>
            <coordinates>-93.696167,38.660749,3800</coordinates>
          </Point>
        </Placemark>
        <Placemark>
          <name>ROKT32 (Unknown Type)</name>
          <description>Type: Unknown Type&#xA;Callsign: ROKT32&#xA;Hex: ae626c&#xA;Altitude: 8375 ft&#xA;Speed: 369.1 kts&#xA;Heading: 277.5&#xA;Source: airplanes.live</description>
          <Point>
            <coordinates>-87.447475,29.653198,8375</coordinates>
          </Point>
        </Placemark>
        <Placemark>
          <name>RN163 (TEX2)</name>
          <description>Type: TEX2&#xA;Callsign: RN163&#xA;Hex: ae4a2c&#xA;Altitude: 1325 ft&#xA;Speed: 208.0 kts&#xA;Heading: 180.3&#xA;Source: airplanes.live</description>
          <Point>
            <coordinates>-87.250941,30.312515,1325</coordinates>
          </Point>
        </Placemark>
        <Placemark>
          <name>ae05a0 (KC-135 Stratotanker)</name>
          <description>Type: KC-135 Stratotanker&#xA;Hex: ae05a0&#xA;Altitude: 31000 ft&#xA;Speed: 537.6 kts&#xA;Heading: 79.2&#xA;Source: adsb.lol</description>
          <Point>
            <coordinates>-84.807194,43.073901,31000</coordinates>
          </Point>
        </Placemark>
        <Placemark>
          <name>ae67b5 (Unknown Type)</name>
          <description>Type: Unknown Type&#xA;Hex: ae67b5&#xA;Altitude: 20000 ft&#xA;Speed: 395.6 kts&#xA;Heading: 285.1&#xA;Source: adsb.lol</description>
          <Point>
            <coordinates>-118.70034,47.772308,20000</coordinates>
          </Point>
        </Placemark>
        <Placemark>
          <name>SHARK75 (SR20)</name>
          <description>Type: SR20&#xA;Callsign: SHARK75&#xA;Hex: ae4ee8&#xA;Altitude: 0 ft&#xA;Speed: 0.0 kts&#xA;Heading: 0.0&#xA;Source: airplanes.live</description>
          <Point>
            <coordinates>-104.814117,38.972847,0</coordinates>
          </Point>
        </Placemark>
        <Placemark>
          <name>SOLID62 (T-38 Talon)</name>
          <description>Type: T-38 Talon&#xA;Callsign: SOLID62&#xA;Hex: ae0005&#xA;Altitude: 17700 ft&#xA;Speed: 402.2 kts&#xA;Heading: 236.2&#xA;Source: airplanes.live</description>
          <Point>
            <coordinates>-99.0286,35.959649,17700</coordinates>
          </Point>
        </Placemark>
        <Placemark>
          <name>ROKT31 (HAWK)</name>
          <description>Type: HAWK&#xA;Callsign: ROKT31&#xA;Hex: ae627d&#xA;Altitude: 9825 ft&#xA;Speed: 289.7 kts&#xA;Heading: 23.8&#xA;Source: airplanes.live</description>
          <Point>
            <coordinates>-87.439432,29.66397,9825</coordinates>
          </Point>
        </Placemark>
        <Placemark>
          <name>CEF624 (C-295)</name>
          <description>Type: C-295&#xA;Callsign: CEF624&#xA;Hex: 498489&#xA;Altitude: 21000 ft&#xA;Speed: 269.4 kts&#xA;Heading: 143.3&#xA;Source: airplanes.live</description>
          <Point>
            <coordinates>23.712903,43.867813,21000</coordinates>
          </Point>
        </Placemark>
        <Placemark>
          <name>TEX02 (TEX2)</name>
          <description>Type: TEX2&#xA;Callsign: TEX02&#xA;Hex: c87f22&#xA;Altitude: 3850 ft&#xA;Speed: 153.2 kts&#xA;Heading: 29.7&#xA;Source: airplanes.live</description>
          <Point>
            <coordinates>175.47588,-40.046516,3850</coordinates>
          </Point>
        </Placemark>
        <Placemark>
          <name>CARGO38 (Unknown Type)</name>
          <description>Type: Unknown Type&#xA;Callsign: CARGO38&#xA;Hex: ae52fe&#xA;Altitude: 750 ft&#xA;Speed: 92.1 kts&#xA;Heading: 339.0&#xA;Source: airplanes.live</description>
          <Point>
            <coordinates>0,0,750</coordinates>
          </Point>
        </Placemark>
        <Placemark>
          <name>N36120 (P28R)</name>
          <description>Type: P28R&#xA;Callsign: N36120&#xA;Hex: a412ba&#xA;Altitude: -100 ft&#xA;Speed: 78.6 kts&#xA;Heading: 312.4&#xA;Source: adsb.lol</description>
          <Point>
            <coordinates>-71.255701,42.46669,-100</coordinates>
          </Point>
        </Placemark>
        <Placemark>
          <name>BRCAT20 (TEX2)</name>
          <description>Type: TEX2&#xA;Callsign: BRCAT20&#xA;Hex: ae4eb0&#xA;Altitude: 6050 ft&#xA;Speed: 236.4 kts&#xA;Heading: 310.0&#xA;Source: adsb.lol</description>
          <Point>
            <coordinates>-104.603072,33.278379,6050</coordinates>
          </Point>
        </Placemark>
        <Placemark>
          <name>TACK4 (T-38 Talon)</name>
          <description>Type: T-38 Talon&#xA;Callsign: TACK4&#xA;Hex: ae00d4&#xA;Altitude: 18925 ft&#xA;Speed: 554.7 kts&#xA;Heading: 283.7&#xA;Source: adsb.lol</description>
          <Point>
            <coordinates>-99.199518,29.465927,18925</coordinates>
          </Point>
        </Placemark>
        <Placemark>
          <name>CODE22 (TEX2)</name>
          <description>Type: TEX2&#xA;Callsign: CODE22&#xA;Hex: ae1e5c&#xA;Altitude: 8925 ft&#xA;Speed: 239.0 kts&#xA;Heading: 359.8&#xA;Source: airplanes.live</description>
          <Point>
            <coordinates>-97.670174,36.5121,8925</coordinates>
          </Point>
        </Placemark>
        <Placemark>
          <name>BELLS37 (EC45)</name>
          <description>Type: EC45&#xA;Callsign: BELLS37&#xA;Hex: ae5a81&#xA;Altitude: 3825 ft&#xA;Speed: 88.8 kts&#xA;Heading: 213.5&#xA;Source: airplanes.live</description>
          <Point>
            <coordinates>-85.284668,31.871796,3825</coordinates>
          </Point>
        </Placemark>
        <Placemark>
          <name>R20063 (H-60 Black Hawk)</name>
          <description>Type: H-60 Black Hawk&#xA;Callsign: R20063&#xA;Hex: ae47fc&#xA;Altitude: 1475 ft&#xA;Speed: 82.0 kts&#xA;Heading: 316.0&#xA;Source: airplanes.live</description>
          <Point>
            <coordinates>-78.876518,35.313364,1475</coordinates>
          </Point>
        </Placemark>
        <Placemark>
          <name>COSMO42 (C30J)</name>
          <description>Type: C30J&#xA;Callsign: COSMO42&#xA;Hex: 33ffe5&#xA;Altitude: 237 ft&#xA;Speed: 131.0 kts&#xA;Heading: 36.8&#xA;Source: airplanes.live</description>
          <Point>
            <coordinates>10.398952,43.688389,237</coordinates>
          </Point>
        </Placemark>
        <Placemark>
          <name>RCH199 (C-17 Globemaster III)</name>
          <description>Type: C-17 Globemaster III&#xA;Callsign: RCH199&#xA;Hex: ae49c7&#xA;Altitude: 30000 ft&#xA;Speed: 0.0 kts&#xA;Heading: 0.0&#xA;Source: adsb.lol</description>
          <Point>
            <coordinates>0,0,30000</coordinates>
          </Point>
        </Placemark>
        <Placemark>
          <name>adf7e3 (Unknown Type)</name>
          <description>Type: Unknown Type&#xA;Hex: adf7e3&#xA;Altitude: 0 ft&#xA;Speed: 0.0 kts&#xA;Heading: 0.0&#xA;Source: adsb.lol</description>
          <Point>
            <coordinates>0,0,0</coordinates>
          </Point>
        </Placemark>
        <Placemark>
          <name>WIRE31 (TEX2)</name>
          <description>Type: TEX2&#xA;Callsign: WIRE31&#xA;Hex: ae11c9&#xA;Altitude: 3775 ft&#xA;Speed: 196.5 kts&#xA;Heading: 347.7&#xA;Source: airplanes.live</description>
          <Point>
            <coordinates>-97.873936,36.195099,3775</coordinates>
          </Point>
        </Placemark>
        <Placemark>
          <name>MESSY47 (EC45)</name>
          <description>Type: EC45&#xA;Callsign: MESSY47&#xA;Hex: ae1f5a&#xA;Altitude: 850 ft&#xA;Speed: 89.9 kts&#xA;Heading: 244.3&#xA;Source: adsb.lol</description>
          <Point>
            <coordinates>-85.547461,31.216115,850</coordinates>
          </Point>
        </Placemark>
        <Placemark>
          <name>RCH409 (C-17 Globemaster III)</name>
          <description>Type: C-17 Globemaster III&#xA;Callsign: RCH409&#xA;Hex: ae2fa4&#xA;Altitude: 36000 ft&#xA;Speed: 428.0 kts&#xA;Heading: 351.0&#xA;Source: airplanes.live</description>
          <Point>
            <coordinates>23.456758,42.897235,36000</coordinates>
          </Point>
        </Placemark>
        <Placemark>
          <name>ae4867 (H-60 Black Hawk)</name>
          <description>Type: H-60 Black Hawk&#xA;Hex: ae4867&#xA;Altitude: 0 ft&#xA;Speed: 36.1 kts&#xA;Heading: 85.2&#xA;Source: airplanes.live</description>
          <Point>
            <coordinates>0,0,0</coordinates>
          </Point>
        </Placemark>
        <Placemark>
          <name>TEST1234 (Unknown Type)</name>
          <description>Type: Unknown Type&#xA;Callsign: TEST1234&#xA;Hex: adf996&#xA;Altitude: 0 ft&#xA;Speed: 0.0 kts&#xA;Heading: 0.0&#xA;Source: adsb.lol</description>
          <Point>
            <coordinates>0,0,0</coordinates>
          </Point>
        </Placemark>
        <Placemark>
          <name>RCH227 (C-17 Globemaster III)</name>
          <description>Type: C-17 Globemaster III&#xA;Callsign: RCH227&#xA;Hex: ae1468&#xA;Altitude: 35000 ft&#xA;Speed: 545.3 kts&#xA;Heading: 56.8&#xA;Source: airplanes.live</description>
          <Point>
            <coordinates>-112.17802,35.87709,35000</coordinates>
          </Point>
        </Placemark>
        <Placemark>
          <name>RANDY78 (T-38 Talon)</name>
          <description>Type: T-38 Talon&#xA;Callsign: RANDY78&#xA;Hex: adff5c&#xA;Altitude: 1000 ft&#xA;Speed: 161.0 kts&#xA;Heading: 154.2&#xA;Source: airplanes.live</description>
          <Point>
            <coordinates>-98.284272,29.55574,1000</coordinates>
          </Point>
        </Placemark>
        <Placemark>
          <name>LUZON41 (TEX2)</name>
          <description>Type: TEX2&#xA;Callsign: LUZON41&#xA;Hex: ae1408&#xA;Altitude: 9650 ft&#xA;Speed: 183.9 kts&#xA;Heading: 155.2&#xA;Source: airplanes.live</description>
          <Point>
            <coordinates>-97.951778,29.097336,9650</coordinates>
          </Point>
        </Placemark>
        <Placemark>
          <name>GOAT28 (TEX2)</name>
          <description>Type: TEX2&#xA;Callsign: GOAT28&#xA;Hex: ae0206&#xA;Altitude: 6450 ft&#xA;Speed: 239.6 kts&#xA;Heading: 232.5&#xA;Source: airplanes.live</description>
          <Point>
            <coordinates>-96.673041,30.356528,6450</coordinates>
          </Point>
        </Placemark>
        <Placemark>
          <name>C6585 (AS65)</name>
          <description>Type: AS65&#xA;Callsign: C6585&#xA;Hex: ae26ab&#xA;Altitude: 475 ft&#xA;Speed: 60.4 kts&#xA;Heading: 163.7&#xA;Source: airplanes.live</description>
          <Point>
            <coordinates>-88.116706,30.297913,475</coordinates>
          </Point>
        </Placemark>
        <Placemark>
          <name>ae013a (KC-135 Stratotanker)</name>
          <description>Type: KC-135 Stratotanker&#xA;Hex: ae013a&#xA;Altitude: 1475 ft&#xA;Speed: 0.0 kts&#xA;Heading: 0.0&#xA;Source: airplanes.live</description>
          <Point>
            <coordinates>0,0,1475</coordinates>
          </Point>
        </Placemark>
        <Placemark>
          <name>EASY04 (B350)</name>
          <description>Type: B350&#xA;Callsign: EASY04&#xA;Hex: ae4a7a&#xA;Altitude: 2375 ft&#xA;Speed: 181.5 kts&#xA;Heading: 41.0&#xA;Source: airplanes.live</description>
          <Point>
            <coordinates>-89.948079,29.838226,2375</coordinates>
          </Point>
        </Placemark>
        <Placemark>
          <name>TEST1234 (TWR)</name>
          <description>Type: TWR&#xA;Callsign: TEST1234&#xA;Hex: 400008&#xA;Altitude: 0 ft&#xA;Speed: 0.0 kts&#xA;Heading: 0.0&#xA;Source: adsb.lol</description>
          <Point>
            <coordinates>0,0,0</coordinates>
          </Point>
        </Placemark>
        <Placemark>
          <name>TEST1234 (Unknown Type)</name>
          <description>Type: Unknown Type&#xA;Callsign: TEST1234&#xA;Hex: adf995&#xA;Altitude: 0 ft&#xA;Speed: 0.0 kts&#xA;Heading: 0.0&#xA;Source: airplanes.live</description>
          <Point>
            <coordinates>0,0,0</coordinates>
          </Point>
        </Placemark>
        <Placemark>
          <name>400032 (Unknown Type)</name>
          <description>Type: Unknown Type&#xA;Hex: 400032&#xA;Altitude: 0 ft&#xA;Speed: 0.0 kts&#xA;Heading: 0.0&#xA;Source: airplanes.live</description>
          <Point>
            <coordinates>0,0,0</coordinates>
          </Point>
        </Placemark>
        <Placemark>
          <name>43c75d (LYNX)</name>
          <description>Type: LYNX&#xA;Hex: 43c75d&#xA;Altitude: 0 ft&#xA;Speed: 0.0 kts&#xA;Heading: 0.0&#xA;Source: adsb.lol</description>
          <Point>
            <coordinates>0,0,0</coordinates>
          </Point>
        </Placemark>
        <Placemark>
          <name>C6547 (AS65)</name>
          <description>Type: AS65&#xA;Callsign: C6547&#xA;Hex: ae2686&#xA;Altitude: -125 ft&#xA;Speed: 2.3 kts&#xA;Heading: 296.6&#xA;Source: airplanes.live</description>
          <Point>
            <coordinates>-124.212112,40.779295,-125</coordinates>
          </Point>
        </Placemark>
        <Placemark>
          <name>TALON76 (H-60 Black Hawk)</name>
          <description>Type: H-60 Black Hawk&#xA;Callsign: TALON76&#xA;Hex: ae6a19&#xA;Altitude: 4925 ft&#xA;Speed: 102.4 kts&#xA;Heading: 116.1&#xA;Source: airplanes.live</description>
          <Point>
            <coordinates>-115.41929,43.095501,4925</coordinates>
          </Point>
        </Placemark>
        <Placemark>
          <name>HAWK282 (HAWK)</name>
          <description>Type: HAWK&#xA;Callsign: HAWK282&#xA;Hex: ae62fa&#xA;Altitude: 15950 ft&#xA;Speed: 433.4 kts&#xA;Heading: 143.6&#xA;Source: adsb.lol</description>
          <Point>
            <coordinates>-99.028966,27.383097,15950</coordinates>
          </Point>
        </Placemark>
        <Placemark>
          <name>GRZL44 (DH8A)</name>
          <description>Type: DH8A&#xA;Callsign: GRZL44&#xA;Hex: c2b2dd&#xA;Altitude: 11900 ft&#xA;Speed: 184.2 kts&#xA;Heading: 267.5&#xA;Source: adsb.lol</description>
          <Point>
            <coordinates>-95.002862,51.035797,11900</coordinates>
          </Point>
        </Placemark>
        <Placemark>
          <name>EASY61 (BE20)</name>
          <description>Type: BE20&#xA;Callsign: EASY61&#xA;Hex: ae06d9&#xA;Altitude: -100 ft&#xA;Speed: 123.0 kts&#xA;Heading: 224.3&#xA;Source: airplanes.live</description>
          <Point>
            <coordinates>-90.016321,29.842255,-100</coordinates>
          </Point>
        </Placemark>
        <Placemark>
          <name>VV8E029 (A119)</name>
          <description>Type: A119&#xA;Callsign: VV8E029&#xA;Hex: ae73f5&#xA;Altitude: 1375 ft&#xA;Speed: 0.0 kts&#xA;Heading: 0.0&#xA;Source: adsb.lol</description>
          <Point>
            <coordinates>-87.770929,30.290238,1375</coordinates>
          </Point>
        </Placemark>
        <Placemark>
          <name>TEXN142 (TEX2)</name>
          <description>Type: TEX2&#xA;Callsign: TEXN142&#xA;Hex: ae4a17&#xA;Altitude: 4025 ft&#xA;Speed: 243.2 kts&#xA;Heading: 281.9&#xA;Source: adsb.lol</description>
          <Point>
            <coordinates>-86.717027,30.878769,4025</coordinates>
          </Point>
        </Placemark>
        <Placemark>
          <name>JANET86 (B736)</name>
          <description>Type: B736&#xA;Callsign: JANET86&#xA;Hex: abcac9&#xA;Altitude: 2525 ft&#xA;Speed: 136.6 kts&#xA;Heading: 203.8&#xA;Source: adsb.lol</description>
          <Point>
            <coordinates>-115.148114,36.114342,2525</coordinates>
          </Point>
        </Placemark>
        <Placemark>
          <name>SHARK72 (SR20)</name>
          <description>Type: SR20&#xA;Callsign: SHARK72&#xA;Hex: ae4ee5&#xA;Altitude: 9525 ft&#xA;Speed: 152.2 kts&#xA;Heading: 36.7&#xA;Source: adsb.lol</description>
          <Point>
            <coordinates>-104.774342,38.394703,9525</coordinates>
          </Point>
        </Placemark>
        <Placemark>
          <name>HAWK264 (Unknown Type)</name>
          <description>Type: Unknown Type&#xA;Callsign: HAWK264&#xA;Hex: ae631e&#xA;Altitude: 0 ft&#xA;Speed: 428.0 kts&#xA;Heading: 146.1&#xA;Source: airplanes.live</description>
          <Point>
            <coordinates>-99.011847,27.396835,0</coordinates>
          </Point>
        </Placemark>
        <Placemark>
          <name>NA31 (T-38 Talon)</name>
          <description>Type: T-38 Talon&#xA;Callsign: NA31&#xA;Hex: adff81&#xA;Altitude: 14325 ft&#xA;Speed: 310.4 kts&#xA;Heading: 228.9&#xA;Source: adsb.lol</description>
          <Point>
            <coordinates>-87.731438,33.859258,14325</coordinates>
          </Point>
        </Placemark>
        <Placemark>
          <name>ae64ac (H-60 Black Hawk)</name>
          <description>Type: H-60 Black Hawk&#xA;Hex: ae64ac&#xA;Altitude: 0 ft&#xA;Speed: 0.0 kts&#xA;Heading: 75.9&#xA;Source: airplanes.live</description>
          <Point>
            <coordinates>0,0,0</coordinates>
          </Point>
        </Placemark>
        <Placemark>
          <name>ZORRO21 (AT8T)</name>
          <description>Type: AT8T&#xA;Callsign: ZORRO21&#xA;Hex: aafaaa&#xA;Altitude: 2425 ft&#xA;Speed: 127.2 kts&#xA;Heading: 3.1&#xA;Source: adsb.lol</description>
          <Point>
            <coordinates>-96.942101,35.360367,2425</coordinates>
          </Point>
        </Placemark>
        <Placemark>
          <name>GOAT03 (TEX2)</name>
          <description>Type: TEX2&#xA;Callsign: GOAT03&#xA;Hex: ae1e68&#xA;Altitude: 12925 ft&#xA;Speed: 290.3 kts&#xA;Heading: 159.0&#xA;Source: airplanes.live</description>
          <Point>
            <coordinates>-98.139179,29.145538,12925</coordinates>
          </Point>
        </Placemark>
        <Placemark>
          <name>BANJO86 (H-60 Black Hawk)</name>
          <description>Type: H-60 Black Hawk&#xA;Callsign: BANJO86&#xA;Hex: ae4883&#xA;Altitude: 1800 ft&#xA;Speed: 100.0 kts&#xA;Heading: 148.2&#xA;Source: airplanes.live</description>
          <Point>
            <coordinates>-85.88842,31.245256,1800</coordinates>
          </Point>
        </Placemark>
        <Placemark>
          <name>MESSY13 (EC45)</name>
          <description>Type: EC45&#xA;Callsign: MESSY13&#xA;Hex: ae2065&#xA;Altitude: 375 ft&#xA;Speed: 72.3 kts&#xA;Heading: 4.8&#xA;Source: airplanes.live</description>
          <Point>
            <coordinates>-85.574379,31.22105,375</coordinates>
          </Point>
        </Placemark>
        <Placemark>
          <name>BB094 (TEX2)</name>
          <description>Type: TEX2&#xA;Callsign: BB094&#xA;Hex: ae2edb&#xA;Altitude: 3700 ft&#xA;Speed: 133.0 kts&#xA;Heading: 179.6&#xA;Source: airplanes.live</description>
          <Point>
            <coordinates>-85.438147,32.556656,3700</coordinates>
          </Point>
        </Placemark>
        <Placemark>
          <name>ae6797 (Unknown Type)</name>
          <description>Type: Unknown Type&#xA;Hex: ae6797&#xA;Altitude: 15825 ft&#xA;Speed: 326.0 kts&#xA;Heading: 360.0&#xA;Source: airplanes.live</description>
          <Point>
            <coordinates>-78.866086,26.494155,15825</coordinates>
          </Point>
        </Placemark>
        <Placemark>
          <name>adfaed (Unknown Type)</name>
          <description>Type: Unknown Type&#xA;Hex: adfaed&#xA;Altitude: 80000 ft&#xA;Speed: 0.0 kts&#xA;Heading: 0.0&#xA;Source: airplanes.live</description>
          <Point>
            <coordinates>0,0,80000</coordinates>
          </Point>
        </Placemark>
        <Placemark>
          <name>BOLT55 (C172)</name>
          <description>Type: C172&#xA;Callsign: BOLT55&#xA;Hex: aa7eac&#xA;Altitude: 10350 ft&#xA;Speed: 99.8 kts&#xA;Heading: 47.0&#xA;Source: adsb.lol</description>
          <Point>
            <coordinates>-104.371431,39.177521,10350</coordinates>
          </Point>
        </Placemark>
        <Placemark>
          <name>7cfa35 (B350)</name>
          <description>Type: B350&#xA;Hex: 7cfa35&#xA;Altitude: 0 ft&#xA;Speed: 0.0 kts&#xA;Heading: 0.0&#xA;Source: adsb.lol</description>
          <Point>
            <coordinates>0,0,0</coordinates>
          </Point>
        </Placemark>
        <Placemark>
          <name>DEVIL44 (TEX2)</name>
          <description>Type: TEX2&#xA;Callsign: DEVIL44&#xA;Hex: ae113a&#xA;Altitude: 4125 ft&#xA;Speed: 140.9 kts&#xA;Heading: 48.2&#xA;Source: adsb.lol</description>
          <Point>
            <coordinates>-100.806638,29.36824,4125</coordinates>
          </Point>
        </Placemark>
        <Placemark>
          <name>CARD11 (T-38 Talon)</name>
          <description>Type: T-38 Talon&#xA;Callsign: CARD11&#xA;Hex: ae0022&#xA;Altitude: 1875 ft&#xA;Speed: 287.5 kts&#xA;Heading: 285.5&#xA;Source: airplanes.live</description>
          <Point>
            <coordinates>-98.242387,29.652145,1875</coordinates>
          </Point>
        </Placemark>
        <Placemark>
          <name>R33507 (AH-64 Apache)</name>
          <description>Type: AH-64 Apache&#xA;Callsign: R33507&#xA;Hex: af53b8&#xA;Altitude: 3500 ft&#xA;Speed: 107.4 kts&#xA;Heading: 279.1&#xA;Source: airplanes.live</description>
          <Point>
            <coordinates>-79.010282,35.289436,3500</coordinates>
          </Point>
        </Placemark>
        <Placemark>
          <name>ae6c30 (Unknown Type)</name>
          <description>Type: Unknown Type&#xA;Hex: ae6c30&#xA;Altitude: 0 ft&#xA;Speed: 0.0 kts&#xA;Heading: 0.0&#xA;Source: adsb.lol</description>
          <Point>
            <coordinates>0,0,0</coordinates>
          </Point>
        </Placemark>
        <Placemark>
          <name>BOLT56 (C172)</name>
          <description>Type: C172&#xA;Callsign: BOLT56&#xA;Hex: aa7ecf&#xA;Altitude: 7225 ft&#xA;Speed: 109.5 kts&#xA;Heading: 350.5&#xA;Source: adsb.lol</description>
          <Point>
            <coordinates>-104.806645,38.974365,7225</coordinates>
          </Point>
        </Placemark>
        <Placemark>
          <name>BRCAT14 (TEX2)</name>
          <description>Type: TEX2&#xA;Callsign: BRCAT14&#xA;Hex: ae58e6&#xA;Altitude: 8925 ft&#xA;Speed: 252.7 kts&#xA;Heading: 96.6&#xA;Source: adsb.lol</description>
          <Point>
            <coordinates>-103.191449,32.864685,8925</coordinates>
          </Point>
        </Placemark>
        <Placemark>
          <name>ORCA84 (T-38 Talon)</name>
          <description>Type: T-38 Talon&#xA;Callsign: ORCA84&#xA;Hex: ae006a&#xA;Altitude: 15100 ft&#xA;Speed: 399.2 kts&#xA;Heading: 337.9&#xA;Source: airplanes.live</description>
          <Point>
            <coordinates>-99.464722,33.784653,15100</coordinates>
          </Point>
        </Placemark>
        <Placemark>
          <name>SOLID61 (T-38 Talon)</name>
          <description>Type: T-38 Talon&#xA;Callsign: SOLID61&#xA;Hex: ae001d&#xA;Altitude: 16850 ft&#xA;Speed: 409.7 kts&#xA;Heading: 281.1&#xA;Source: airplanes.live</description>
          <Point>
            <coordinates>-99.016514,35.957977,16850</coordinates>
          </Point>
        </Placemark>
        <Placemark>
          <name>ae6050 (Unknown Type)</name>
          <description>Type: Unknown Type&#xA;Hex: ae6050&#xA;Altitude: 0 ft&#xA;Speed: 0.0 kts&#xA;Heading: 0.0&#xA;Source: airplanes.live</description>
          <Point>
            <coordinates>0,0,0</coordinates>
          </Point>
        </Placemark>
        <Placemark>
          <name>CTM1013 (A332)</name>
          <description>Type: A332&#xA;Callsign: CTM1013&#xA;Hex: 3b7542&#xA;Altitude: 34000 ft&#xA;Speed: 464.3 kts&#xA;Heading: 222.6&#xA;Source: airplanes.live</description>
          <Point>
            <coordinates>-125.128716,46.737935,34000</coordinates>
          </Point>
        </Placemark>
        <Placemark>
          <name>C6562 (AS65)</name>
          <description>Type: AS65&#xA;Callsign: C6562&#xA;Hex: ae2694&#xA;Altitude: 425 ft&#xA;Speed: 130.6 kts&#xA;Heading: 185.3&#xA;Source: airplanes.live</description>
          <Point>
            <coordinates>-122.369112,37.715012,425</coordinates>
          </Point>
        </Placemark>
        <Placemark>
          <name>APLQ3 (TEX2)</name>
          <description>Type: TEX2&#xA;Callsign: APLQ3&#xA;Hex: c2b0ad&#xA;Altitude: 11150 ft&#xA;Speed: 291.2 kts&#xA;Heading: 68.0&#xA;Source: adsb.lol</description>
          <Point>
            <coordinates>-107.139106,50.437637,11150</coordinates>
          </Point>
        </Placemark>
        <Placemark>
          <name>TROL81 (TEX2)</name>
          <description>Type: TEX2&#xA;Callsign: TROL81&#xA;Hex: c2b03f&#xA;Altitude: 6525 ft&#xA;Speed: 230.9 kts&#xA;Heading: 151.6&#xA;Source: airplanes.live</description>
          <Point>
            <coordinates>-105.531199,49.988068,6525</coordinates>
          </Point>
        </Placemark>
        <Placemark>
          <name>PAT486 (BE20)</name>
          <description>Type: BE20&#xA;Callsign: PAT486&#xA;Hex: adfecc&#xA;Altitude: 15200 ft&#xA;Speed: 236.4 kts&#xA;Heading: 114.0&#xA;Source: airplanes.live</description>
          <Point>
            <coordinates>-105.461913,35.292508,15200</coordinates>
          </Point>
        </Placemark>
        <Placemark>
          <name>LANCE71 (T-38 Talon)</name>
          <description>Type: T-38 Talon&#xA;Callsign: LANCE71&#xA;Hex: ae0070&#xA;Altitude: 12725 ft&#xA;Speed: 426.4 kts&#xA;Heading: 105.9&#xA;Source: airplanes.live</description>
          <Point>
            <coordinates>-99.335742,33.389191,12725</coordinates>
          </Point>
        </Placemark>
        <Placemark>
          <name>BALL57 (TEX2)</name>
          <description>Type: TEX2&#xA;Callsign: BALL57&#xA;Hex: ae172a&#xA;Altitude: 9075 ft&#xA;Speed: 143.0 kts&#xA;Heading: 233.5&#xA;Source: airplanes.live</description>
          <Point>
            <coordinates>-97.787075,36.334305,9075</coordinates>
          </Point>
        </Placemark>
        <Placemark>
          <name>C2301 (CN35)</name>
          <description>Type: CN35&#xA;Callsign: C2301&#xA;Hex: ae2237&#xA;Altitude: 50 ft&#xA;Speed: 103.8 kts&#xA;Heading: 69.1&#xA;Source: airplanes.live</description>
          <Point>
            <coordinates>-80.142263,25.566879,50</coordinates>
          </Point>
        </Placemark>
        <Placemark>
          <name>SPAR18 (B737)</name>
          <description>Type: B737&#xA;Callsign: SPAR18&#xA;Hex: ae189c&#xA;Altitude: 2625 ft&#xA;Speed: 139.0 kts&#xA;Heading: 88.8&#xA;Source: airplanes.live</description>
          <Point>
            <coordinates>-150.296427,61.16722,2625</coordinates>
          </Point>
        </Placemark>
        <Placemark>
          <name>WATTS17 (EC45)</name>
          <description>Type: EC45&#xA;Callsign: WATTS17&#xA;Hex: ae1f67&#xA;Altitude: 2075 ft&#xA;Speed: 48.8 kts&#xA;Heading: 105.5&#xA;Source: adsb.lol</description>
          <Point>
            <coordinates>-111.492389,32.679291,2075</coordinates>
          </Point>
        </Placemark>
        <Placemark>
          <name>ORCA83 (T-38 Talon)</name>
          <description>Type: T-38 Talon&#xA;Callsign: ORCA83&#xA;Hex: adff46&#xA;Altitude: 15125 ft&#xA;Speed: 391.3 kts&#xA;Heading: 338.1&#xA;Source: adsb.lol</description>
          <Point>
            <coordinates>-99.465866,33.785147,15125</coordinates>
          </Point>
        </Placemark>
        <Placemark>
          <name>0d01e0 (B732)</name>
          <description>Type: B732&#xA;Hex: 0d01e0&#xA;Altitude: 30900 ft&#xA;Speed: 442.0 kts&#xA;Heading: 9.0&#xA;Source: airplanes.live</description>
          <Point>
            <coordinates>-98.705498,21.503084,30900</coordinates>
          </Point>
        </Placemark>
        <Placemark>
          <name>FANNY67 (TEX2)</name>
          <description>Type: TEX2&#xA;Callsign: FANNY67&#xA;Hex: ae1e44&#xA;Altitude: 1800 ft&#xA;Speed: 180.1 kts&#xA;Heading: 330.0&#xA;Source: airplanes.live</description>
          <Point>
            <coordinates>-98.301808,29.520081,1800</coordinates>
          </Point>
        </Placemark>
        <Placemark>
          <name>GRIM25 (T-38 Talon)</name>
          <description>Type: T-38 Talon&#xA;Callsign: GRIM25&#xA;Hex: ae0025&#xA;Altitude: 17525 ft&#xA;Speed: 424.3 kts&#xA;Heading: 210.1&#xA;Source: airplanes.live</description>
          <Point>
            <coordinates>-98.182185,36.345892,17525</coordinates>
          </Point>
        </Placemark>
        <Placemark>
          <name>RN148 (TEX2)</name>
          <description>Type: TEX2&#xA;Callsign: RN148&#xA;Hex: ae4a1d&#xA;Altitude: 7450 ft&#xA;Speed: 252.8 kts&#xA;Heading: 15.1&#xA;Source: airplanes.live</description>
          <Point>
            <coordinates>-87.323806,31.317123,7450</coordinates>
          </Point>
        </Placemark>
        <Placemark>
          <name>C6597 (AS65)</name>
          <description>Type: AS65&#xA;Callsign: C6597&#xA;Hex: ae26b7&#xA;Altitude: 1700 ft&#xA;Speed: 117.9 kts&#xA;Heading: 112.4&#xA;Source: adsb.lol</description>
          <Point>
            <coordinates>-81.295862,30.049702,1700</coordinates>
          </Point>
        </Placemark>
        <Placemark>
          <name>G026022 (H-60 Black Hawk)</name>
          <description>Type: H-60 Black Hawk&#xA;Callsign: G026022&#xA;Hex: ae0bec&#xA;Altitude: 5300 ft&#xA;Speed: 119.8 kts&#xA;Heading: 127.5&#xA;Source: airplanes.live</description>
          <Point>
            <coordinates>-112.000996,40.596996,5300</coordinates>
          </Point>
        </Placemark>
        <Placemark>
          <name>ae596d (C30J)</name>
          <description>Type: C30J&#xA;Hex: ae596d&#xA;Altitude: 0 ft&#xA;Speed: 6.8 kts&#xA;Heading: 0.0&#xA;Source: airplanes.live</description>
          <Point>
            <coordinates>-80.607888,28.24756,0</coordinates>
          </Point>
        </Placemark>
        <Placemark>
          <name>MCUE12 (B762)</name>
          <description>Type: B762&#xA;Callsign: MCUE12&#xA;Hex: ae5faa&#xA;Altitude: 32000 ft&#xA;Speed: 0.0 kts&#xA;Heading: 256.4&#xA;Source: airplanes.live</description>
          <Point>
            <coordinates>-2.877731,36.206303,32000</coordinates>
          </Point>
        </Placemark>
        <Placemark>
          <name>FUJCG (A332)</name>
          <description>Type: A332&#xA;Callsign: FUJCG&#xA;Hex: 3b75dd&#xA;Altitude: 19000 ft&#xA;Speed: 373.0 kts&#xA;Heading: 159.8&#xA;Source: airplanes.live</description>
          <Point>
            <coordinates>3.421211,46.199512,19000</coordinates>
          </Point>
        </Placemark>
        <Placemark>
          <name>c87f25 (TEX2)</name>
          <description>Type: TEX2&#xA;Hex: c87f25&#xA;Altitude: 0 ft&#xA;Speed: 0.0 kts&#xA;Heading: 0.0&#xA;Source: airplanes.live</description>
          <Point>
            <coordinates>0,0,0</coordinates>
          </Point>
        </Placemark>
        <Placemark>
          <name>DUSTY71 (V-22 Osprey)</name>
          <description>Type: V-22 Osprey&#xA;Callsign: DUSTY71&#xA;Hex: ae4eca&#xA;Altitude: 7450 ft&#xA;Speed: 0.0 kts&#xA;Heading: 0.0&#xA;Source: adsb.lol</description>
          <Point>
            <coordinates>0,0,7450</coordinates>
          </Point>
        </Placemark>
        <Placemark>
          <name>ae10b5 (C-17 Globemaster III)</name>
          <description>Type: C-17 Globemaster III&#xA;Hex: ae10b5&#xA;Altitude: 1050 ft&#xA;Speed: 0.0 kts&#xA;Heading: 0.0&#xA;Source: adsb.lol</description>
          <Point>
            <coordinates>0,0,1050</coordinates>
          </Point>
        </Placemark>
        <Placemark>
          <name>BOLT78 (C150)</name>
          <description>Type: C150&#xA;Callsign: BOLT78&#xA;Hex: a71b04&#xA;Altitude: 7125 ft&#xA;Speed: 72.1 kts&#xA;Heading: 266.8&#xA;Source: adsb.lol</description>
          <Point>
            <coordinates>-104.813093,38.988098,7125</coordinates>
          </Point>
        </Placemark>
        <Placemark>
          <name>ae07ac (KC-135 Stratotanker)</name>
          <description>Type: KC-135 Stratotanker&#xA;Hex: ae07ac&#xA;Altitude: 34000 ft&#xA;Speed: 397.0 kts&#xA;Heading: 327.0&#xA;Source: adsb.lol</description>
          <Point>
            <coordinates>-111.164061,53.153452,34000</coordinates>
          </Point>
        </Placemark>
        <Placemark>
          <name>LANCE72 (T-38 Talon)</name>
          <description>Type: T-38 Talon&#xA;Callsign: LANCE72&#xA;Hex: ae0060&#xA;Altitude: 12550 ft&#xA;Speed: 408.2 kts&#xA;Heading: 111.4&#xA;Source: adsb.lol</description>
          <Point>
            <coordinates>-99.276141,33.359161,12550</coordinates>
          </Point>
        </Placemark>
        <Placemark>
          <name>MNTNA57 (BE9L)</name>
          <description>Type: BE9L&#xA;Callsign: MNTNA57&#xA;Hex: ae14ae&#xA;Altitude: 14925 ft&#xA;Speed: 234.7 kts&#xA;Heading: 60.4&#xA;Source: adsb.lol</description>
          <Point>
            <coordinates>-96.846595,28.498993,14925</coordinates>
          </Point>
        </Placemark>
        <Placemark>
          <name>BB158 (TEX2)</name>
          <description>Type: TEX2&#xA;Callsign: BB158&#xA;Hex: ae4a27&#xA;Altitude: 4250 ft&#xA;Speed: 225.4 kts&#xA;Heading: 239.9&#xA;Source: airplanes.live</description>
          <Point>
            <coordinates>-89.143231,30.464715,4250</coordinates>
          </Point>
        </Placemark>
        <Placemark>
          <name>POBOY11 (EC45)</name>
          <description>Type: EC45&#xA;Callsign: POBOY11&#xA;Hex: ae1fb7&#xA;Altitude: 2775 ft&#xA;Speed: 96.9 kts&#xA;Heading: 172.3&#xA;Source: airplanes.live</description>
          <Point>
            <coordinates>-85.123279,30.778524,2775</coordinates>
          </Point>
        </Placemark>
        <Placemark>
          <name>PAT245 (BE20)</name>
          <description>Type: BE20&#xA;Callsign: PAT245&#xA;Hex: ae571b&#xA;Altitude: 21850 ft&#xA;Speed: 316.6 kts&#xA;Heading: 84.2&#xA;Source: airplanes.live</description>
          <Point>
            <coordinates>-78.545629,40.200418,21850</coordinates>
          </Point>
        </Placemark>
        <Placemark>
          <name>PAT841 (BE20)</name>
          <description>Type: BE20&#xA;Callsign: PAT841&#xA;Hex: ae08fa&#xA;Altitude: 15850 ft&#xA;Speed: 334.0 kts&#xA;Heading: 72.2&#xA;Source: airplanes.live</description>
          <Point>
            <coordinates>-72.172132,43.04732,15850</coordinates>
          </Point>
        </Placemark>
        <Placemark>
          <name>TEST1234 (Unknown Type)</name>
          <description>Type: Unknown Type&#xA;Callsign: TEST1234&#xA;Hex: adfbe3&#xA;Altitude: 0 ft&#xA;Speed: 0.0 kts&#xA;Heading: 0.0&#xA;Source: adsb.lol</description>
          <Point>
            <coordinates>0,0,0</coordinates>
          </Point>
        </Placemark>
        <Placemark>
          <name>SONIC11 (TEX2)</name>
          <description>Type: TEX2&#xA;Callsign: SONIC11&#xA;Hex: ae1401&#xA;Altitude: 11125 ft&#xA;Speed: 284.6 kts&#xA;Heading: 146.0&#xA;Source: airplanes.live</description>
          <Point>
            <coordinates>-88.237463,33.066559,11125</coordinates>
          </Point>
        </Placemark>
        <Placemark>
          <name>CAPE47 (H-60 Black Hawk)</name>
          <description>Type: H-60 Black Hawk&#xA;Callsign: CAPE47&#xA;Hex: ae50e5&#xA;Altitude: 0 ft&#xA;Speed: 79.0 kts&#xA;Heading: 99.9&#xA;Source: airplanes.live</description>
          <Point>
            <coordinates>-85.997475,31.371002,0</coordinates>
          </Point>
        </Placemark>
        <Placemark>
          <name>CHAOS22 (AH-64 Apache)</name>
          <description>Type: AH-64 Apache&#xA;Callsign: CHAOS22&#xA;Hex: ae7487&#xA;Altitude: 600 ft&#xA;Speed: 107.0 kts&#xA;Heading: 0.0&#xA;Source: airplanes.live</description>
          <Point>
            <coordinates>-80.487686,33.782455,600</coordinates>
          </Point>
        </Placemark>
        <Placemark>
          <name>RCH137 (C-17 Globemaster III)</name>
          <description>Type: C-17 Globemaster III&#xA;Callsign: RCH137&#xA;Hex: ae145c&#xA;Altitude: 36000 ft&#xA;Speed: 415.0 kts&#xA;Heading: 338.0&#xA;Source: airplanes.live</description>
          <Point>
            <coordinates>23.142349,44.017751,36000</coordinates>
          </Point>
        </Placemark>
        <Placemark>
          <name>ae67c2 (Unknown Type)</name>
          <description>Type: Unknown Type&#xA;Hex: ae67c2&#xA;Altitude: 4125 ft&#xA;Speed: 173.6 kts&#xA;Heading: 114.5&#xA;Source: adsb.lol</description>
          <Point>
            <coordinates>-114.216966,48.384796,4125</coordinates>
          </Point>
        </Placemark>
        <Placemark>
          <name>BLCKFM (G120)</name>
          <description>Type: G120&#xA;Callsign: BLCKFM&#xA;Hex: c0282d&#xA;Altitude: 3325 ft&#xA;Speed: 132.5 kts&#xA;Heading: 175.2&#xA;Source: adsb.lol</description>
          <Point>
            <coordinates>-98.630132,49.689766,3325</coordinates>
          </Point>
        </Placemark>
        <Placemark>
          <name>3ba632 (Unknown Type)</name>
          <description>Type: Unknown Type&#xA;Hex: 3ba632&#xA;Altitude: 0 ft&#xA;Speed: 0.0 kts&#xA;Heading: 0.0&#xA;Source: adsb.lol</description>
          <Point>
            <coordinates>0,0,0</coordinates>
          </Point>
        </Placemark>
        <Placemark>
          <name>N (C208)</name>
          <description>Type: C208&#xA;Callsign: N&#xA;Hex: ae17cb&#xA;Altitude: 3500 ft&#xA;Speed: 130.3 kts&#xA;Heading: 72.1&#xA;Source: airplanes.live</description>
          <Point>
            <coordinates>-78.700503,35.494731,3500</coordinates>
          </Point>
        </Placemark>
        <Placemark>
          <name>R20938 (H-60 Black Hawk)</name>
          <description>Type: H-60 Black Hawk&#xA;Callsign: R20938&#xA;Hex: ae6019&#xA;Altitude: 100 ft&#xA;Speed: 63.3 kts&#xA;Heading: 74.4&#xA;Source: airplanes.live</description>
          <Point>
            <coordinates>-75.768258,44.07254,100</coordinates>
          </Point>
        </Placemark>
        <Placemark>
          <name>BALL64 (TEX2)</name>
          <description>Type: TEX2&#xA;Callsign: BALL64&#xA;Hex: ae1e60&#xA;Altitude: 12200 ft&#xA;Speed: 278.8 kts&#xA;Heading: 143.5&#xA;Source: airplanes.live</description>
          <Point>
            <coordinates>-97.777176,35.44931,12200</coordinates>
          </Point>
        </Placemark>
        <Placemark>
          <name>GRAIL41 (TEX2)</name>
          <description>Type: TEX2&#xA;Callsign: GRAIL41&#xA;Hex: ae112d&#xA;Altitude: 9500 ft&#xA;Speed: 254.4 kts&#xA;Heading: 96.1&#xA;Source: airplanes.live</description>
          <Point>
            <coordinates>-88.023065,33.350098,9500</coordinates>
          </Point>
        </Placemark>
        <Placemark>
          <name>ae61fe (C30J)</name>
          <description>Type: C30J&#xA;Hex: ae61fe&#xA;Altitude: 5800 ft&#xA;Speed: 178.0 kts&#xA;Heading: 264.0&#xA;Source: adsb.lol</description>
          <Point>
            <coordinates>-85.447417,30.7609,5800</coordinates>
          </Point>
        </Placemark>
        <Placemark>
          <name>GRZLY23 (CH-47 Chinook)</name>
          <description>Type: CH-47 Chinook&#xA;Callsign: GRZLY23&#xA;Hex: 480443&#xA;Altitude: -25 ft&#xA;Speed: 63.0 kts&#xA;Heading: 270.0&#xA;Source: airplanes.live</description>
          <Point>
            <coordinates>4.921864,51.568364,-25</coordinates>
          </Point>
        </Placemark>
        <Placemark>
          <name>RCH703 (C-17 Globemaster III)</name>
          <description>Type: C-17 Globemaster III&#xA;Callsign: RCH703&#xA;Hex: ae1453&#xA;Altitude: 29000 ft&#xA;Speed: 438.0 kts&#xA;Heading: 109.9&#xA;Source: airplanes.live</description>
          <Point>
            <coordinates>16.548102,48.912878,29000</coordinates>
          </Point>
        </Placemark>
        <Placemark>
          <name>XA405 (A332)</name>
          <description>Type: A332&#xA;Callsign: XA405&#xA;Hex: 7cf867&#xA;Altitude: 30004 ft&#xA;Speed: 473.0 kts&#xA;Heading: 208.0&#xA;Source: airplanes.live</description>
          <Point>
            <coordinates>-161.929893,16.393318,30004</coordinates>
          </Point>
        </Placemark>
        <Placemark>
          <name>SHARK68 (SR20)</name>
          <description>Type: SR20&#xA;Callsign: SHARK68&#xA;Hex: ae4ee1&#xA;Altitude: 7275 ft&#xA;Speed: 115.3 kts&#xA;Heading: 4.0&#xA;Source: airplanes.live</description>
          <Point>
            <coordinates>-104.799957,38.956055,7275</coordinates>
          </Point>
        </Placemark>
        <Placemark>
          <name>MNTNA71 (BE9L)</name>
          <description>Type: BE9L&#xA;Callsign: MNTNA71&#xA;Hex: ae1477&#xA;Altitude: 5950 ft&#xA;Speed: 170.0 kts&#xA;Heading: 349.6&#xA;Source: airplanes.live</description>
          <Point>
            <coordinates>-97.850471,26.825727,5950</coordinates>
          </Point>
        </Placemark>
        <Placemark>
          <name>RCH1848 (C-17 Globemaster III)</name>
          <description>Type: C-17 Globemaster III&#xA;Callsign: RCH1848&#xA;Hex: ae145b&#xA;Altitude: 33000 ft&#xA;Speed: 482.0 kts&#xA;Heading: 128.0&#xA;Source: airplanes.live</description>
          <Point>
            <coordinates>-83.322181,34.491367,33000</coordinates>
          </Point>
        </Placemark>
        <Placemark>
          <name>TEST1234 (TWR)</name>
          <description>Type: TWR&#xA;Callsign: TEST1234&#xA;Hex: 400006&#xA;Altitude: 0 ft&#xA;Speed: 0.0 kts&#xA;Heading: 0.0&#xA;Source: adsb.lol</description>
          <Point>
            <coordinates>0,0,0</coordinates>
          </Point>
        </Placemark>
        <Placemark>
          <name>36f32c (Unknown Type)</name>
          <description>Type: Unknown Type&#xA;Hex: 36f32c&#xA;Altitude: 0 ft&#xA;Speed: 0.0 kts&#xA;Heading: 0.0&#xA;Source: adsb.lol</description>
          <Point>
            <coordinates>0,0,0</coordinates>
          </Point>
        </Placemark>
        <Placemark>
          <name>SHARK40 (SR20)</name>
          <description>Type: SR20&#xA;Callsign: SHARK40&#xA;Hex: ae4ed9&#xA;Altitude: 8725 ft&#xA;Speed: 100.1 kts&#xA;Heading: 92.9&#xA;Source: adsb.lol</description>
          <Point>
            <coordinates>-104.146987,38.83667,8725</coordinates>
          </Point>
        </Placemark>