<?xml version="1.0" encoding="UTF-8"?>
<kml xmlns="http://www.opengis.net/kml/2.2">
  <Document>
    <name>US Military Tracker</name>
    <description>Generated: 2026-03-02T20:49:44Z | Chairman: groq | Score: 0.00</description>
    <Folder>
      <name>Aircraft (410 tracked)</name>
      <Folder>
        <name>Unknown</name>
        <Placemark>
          <name> (E550)</name>
          <description>Branch: &#xA;Altitude: 975 ft&#xA;Speed: 182.5 kts&#xA;Heading: 133.2&#xA;Mission: </description>
          <Point>
            <coordinates>-56.022949,-34.876378,975</coordinates>
          </Point>
        </Placemark>
        <Placemark>
          <name>CEF624 (C295)</name>
          <description>Branch: &#xA;Altitude: 21000 ft&#xA;Speed: 252.1 kts&#xA;Heading: 132.1&#xA;Mission: </description>
          <Point>
            <coordinates>20.360748,46.731583,21000</coordinates>
          </Point>
        </Placemark>
        <Placemark>
          <name>MOBIL35 (K35R)</name>
          <description>Branch: &#xA;Altitude: 0 ft&#xA;Speed: 0.0 kts&#xA;Heading: 0.0&#xA;Mission: </description>
          <Point>
            <coordinates>0,0,0</coordinates>
          </Point>
        </Placemark>
        <Placemark>
          <name>SWOOP71 (TEX2)</name>
          <description>Branch: &#xA;Altitude: 8625 ft&#xA;Speed: 241.4 kts&#xA;Heading: 346.8&#xA;Mission: </description>
          <Point>
            <coordinates>-100.241687,29.596802,8625</coordinates>
          </Point>
        </Placemark>
        <Placemark>
          <name>CHETAH2 (T38)</name>
          <description>Branch: &#xA;Altitude: 15750 ft&#xA;Speed: 447.1 kts&#xA;Heading: 192.8&#xA;Mission: </description>
          <Point>
            <coordinates>-97.609722,29.353317,15750</coordinates>
          </Point>
        </Placemark>
        <Placemark>
          <name>MNTNA47 (BE9L)</name>
          <description>Branch: &#xA;Altitude: 6900 ft&#xA;Speed: 177.0 kts&#xA;Heading: 39.3&#xA;Mission: </description>
          <Point>
            <coordinates>-97.102661,28.277893,6900</coordinates>
          </Point>
        </Placemark>
        <Placemark>
          <name>YETI31 (B762)</name>
          <description>Branch: &#xA;Altitude: 1450 ft&#xA;Speed: 0.0 kts&#xA;Heading: 0.0&#xA;Mission: </description>
          <Point>
            <coordinates>0,0,1450</coordinates>
          </Point>
        </Placemark>
        <Placemark>
          <name>HAWK286 ()</name>
          <description>Branch: &#xA;Altitude: 4425 ft&#xA;Speed: 281.0 kts&#xA;Heading: 327.2&#xA;Mission: </description>
          <Point>
            <coordinates>-97.867088,27.664536,4425</coordinates>
          </Point>
        </Placemark>
        <Placemark>
          <name>ZORO52 (AT8T)</name>
          <description>Branch: &#xA;Altitude: 3350 ft&#xA;Speed: 133.2 kts&#xA;Heading: 183.0&#xA;Mission: </description>
          <Point>
            <coordinates>-98.016993,35.019562,3350</coordinates>
          </Point>
        </Placemark>
        <Placemark>
          <name>NORTH48 (BE20)</name>
          <description>Branch: &#xA;Altitude: 300 ft&#xA;Speed: 106.9 kts&#xA;Heading: 31.6&#xA;Mission: </description>
          <Point>
            <coordinates>-151.26829,60.555038,300</coordinates>
          </Point>
        </Placemark>
        <Placemark>
          <name>ICY76 (H60)</name>
          <description>Branch: &#xA;Altitude: 0 ft&#xA;Speed: 0.0 kts&#xA;Heading: 0.0&#xA;Mission: </description>
          <Point>
            <coordinates>-149.663609,61.263554,0</coordinates>
          </Point>
        </Placemark>
        <Placemark>
          <name>CHEWY41 (TEX2)</name>
          <description>Branch: &#xA;Altitude: 150 ft&#xA;Speed: 113.6 kts&#xA;Heading: 102.2&#xA;Mission: </description>
          <Point>
            <coordinates>-88.088594,30.638397,150</coordinates>
          </Point>
        </Placemark>
        <Placemark>
          <name>EVAL80 (BE20)</name>
          <description>Branch: &#xA;Altitude: 14050 ft&#xA;Speed: 241.1 kts&#xA;Heading: 181.7&#xA;Mission: </description>
          <Point>
            <coordinates>-86.714001,35.356796,14050</coordinates>
          </Point>
        </Placemark>
        <Placemark>
          <name> ()</name>
          <description>Branch: &#xA;Altitude: 48300 ft&#xA;Speed: 0.0 kts&#xA;Heading: 0.0&#xA;Mission: </description>
          <Point>
            <coordinates>0,0,48300</coordinates>
          </Point>
        </Placemark>
        <Placemark>
          <name>VV1E018 (A119)</name>
          <description>Branch: &#xA;Altitude: 500 ft&#xA;Speed: 86.0 kts&#xA;Heading: 343.5&#xA;Mission: </description>
          <Point>
            <coordinates>-87.336624,30.678909,500</coordinates>
          </Point>
        </Placemark>
        <Placemark>
          <name> (C30J)</name>
          <description>Branch: &#xA;Altitude: 550 ft&#xA;Speed: 0.0 kts&#xA;Heading: 0.0&#xA;Mission: </description>
          <Point>
            <coordinates>0,0,550</coordinates>
          </Point>
        </Placemark>
        <Placemark>
          <name>R00257 (BE20)</name>
          <description>Branch: &#xA;Altitude: 25000 ft&#xA;Speed: 283.6 kts&#xA;Heading: 45.4&#xA;Mission: </description>
          <Point>
            <coordinates>-89.682541,35.254852,25000</coordinates>
          </Point>
        </Placemark>
        <Placemark>
          <name>JEDI24 (TEX2)</name>
          <description>Branch: &#xA;Altitude: 8200 ft&#xA;Speed: 189.6 kts&#xA;Heading: 216.2&#xA;Mission: </description>
          <Point>
            <coordinates>-86.835184,31.036377,8200</coordinates>
          </Point>
        </Placemark>
        <Placemark>
          <name>TEX11 (TEX2)</name>
          <description>Branch: &#xA;Altitude: 2875 ft&#xA;Speed: 184.0 kts&#xA;Heading: 270.3&#xA;Mission: </description>
          <Point>
            <coordinates>175.221619,-40.051575,2875</coordinates>
          </Point>
        </Placemark>
        <Placemark>
          <name> (H47)</name>
          <description>Branch: &#xA;Altitude: 1200 ft&#xA;Speed: 0.0 kts&#xA;Heading: 0.0&#xA;Mission: </description>
          <Point>
            <coordinates>0,0,1200</coordinates>
          </Point>
        </Placemark>
        <Placemark>
          <name>DRAGN76 (TEX2)</name>
          <description>Branch: &#xA;Altitude: 5675 ft&#xA;Speed: 236.4 kts&#xA;Heading: 114.0&#xA;Mission: </description>
          <Point>
            <coordinates>-97.701708,36.592061,5675</coordinates>
          </Point>
        </Placemark>
        <Placemark>
          <name>VV8E029 (A119)</name>
          <description>Branch: &#xA;Altitude: 775 ft&#xA;Speed: 78.0 kts&#xA;Heading: 91.5&#xA;Mission: </description>
          <Point>
            <coordinates>-87.261712,30.473053,775</coordinates>
          </Point>
        </Placemark>
        <Placemark>
          <name>SCRCH51 (V22)</name>
          <description>Branch: &#xA;Altitude: 1425 ft&#xA;Speed: 226.8 kts&#xA;Heading: 343.1&#xA;Mission: </description>
          <Point>
            <coordinates>-117.48443,33.173451,1425</coordinates>
          </Point>
        </Placemark>
        <Placemark>
          <name>HAWK219 (HAWK)</name>
          <description>Branch: &#xA;Altitude: 17325 ft&#xA;Speed: 168.7 kts&#xA;Heading: 311.1&#xA;Mission: </description>
          <Point>
            <coordinates>-98.912712,27.873432,17325</coordinates>
          </Point>
        </Placemark>
        <Placemark>
          <name>BRAVE38 (C130)</name>
          <description>Branch: &#xA;Altitude: 23000 ft&#xA;Speed: 348.4 kts&#xA;Heading: 96.8&#xA;Mission: </description>
          <Point>
            <coordinates>-89.354095,34.564711,23000</coordinates>
          </Point>
        </Placemark>
        <Placemark>
          <name>CODY06 (C17)</name>
          <description>Branch: &#xA;Altitude: 30650 ft&#xA;Speed: 0.0 kts&#xA;Heading: 0.0&#xA;Mission: </description>
          <Point>
            <coordinates>0,0,30650</coordinates>
          </Point>
        </Placemark>
        <Placemark>
          <name>MOBIL12 (K35R)</name>
          <description>Branch: &#xA;Altitude: 27650 ft&#xA;Speed: 416.0 kts&#xA;Heading: 276.0&#xA;Mission: </description>
          <Point>
            <coordinates>0,0,27650</coordinates>
          </Point>
        </Placemark>
        <Placemark>
          <name>JAVAN45 (TEX2)</name>
          <description>Branch: &#xA;Altitude: 6950 ft&#xA;Speed: 237.1 kts&#xA;Heading: 114.9&#xA;Mission: </description>
          <Point>
            <coordinates>-97.103738,30.832672,6950</coordinates>
          </Point>
        </Placemark>
        <Placemark>
          <name>G21203 (H60)</name>
          <description>Branch: &#xA;Altitude: 1425 ft&#xA;Speed: 119.0 kts&#xA;Heading: 269.5&#xA;Mission: </description>
          <Point>
            <coordinates>-77.225525,40.333054,1425</coordinates>
          </Point>
        </Placemark>
        <Placemark>
          <name>FORGE78 (GLF5)</name>
          <description>Branch: &#xA;Altitude: 2875 ft&#xA;Speed: 175.5 kts&#xA;Heading: 274.2&#xA;Mission: </description>
          <Point>
            <coordinates>-75.103114,43.025436,2875</coordinates>
          </Point>
        </Placemark>
        <Placemark>
          <name> ()</name>
          <description>Branch: &#xA;Altitude: 1350 ft&#xA;Speed: 205.4 kts&#xA;Heading: 151.2&#xA;Mission: </description>
          <Point>
            <coordinates>-74.528265,39.433731,1350</coordinates>
          </Point>
        </Placemark>
        <Placemark>
          <name>IBIS73 (C295)</name>
          <description>Branch: &#xA;Altitude: 3950 ft&#xA;Speed: 239.7 kts&#xA;Heading: 332.7&#xA;Mission: </description>
          <Point>
            <coordinates>-3.228577,40.297256,3950</coordinates>
          </Point>
        </Placemark>
        <Placemark>
          <name> ()</name>
          <description>Branch: &#xA;Altitude: 0 ft&#xA;Speed: 0.0 kts&#xA;Heading: 0.0&#xA;Mission: </description>
          <Point>
            <coordinates>0,0,0</coordinates>
          </Point>
        </Placemark>
        <Placemark>
          <name>R20764 (H60)</name>
          <description>Branch: &#xA;Altitude: 0 ft&#xA;Speed: 89.0 kts&#xA;Heading: 41.9&#xA;Mission: </description>
          <Point>
            <coordinates>-87.588791,37.977219,0</coordinates>
          </Point>
        </Placemark>
        <Placemark>
          <name>STGN26 (G120)</name>
          <description>Branch: &#xA;Altitude: 1750 ft&#xA;Speed: 127.1 kts&#xA;Heading: 140.4&#xA;Mission: </description>
          <Point>
            <coordinates>-98.245962,49.923889,1750</coordinates>
          </Point>
        </Placemark>
        <Placemark>
          <name>DRAGN47 (TEX2)</name>
          <description>Branch: &#xA;Altitude: 3475 ft&#xA;Speed: 165.3 kts&#xA;Heading: 220.3&#xA;Mission: </description>
          <Point>
            <coordinates>-97.669773,36.235794,3475</coordinates>
          </Point>
        </Placemark>
        <Placemark>
          <name>HAWG62 (C30J)</name>
          <description>Branch: &#xA;Altitude: 1050 ft&#xA;Speed: 145.0 kts&#xA;Heading: 189.5&#xA;Mission: </description>
          <Point>
            <coordinates>-92.20657,34.911575,1050</coordinates>
          </Point>
        </Placemark>
        <Placemark>
          <name>BOBCT41 (HAWK)</name>
          <description>Branch: &#xA;Altitude: 15100 ft&#xA;Speed: 221.5 kts&#xA;Heading: 137.4&#xA;Mission: </description>
          <Point>
            <coordinates>-88.428226,32.873235,15100</coordinates>
          </Point>
        </Placemark>
        <Placemark>
          <name>ROKT41 (HAWK)</name>
          <description>Branch: &#xA;Altitude: 7100 ft&#xA;Speed: 330.2 kts&#xA;Heading: 12.8&#xA;Mission: </description>
          <Point>
            <coordinates>-88.288,30.880799,7100</coordinates>
          </Point>
        </Placemark>
        <Placemark>
          <name>SH157 (TEX2)</name>
          <description>Branch: &#xA;Altitude: 8675 ft&#xA;Speed: 137.3 kts&#xA;Heading: 332.7&#xA;Mission: </description>
          <Point>
            <coordinates>-87.167305,31.235733,8675</coordinates>
          </Point>
        </Placemark>
        <Placemark>
          <name>TEXN089 (TEX2)</name>
          <description>Branch: &#xA;Altitude: 6675 ft&#xA;Speed: 256.7 kts&#xA;Heading: 54.5&#xA;Mission: </description>
          <Point>
            <coordinates>-86.450647,31.465868,6675</coordinates>
          </Point>
        </Placemark>
        <Placemark>
          <name>G26676 (H60)</name>
          <description>Branch: &#xA;Altitude: 600 ft&#xA;Speed: 0.0 kts&#xA;Heading: 0.0&#xA;Mission: </description>
          <Point>
            <coordinates>0,0,600</coordinates>
          </Point>
        </Placemark>
        <Placemark>
          <name> (P8)</name>
          <description>Branch: &#xA;Altitude: 37000 ft&#xA;Speed: 428.9 kts&#xA;Heading: 40.9&#xA;Mission: </description>
          <Point>
            <coordinates>-127.288302,47.635555,37000</coordinates>
          </Point>
        </Placemark>
        <Placemark>
          <name>TIGER34 (TEX2)</name>
          <description>Branch: &#xA;Altitude: 12950 ft&#xA;Speed: 316.7 kts&#xA;Heading: 125.8&#xA;Mission: </description>
          <Point>
            <coordinates>-100.387996,29.032379,12950</coordinates>
          </Point>
        </Placemark>
        <Placemark>
          <name>BURNY03 (T38)</name>
          <description>Branch: &#xA;Altitude: 28025 ft&#xA;Speed: 473.1 kts&#xA;Heading: 294.3&#xA;Mission: </description>
          <Point>
            <coordinates>-99.390172,34.397141,28025</coordinates>
          </Point>
        </Placemark>
        <Placemark>
          <name>STEWY78 (TEX2)</name>
          <description>Branch: &#xA;Altitude: 9450 ft&#xA;Speed: 185.5 kts&#xA;Heading: 274.3&#xA;Mission: </description>
          <Point>
            <coordinates>-97.749978,36.870895,9450</coordinates>
          </Point>
        </Placemark>
        <Placemark>
          <name> (R135)</name>
          <description>Branch: &#xA;Altitude: 33500 ft&#xA;Speed: 0.0 kts&#xA;Heading: 0.0&#xA;Mission: </description>
          <Point>
            <coordinates>0,0,33500</coordinates>
          </Point>
        </Placemark>
        <Placemark>
          <name>00000000 ()</name>
          <description>Branch: &#xA;Altitude: 70000 ft&#xA;Speed: 0.7 kts&#xA;Heading: 0.0&#xA;Mission: </description>
          <Point>
            <coordinates>0,0,70000</coordinates>
          </Point>
        </Placemark>
        <Placemark>
          <name>TEST1234 ()</name>
          <description>Branch: &#xA;Altitude: 0 ft&#xA;Speed: 0.0 kts&#xA;Heading: 0.0&#xA;Mission: </description>
          <Point>
            <coordinates>0,0,0</coordinates>
          </Point>
        </Placemark>
        <Placemark>
          <name>BOXER19 (TEX2)</name>
          <description>Branch: &#xA;Altitude: 0 ft&#xA;Speed: 233.3 kts&#xA;Heading: 353.9&#xA;Mission: </description>
          <Point>
            <coordinates>0,0,0</coordinates>
          </Point>
        </Placemark>
        <Placemark>
          <name>ASY406 (A332)</name>
          <description>Branch: &#xA;Altitude: 19000 ft&#xA;Speed: 425.3 kts&#xA;Heading: 253.6&#xA;Mission: </description>
          <Point>
            <coordinates>-158.953092,20.920529,19000</coordinates>
          </Point>
        </Placemark>
        <Placemark>
          <name>E83173 (C30J)</name>
          <description>Branch: &#xA;Altitude: 25050 ft&#xA;Speed: 0.0 kts&#xA;Heading: 0.0&#xA;Mission: </description>
          <Point>
            <coordinates>0,0,25050</coordinates>
          </Point>
        </Placemark>
        <Placemark>
          <name>TEST1234 ()</name>
          <description>Branch: &#xA;Altitude: 0 ft&#xA;Speed: 0.0 kts&#xA;Heading: 0.0&#xA;Mission: </description>
          <Point>
            <coordinates>0,0,0</coordinates>
          </Point>
        </Placemark>
        <Placemark>
          <name>G26975 (H60)</name>
          <description>Branch: &#xA;Altitude: 0 ft&#xA;Speed: 0.0 kts&#xA;Heading: 0.0&#xA;Mission: </description>
          <Point>
            <coordinates>0,0,0</coordinates>
          </Point>
        </Placemark>
        <Placemark>
          <name>BOMR705 (TEX2)</name>
          <description>Branch: &#xA;Altitude: 875 ft&#xA;Speed: 223.0 kts&#xA;Heading: 257.8&#xA;Mission: </description>
          <Point>
            <coordinates>-97.283676,27.729034,875</coordinates>
          </Point>
        </Placemark>
        <Placemark>
          <name>CRDO505 (C295)</name>
          <description>Branch: &#xA;Altitude: 5225 ft&#xA;Speed: 249.7 kts&#xA;Heading: 164.0&#xA;Mission: </description>
          <Point>
            <coordinates>-124.691933,49.422463,5225</coordinates>
          </Point>
        </Placemark>
        <Placemark>
          <name>RRR6102 (C17)</name>
          <description>Branch: &#xA;Altitude: 20000 ft&#xA;Speed: 361.0 kts&#xA;Heading: 4.3&#xA;Mission: </description>
          <Point>
            <coordinates>-115.156471,36.069465,20000</coordinates>
          </Point>
        </Placemark>
        <Placemark>
          <name>FAM3915 (GLF4)</name>
          <description>Branch: &#xA;Altitude: 10625 ft&#xA;Speed: 197.4 kts&#xA;Heading: 163.2&#xA;Mission: </description>
          <Point>
            <coordinates>-99.24929,19.459394,10625</coordinates>
          </Point>
        </Placemark>
        <Placemark>
          <name>VEGA21 (TEX2)</name>
          <description>Branch: &#xA;Altitude: 9725 ft&#xA;Speed: 215.2 kts&#xA;Heading: 157.6&#xA;Mission: </description>
          <Point>
            <coordinates>-97.782784,36.084229,9725</coordinates>
          </Point>
        </Placemark>
        <Placemark>
          <name>SHINR81 (TEX2)</name>
          <description>Branch: &#xA;Altitude: 9975 ft&#xA;Speed: 281.1 kts&#xA;Heading: 31.8&#xA;Mission: </description>
          <Point>
            <coordinates>-97.571068,36.39949,9975</coordinates>
          </Point>
        </Placemark>
        <Placemark>
          <name>AAC319 (H64)</name>
          <description>Branch: &#xA;Altitude: 100 ft&#xA;Speed: 108.2 kts&#xA;Heading: 236.3&#xA;Mission: </description>
          <Point>
            <coordinates>0.616725,52.564925,100</coordinates>
          </Point>
        </Placemark>
        <Placemark>
          <name> ()</name>
          <description>Branch: &#xA;Altitude: 0 ft&#xA;Speed: 0.0 kts&#xA;Heading: 0.0&#xA;Mission: </description>
          <Point>
            <coordinates>0,0,0</coordinates>
          </Point>
        </Placemark>
        <Placemark>
          <name>TEST1234 ()</name>
          <description>Branch: &#xA;Altitude: 0 ft&#xA;Speed: 0.0 kts&#xA;Heading: 0.0&#xA;Mission: </description>
          <Point>
            <coordinates>0,0,0</coordinates>
          </Point>
        </Placemark>
        <Placemark>
          <name>TOPCT26 (R135)</name>
          <description>Branch: &#xA;Altitude: 31025 ft&#xA;Speed: 449.7 kts&#xA;Heading: 144.1&#xA;Mission: </description>
          <Point>
            <coordinates>-100.043229,43.866394,31025</coordinates>
          </Point>
        </Placemark>
        <Placemark>
          <name>R40033 (H64)</name>
          <description>Branch: &#xA;Altitude: 2200 ft&#xA;Speed: 113.5 kts&#xA;Heading: 157.7&#xA;Mission: </description>
          <Point>
            <coordinates>-97.863959,31.140188,2200</coordinates>
          </Point>
        </Placemark>
        <Placemark>
          <name>C6585 (AS65)</name>
          <description>Branch: &#xA;Altitude: 275 ft&#xA;Speed: 83.0 kts&#xA;Heading: 171.0&#xA;Mission: </description>
          <Point>
            <coordinates>-88.065143,30.393304,275</coordinates>
          </Point>
        </Placemark>
        <Placemark>
          <name>MESSY51 (EC45)</name>
          <description>Branch: &#xA;Altitude: 375 ft&#xA;Speed: 52.0 kts&#xA;Heading: 70.2&#xA;Mission: </description>
          <Point>
            <coordinates>-85.569214,31.222865,375</coordinates>
          </Point>
        </Placemark>
        <Placemark>
          <name>BAF72 (FA7X)</name>
          <description>Branch: &#xA;Altitude: 34000 ft&#xA;Speed: 470.7 kts&#xA;Heading: 42.5&#xA;Mission: </description>
          <Point>
            <coordinates>0.511081,48.511342,34000</coordinates>
          </Point>
        </Placemark>
        <Placemark>
          <name>TEST1234 ()</name>
          <description>Branch: &#xA;Altitude: 0 ft&#xA;Speed: 0.0 kts&#xA;Heading: 0.0&#xA;Mission: </description>
          <Point>
            <coordinates>0,0,0</coordinates>
          </Point>
        </Placemark>
        <Placemark>
          <name> ()</name>
          <description>Branch: &#xA;Altitude: 0 ft&#xA;Speed: 0.0 kts&#xA;Heading: 0.0&#xA;Mission: </description>
          <Point>
            <coordinates>0,0,0</coordinates>
          </Point>
        </Placemark>
        <Placemark>
          <name> (C30J)</name>
          <description>Branch: &#xA;Altitude: 7250 ft&#xA;Speed: 0.0 kts&#xA;Heading: 0.0&#xA;Mission: </description>
          <Point>
            <coordinates>0,0,7250</coordinates>
          </Point>
        </Placemark>
        <Placemark>
          <name>R08478 (H47)</name>
          <description>Branch: &#xA;Altitude: 2875 ft&#xA;Speed: 120.4 kts&#xA;Heading: 294.0&#xA;Mission: </description>
          <Point>
            <coordinates>-116.921777,32.861618,2875</coordinates>
          </Point>
        </Placemark>
        <Placemark>
          <name>DEVIL26 (TEX2)</name>
          <description>Branch: &#xA;Altitude: 17975 ft&#xA;Speed: 166.6 kts&#xA;Heading: 330.5&#xA;Mission: </description>
          <Point>
            <coordinates>-100.097439,28.91803,17975</coordinates>
          </Point>
        </Placemark>
        <Placemark>
          <name>UHAUL12 (C5M)</name>
          <description>Branch: &#xA;Altitude: 2900 ft&#xA;Speed: 195.9 kts&#xA;Heading: 159.1&#xA;Mission: </description>
          <Point>
            <coordinates>-98.64624,29.560272,2900</coordinates>
          </Point>
        </Placemark>
        <Placemark>
          <name>HAWK250 ()</name>
          <description>Branch: &#xA;Altitude: 15650 ft&#xA;Speed: 333.5 kts&#xA;Heading: 284.4&#xA;Mission: </description>
          <Point>
            <coordinates>-98.436655,28.117538,15650</coordinates>
          </Point>
        </Placemark>
        <Placemark>
          <name>RCH724 (K35R)</name>
          <description>Branch: &#xA;Altitude: 28350 ft&#xA;Speed: 468.0 kts&#xA;Heading: 48.0&#xA;Mission: </description>
          <Point>
            <coordinates>-94.177245,39.777905,28350</coordinates>
          </Point>
        </Placemark>
        <Placemark>
          <name> ()</name>
          <description>Branch: &#xA;Altitude: 0 ft&#xA;Speed: 0.0 kts&#xA;Heading: 0.0&#xA;Mission: </description>
          <Point>
            <coordinates>0,0,0</coordinates>
          </Point>
        </Placemark>
        <Placemark>
          <name>C6058 (H60)</name>
          <description>Branch: &#xA;Altitude: 725 ft&#xA;Speed: 83.6 kts&#xA;Heading: 296.3&#xA;Mission: </description>
          <Point>
            <coordinates>-119.128704,34.117856,725</coordinates>
          </Point>
        </Placemark>
        <Placemark>
          <name>SHARK71 (SR20)</name>
          <description>Branch: &#xA;Altitude: 8900 ft&#xA;Speed: 145.8 kts&#xA;Heading: 107.6&#xA;Mission: </description>
          <Point>
            <coordinates>-104.398419,38.754364,8900</coordinates>
          </Point>
        </Placemark>
        <Placemark>
          <name>LTHL236 (HAWK)</name>
          <description>Branch: &#xA;Altitude: 17575 ft&#xA;Speed: 426.8 kts&#xA;Heading: 183.5&#xA;Mission: </description>
          <Point>
            <coordinates>-98.084072,27.484314,17575</coordinates>
          </Point>
        </Placemark>
        <Placemark>
          <name>RANDY11 (T38)</name>
          <description>Branch: &#xA;Altitude: 6350 ft&#xA;Speed: 338.1 kts&#xA;Heading: 297.1&#xA;Mission: </description>
          <Point>
            <coordinates>-97.50419,29.273666,6350</coordinates>
          </Point>
        </Placemark>
        <Placemark>
          <name>JEDI43 (TEX2)</name>
          <description>Branch: &#xA;Altitude: 800 ft&#xA;Speed: 0.0 kts&#xA;Heading: 0.0&#xA;Mission: </description>
          <Point>
            <coordinates>-88.585887,31.337265,800</coordinates>
          </Point>
        </Placemark>
        <Placemark>
          <name>PAT375 (BE20)</name>
          <description>Branch: &#xA;Altitude: 26000 ft&#xA;Speed: 228.3 kts&#xA;Heading: 251.1&#xA;Mission: </description>
          <Point>
            <coordinates>-84.97015,34.235819,26000</coordinates>
          </Point>
        </Placemark>
        <Placemark>
          <name>RCH713 (K35R)</name>
          <description>Branch: &#xA;Altitude: 31000 ft&#xA;Speed: 0.0 kts&#xA;Heading: 0.0&#xA;Mission: </description>
          <Point>
            <coordinates>0,0,31000</coordinates>
          </Point>
        </Placemark>
        <Placemark>
          <name> (C30J)</name>
          <description>Branch: &#xA;Altitude: 0 ft&#xA;Speed: 0.0 kts&#xA;Heading: 0.0&#xA;Mission: </description>
          <Point>
            <coordinates>0,0,0</coordinates>
          </Point>
        </Placemark>
        <Placemark>
          <name>SABER5 (DG1T)</name>
          <description>Branch: &#xA;Altitude: 7300 ft&#xA;Speed: 78.3 kts&#xA;Heading: 354.9&#xA;Mission: </description>
          <Point>
            <coordinates>-104.835424,38.970383,7300</coordinates>
          </Point>
        </Placemark>
        <Placemark>
          <name>MNTNA71 (BE9L)</name>
          <description>Branch: &#xA;Altitude: 3950 ft&#xA;Speed: 148.0 kts&#xA;Heading: 269.6&#xA;Mission: </description>
          <Point>
            <coordinates>-97.782018,26.340467,3950</coordinates>
          </Point>
        </Placemark>
        <Placemark>
          <name>RAPTOR9 (T38)</name>
          <description>Branch: &#xA;Altitude: 17125 ft&#xA;Speed: 534.0 kts&#xA;Heading: 0.1&#xA;Mission: </description>
          <Point>
            <coordinates>-88.277501,34.055603,17125</coordinates>
          </Point>
        </Placemark>
        <Placemark>
          <name>R13426 (H64)</name>
          <description>Branch: &#xA;Altitude: 1300 ft&#xA;Speed: 101.6 kts&#xA;Heading: 113.8&#xA;Mission: </description>
          <Point>
            <coordinates>-87.464619,36.472321,1300</coordinates>
          </Point>
        </Placemark>
        <Placemark>
          <name>MAKO6 (TEX2)</name>
          <description>Branch: &#xA;Altitude: 2050 ft&#xA;Speed: 143.0 kts&#xA;Heading: 89.6&#xA;Mission: </description>
          <Point>
            <coordinates>-81.820129,30.231349,2050</coordinates>
          </Point>
        </Placemark>
        <Placemark>
          <name>GAF305 (C30J)</name>
          <description>Branch: &#xA;Altitude: 25000 ft&#xA;Speed: 312.6 kts&#xA;Heading: 5.9&#xA;Mission: </description>
          <Point>
            <coordinates>-64.773448,46.432709,25000</coordinates>
          </Point>
        </Placemark>
        <Placemark>
          <name>TEST1234 ()</name>
          <description>Branch: &#xA;Altitude: 0 ft&#xA;Speed: 0.0 kts&#xA;Heading: 0.0&#xA;Mission: </description>
          <Point>
            <coordinates>0,0,0</coordinates>
          </Point>
        </Placemark>
        <Placemark>
          <name>TEST1234 ()</name>
          <description>Branch: &#xA;Altitude: 0 ft&#xA;Speed: 0.0 kts&#xA;Heading: 0.0&#xA;Mission: </description>
          <Point>
            <coordinates>0,0,0</coordinates>
          </Point>
        </Placemark>
        <Placemark>
          <name>HATER52 (H64)</name>
          <description>Branch: &#xA;Altitude: 6500 ft&#xA;Speed: 0.0 kts&#xA;Heading: 0.0&#xA;Mission: </description>
          <Point>
            <coordinates>-104.733543,38.859318,6500</coordinates>
          </Point>
        </Placemark>
        <Placemark>
          <name>OMEGA04 (H47)</name>
          <description>Branch: &#xA;Altitude: 475 ft&#xA;Speed: 0.0 kts&#xA;Heading: 0.0&#xA;Mission: </description>
          <Point>
            <coordinates>4.953671,51.577339,475</coordinates>
          </Point>
        </Placemark>
        <Placemark>
          <name> (R135)</name>
          <description>Branch: &#xA;Altitude: 0 ft&#xA;Speed: 0.0 kts&#xA;Heading: 0.0&#xA;Mission: </description>
          <Point>
            <coordinates>0,0,0</coordinates>
          </Point>
        </Placemark>
        <Placemark>
          <name>STMPD19 (B350)</name>
          <description>Branch: &#xA;Altitude: 3750 ft&#xA;Speed: 167.1 kts&#xA;Heading: 282.8&#xA;Mission: </description>
          <Point>
            <coordinates>-117.165154,33.405793,3750</coordinates>
          </Point>
        </Placemark>
        <Placemark>
          <name> (P1)</name>
          <description>Branch: &#xA;Altitude: 4575 ft&#xA;Speed: 321.0 kts&#xA;Heading: 188.0&#xA;Mission: </description>
          <Point>
            <coordinates>139.61805,35.863968,4575</coordinates>
          </Point>
        </Placemark>
        <Placemark>
          <name> ()</name>
          <description>Branch: &#xA;Altitude: 0 ft&#xA;Speed: 0.0 kts&#xA;Heading: 0.0&#xA;Mission: </description>
          <Point>
            <coordinates>0,0,0</coordinates>
          </Point>
        </Placemark>
        <Placemark>
          <name> ()</name>
          <description>Branch: &#xA;Altitude: 33500 ft&#xA;Speed: 0.0 kts&#xA;Heading: 0.0&#xA;Mission: </description>
          <Point>
            <coordinates>0,0,33500</coordinates>
          </Point>
        </Placemark>
        <Placemark>
          <name>TEXSIL (TEX2)</name>
          <description>Branch: &#xA;Altitude: 11400 ft&#xA;Speed: 234.3 kts&#xA;Heading: 278.1&#xA;Mission: </description>
          <Point>
            <coordinates>173.831239,-41.699844,11400</coordinates>
          </Point>
        </Placemark>
        <Placemark>
          <name>VV8E725 (A119)</name>
          <description>Branch: &#xA;Altitude: 2175 ft&#xA;Speed: 73.1 kts&#xA;Heading: 92.3&#xA;Mission: </description>
          <Point>
            <coordinates>-87.361235,30.471817,2175</coordinates>
          </Point>
        </Placemark>
        <Placemark>
          <name>MAMUT33 (A400)</name>
          <description>Branch: &#xA;Altitude: 1275 ft&#xA;Speed: 110.0 kts&#xA;Heading: 153.6&#xA;Mission: </description>
          <Point>
            <coordinates>-1.640084,42.031494,1275</coordinates>
          </Point>
        </Placemark>
        <Placemark>
          <name>JOLLY91 (H60)</name>
          <description>Branch: &#xA;Altitude: -225 ft&#xA;Speed: 0.7 kts&#xA;Heading: 0.0&#xA;Mission: </description>
          <Point>
            <coordinates>-122.045424,37.410965,-225</coordinates>
          </Point>
        </Placemark>
        <Placemark>
          <name>HOOK51 (TEX2)</name>
          <description>Branch: &#xA;Altitude: 2975 ft&#xA;Speed: 161.0 kts&#xA;Heading: 179.3&#xA;Mission: </description>
          <Point>
            <coordinates>-97.416859,35.412277,2975</coordinates>
          </Point>
        </Placemark>
        <Placemark>
          <name>PAT979 (SW4)</name>
          <description>Branch: &#xA;Altitude: 17075 ft&#xA;Speed: 219.7 kts&#xA;Heading: 277.1&#xA;Mission: </description>
          <Point>
            <coordinates>-89.59558,32.380852,17075</coordinates>
          </Point>
        </Placemark>
        <Placemark>
          <name>G26689 (H60)</name>
          <description>Branch: &#xA;Altitude: 2200 ft&#xA;Speed: 130.1 kts&#xA;Heading: 309.1&#xA;Mission: </description>
          <Point>
            <coordinates>-85.20458,34.057159,2200</coordinates>
          </Point>
        </Placemark>
        <Placemark>
          <name> ()</name>
          <description>Branch: &#xA;Altitude: 28000 ft&#xA;Speed: 0.0 kts&#xA;Heading: 0.0&#xA;Mission: </description>
          <Point>
            <coordinates>-80.560807,32.837571,28000</coordinates>
          </Point>
        </Placemark>
        <Placemark>
          <name>SHF470 (H47)</name>
          <description>Branch: &#xA;Altitude: 1875 ft&#xA;Speed: 105.0 kts&#xA;Heading: 136.0&#xA;Mission: </description>
          <Point>
            <coordinates>-0.970375,51.19772,1875</coordinates>
          </Point>
        </Placemark>
        <Placemark>
          <name> ()</name>
          <description>Branch: &#xA;Altitude: 96500 ft&#xA;Speed: 0.0 kts&#xA;Heading: 0.0&#xA;Mission: </description>
          <Point>
            <coordinates>0,0,96500</coordinates>
          </Point>
        </Placemark>
        <Placemark>
          <name>RCH199 (C17)</name>
          <description>Branch: &#xA;Altitude: 30000 ft&#xA;Speed: 0.0 kts&#xA;Heading: 0.0&#xA;Mission: </description>
          <Point>
            <coordinates>0,0,30000</coordinates>
          </Point>
        </Placemark>
        <Placemark>
          <name>WATTS74 (EC45)</name>
          <description>Branch: &#xA;Altitude: 4525 ft&#xA;Speed: 103.2 kts&#xA;Heading: 301.5&#xA;Mission: </description>
          <Point>
            <coordinates>-111.507715,32.674072,4525</coordinates>
          </Point>
        </Placemark>
        <Placemark>
          <name>WATTS17 (EC45)</name>
          <description>Branch: &#xA;Altitude: 0 ft&#xA;Speed: 0.0 kts&#xA;Heading: 0.0&#xA;Mission: </description>
          <Point>
            <coordinates>-111.332787,32.523011,0</coordinates>
          </Point>
        </Placemark>
        <Placemark>
          <name>DEVIL20 (TEX2)</name>
          <description>Branch: &#xA;Altitude: 8175 ft&#xA;Speed: 199.8 kts&#xA;Heading: 140.9&#xA;Mission: </description>
          <Point>
            <coordinates>-100.351075,29.101273,8175</coordinates>
          </Point>
        </Placemark>
        <Placemark>
          <name>RAIDR72 (C30J)</name>
          <description>Branch: &#xA;Altitude: 21000 ft&#xA;Speed: 337.1 kts&#xA;Heading: 108.9&#xA;Mission: </description>
          <Point>
            <coordinates>-95.171422,34.840347,21000</coordinates>
          </Point>
        </Placemark>
        <Placemark>
          <name>FAC5075 (C208)</name>
          <description>Branch: &#xA;Altitude: 10275 ft&#xA;Speed: 157.4 kts&#xA;Heading: 332.8&#xA;Mission: </description>
          <Point>
            <coordinates>-74.167565,4.811267,10275</coordinates>
          </Point>
        </Placemark>
        <Placemark>
          <name>TALON61 ()</name>
          <description>Branch: &#xA;Altitude: 0 ft&#xA;Speed: 0.0 kts&#xA;Heading: 0.0&#xA;Mission: </description>
          <Point>
            <coordinates>0,0,0</coordinates>
          </Point>
        </Placemark>
        <Placemark>
          <name>FFAB123 (H60)</name>
          <description>Branch: &#xA;Altitude: 75 ft&#xA;Speed: 64.4 kts&#xA;Heading: 43.1&#xA;Mission: </description>
          <Point>
            <coordinates>-81.430126,30.386307,75</coordinates>
          </Point>
        </Placemark>
        <Placemark>
          <name>FAC1222 (B737)</name>
          <description>Branch: &#xA;Altitude: 37000 ft&#xA;Speed: 456.0 kts&#xA;Heading: 160.6&#xA;Mission: </description>
          <Point>
            <coordinates>-88.458857,27.705826,37000</coordinates>
          </Point>
        </Placemark>
        <Placemark>
          <name>RATLR04 (TEX2)</name>
          <description>Branch: &#xA;Altitude: 4225 ft&#xA;Speed: 142.1 kts&#xA;Heading: 135.9&#xA;Mission: </description>
          <Point>
            <coordinates>-100.792075,29.366036,4225</coordinates>
          </Point>
        </Placemark>
        <Placemark>
          <name>STRKE85 (TEX2)</name>
          <description>Branch: &#xA;Altitude: 1575 ft&#xA;Speed: 213.7 kts&#xA;Heading: 164.5&#xA;Mission: </description>
          <Point>
            <coordinates>-100.766707,29.338989,1575</coordinates>
          </Point>
        </Placemark>
        <Placemark>
          <name>R21200 (H60)</name>
          <description>Branch: &#xA;Altitude: 1700 ft&#xA;Speed: 100.7 kts&#xA;Heading: 332.2&#xA;Mission: </description>
          <Point>
            <coordinates>-147.711296,65.043159,1700</coordinates>
          </Point>
        </Placemark>
        <Placemark>
          <name>BLZR289 (HAWK)</name>
          <description>Branch: &#xA;Altitude: 15900 ft&#xA;Speed: 273.6 kts&#xA;Heading: 160.6&#xA;Mission: </description>
          <Point>
            <coordinates>-98.495759,26.864319,15900</coordinates>
          </Point>
        </Placemark>
        <Placemark>
          <name>PAIN11 (BE40)</name>
          <description>Branch: &#xA;Altitude: 11475 ft&#xA;Speed: 230.0 kts&#xA;Heading: 270.8&#xA;Mission: </description>
          <Point>
            <coordinates>-96.029624,36.341284,11475</coordinates>
          </Point>
        </Placemark>
        <Placemark>
          <name> ()</name>
          <description>Branch: &#xA;Altitude: 0 ft&#xA;Speed: 30.5 kts&#xA;Heading: 0.0&#xA;Mission: </description>
          <Point>
            <coordinates>0,0,0</coordinates>
          </Point>
        </Placemark>
        <Placemark>
          <name>CEF527 (A319)</name>
          <description>Branch: &#xA;Altitude: 37000 ft&#xA;Speed: 453.0 kts&#xA;Heading: 173.4&#xA;Mission: </description>
          <Point>
            <coordinates>24.264055,40.25116,37000</coordinates>
          </Point>
        </Placemark>
        <Placemark>
          <name>WAYLN37 (BE20)</name>
          <description>Branch: &#xA;Altitude: 3250 ft&#xA;Speed: 163.1 kts&#xA;Heading: 56.5&#xA;Mission: </description>
          <Point>
            <coordinates>-117.865849,34.952025,3250</coordinates>
          </Point>
        </Placemark>
        <Placemark>
          <name>LS30 (H60)</name>
          <description>Branch: &#xA;Altitude: 2150 ft&#xA;Speed: 23.4 kts&#xA;Heading: 250.0&#xA;Mission: </description>
          <Point>
            <coordinates>-116.949792,32.976608,2150</coordinates>
          </Point>
        </Placemark>
        <Placemark>
          <name>RANDY78 (T38)</name>
          <description>Branch: &#xA;Altitude: 16925 ft&#xA;Speed: 439.8 kts&#xA;Heading: 338.8&#xA;Mission: </description>
          <Point>
            <coordinates>-98.244808,29.806513,16925</coordinates>
          </Point>
        </Placemark>
        <Placemark>
          <name>BB141 (TEX2)</name>
          <description>Branch: &#xA;Altitude: 2725 ft&#xA;Speed: 160.4 kts&#xA;Heading: 217.7&#xA;Mission: </description>
          <Point>
            <coordinates>-88.226752,30.784902,2725</coordinates>
          </Point>
        </Placemark>
        <Placemark>
          <name> ()</name>
          <description>Branch: &#xA;Altitude: 6700 ft&#xA;Speed: 0.0 kts&#xA;Heading: 0.0&#xA;Mission: </description>
          <Point>
            <coordinates>0,0,6700</coordinates>
          </Point>
        </Placemark>
        <Placemark>
          <name>MORPH15 (EC45)</name>
          <description>Branch: &#xA;Altitude: 0 ft&#xA;Speed: 0.0 kts&#xA;Heading: 0.0&#xA;Mission: </description>
          <Point>
            <coordinates>0,0,0</coordinates>
          </Point>
        </Placemark>
        <Placemark>
          <name> ()</name>
          <description>Branch: &#xA;Altitude: 0 ft&#xA;Speed: 0.0 kts&#xA;Heading: 0.0&#xA;Mission: </description>
          <Point>
            <coordinates>0,0,0</coordinates>
          </Point>
        </Placemark>
        <Placemark>
          <name>VKIN14 (TEX2)</name>
          <description>Branch: &#xA;Altitude: 2825 ft&#xA;Speed: 179.8 kts&#xA;Heading: 117.8&#xA;Mission: </description>
          <Point>
            <coordinates>-105.527467,50.315893,2825</coordinates>
          </Point>
        </Placemark>
        <Placemark>
          <name>FOOL1 (T38)</name>
          <description>Branch: &#xA;Altitude: 9750 ft&#xA;Speed: 344.7 kts&#xA;Heading: 139.5&#xA;Mission: </description>
          <Point>
            <coordinates>-98.674221,34.690216,9750</coordinates>
          </Point>
        </Placemark>
        <Placemark>
          <name>LOGIC510 (C295)</name>
          <description>Branch: &#xA;Altitude: 25000 ft&#xA;Speed: 177.0 kts&#xA;Heading: 327.9&#xA;Mission: </description>
          <Point>
            <coordinates>-98.054047,50.863999,25000</coordinates>
          </Point>
        </Placemark>
        <Placemark>
          <name> (H60)</name>
          <description>Branch: &#xA;Altitude: 2075 ft&#xA;Speed: 127.3 kts&#xA;Heading: 46.3&#xA;Mission: </description>
          <Point>
            <coordinates>-89.581408,42.965947,2075</coordinates>
          </Point>
        </Placemark>
        <Placemark>
          <name> ()</name>
          <description>Branch: &#xA;Altitude: 0 ft&#xA;Speed: 0.0 kts&#xA;Heading: 0.0&#xA;Mission: </description>
          <Point>
            <coordinates>0,0,0</coordinates>
          </Point>
        </Placemark>
        <Placemark>
          <name> (P3)</name>
          <description>Branch: &#xA;Altitude: 20600 ft&#xA;Speed: 0.0 kts&#xA;Heading: 0.0&#xA;Mission: </description>
          <Point>
            <coordinates>0,0,20600</coordinates>
          </Point>
        </Placemark>
        <Placemark>
          <name> ()</name>
          <description>Branch: &#xA;Altitude: 0 ft&#xA;Speed: 0.0 kts&#xA;Heading: 0.0&#xA;Mission: </description>
          <Point>
            <coordinates>0,0,0</coordinates>
          </Point>
        </Placemark>
        <Placemark>
          <name> (TWR)</name>
          <description>Branch: &#xA;Altitude: 0 ft&#xA;Speed: 0.0 kts&#xA;Heading: 0.0&#xA;Mission: </description>
          <Point>
            <coordinates>0,0,0</coordinates>
          </Point>
        </Placemark>
        <Placemark>
          <name>FOOL02 (T38)</name>
          <description>Branch: &#xA;Altitude: 9600 ft&#xA;Speed: 348.9 kts&#xA;Heading: 97.4&#xA;Mission: </description>
          <Point>
            <coordinates>-98.696127,34.70018,9600</coordinates>
          </Point>
        </Placemark>
        <Placemark>
          <name>JDGMT88 (A400)</name>
          <description>Branch: &#xA;Altitude: 550 ft&#xA;Speed: 286.2 kts&#xA;Heading: 68.9&#xA;Mission: </description>
          <Point>
            <coordinates>-0.530797,52.240735,550</coordinates>
          </Point>
        </Placemark>
        <Placemark>
          <name>CNV7456 (BE20)</name>
          <description>Branch: &#xA;Altitude: 18050 ft&#xA;Speed: 301.3 kts&#xA;Heading: 114.1&#xA;Mission: </description>
          <Point>
            <coordinates>13.536793,37.937988,18050</coordinates>
          </Point>
        </Placemark>
        <Placemark>
          <name> ()</name>
          <description>Branch: &#xA;Altitude: 0 ft&#xA;Speed: 0.0 kts&#xA;Heading: 0.0&#xA;Mission: </description>
          <Point>
            <coordinates>0,0,0</coordinates>
          </Point>
        </Placemark>
        <Placemark>
          <name>VGBND20 (LYNX)</name>
          <description>Branch: &#xA;Altitude: 0 ft&#xA;Speed: 0.0 kts&#xA;Heading: 0.0&#xA;Mission: </description>
          <Point>
            <coordinates>0,0,0</coordinates>
          </Point>
        </Placemark>
        <Placemark>
          <name>N453SP (C172)</name>
          <description>Branch: &#xA;Altitude: 0 ft&#xA;Speed: 0.0 kts&#xA;Heading: 0.0&#xA;Mission: </description>
          <Point>
            <coordinates>-149.829655,61.249203,0</coordinates>
          </Point>
        </Placemark>
        <Placemark>
          <name>BOBCT11 (HAWK)</name>
          <description>Branch: &#xA;Altitude: 14425 ft&#xA;Speed: 117.2 kts&#xA;Heading: 201.5&#xA;Mission: </description>
          <Point>
            <coordinates>-89.520357,31.963511,14425</coordinates>
          </Point>
        </Placemark>
        <Placemark>
          <name>SH046 (TEX2)</name>
          <description>Branch: &#xA;Altitude: 3300 ft&#xA;Speed: 211.5 kts&#xA;Heading: 220.0&#xA;Mission: </description>
          <Point>
            <coordinates>-87.464205,31.035553,3300</coordinates>
          </Point>
        </Placemark>
        <Placemark>
          <name>BELLS03 (EC45)</name>
          <description>Branch: &#xA;Altitude: 2500 ft&#xA;Speed: 77.8 kts&#xA;Heading: 154.1&#xA;Mission: </description>
          <Point>
            <coordinates>-85.4117,31.260818,2500</coordinates>
          </Point>
        </Placemark>
        <Placemark>
          <name>TEST1234 ()</name>
          <description>Branch: &#xA;Altitude: 0 ft&#xA;Speed: 0.0 kts&#xA;Heading: 0.0&#xA;Mission: </description>
          <Point>
            <coordinates>0,0,0</coordinates>
          </Point>
        </Placemark>
        <Placemark>
          <name>TEXN142 (TEX2)</name>
          <description>Branch: &#xA;Altitude: 2775 ft&#xA;Speed: 157.0 kts&#xA;Heading: 133.4&#xA;Mission: </description>
          <Point>
            <coordinates>-85.105261,30.778152,2775</coordinates>
          </Point>
        </Placemark>
        <Placemark>
          <name> ()</name>
          <description>Branch: &#xA;Altitude: 0 ft&#xA;Speed: 0.0 kts&#xA;Heading: 0.0&#xA;Mission: </description>
          <Point>
            <coordinates>0,0,0</coordinates>
          </Point>
        </Placemark>
        <Placemark>
          <name>DRAGN73 (TEX2)</name>
          <description>Branch: &#xA;Altitude: 2750 ft&#xA;Speed: 133.0 kts&#xA;Heading: 356.1&#xA;Mission: </description>
          <Point>
            <coordinates>-97.79142,36.280334,2750</coordinates>
          </Point>
        </Placemark>
        <Placemark>
          <name> (T38)</name>
          <description>Branch: &#xA;Altitude: 0 ft&#xA;Speed: 0.0 kts&#xA;Heading: 0.0&#xA;Mission: </description>
          <Point>
            <coordinates>0,0,0</coordinates>
          </Point>
        </Placemark>
        <Placemark>
          <name> ()</name>
          <description>Branch: &#xA;Altitude: 4125 ft&#xA;Speed: 0.0 kts&#xA;Heading: 0.0&#xA;Mission: </description>
          <Point>
            <coordinates>-114.286616,48.289261,4125</coordinates>
          </Point>
        </Placemark>
        <Placemark>
          <name>CASH21 (TEX2)</name>
          <description>Branch: &#xA;Altitude: 8025 ft&#xA;Speed: 220.5 kts&#xA;Heading: 96.8&#xA;Mission: </description>
          <Point>
            <coordinates>-99.98034,29.124985,8025</coordinates>
          </Point>
        </Placemark>
        <Placemark>
          <name>COUGR56 (LJ35)</name>
          <description>Branch: &#xA;Altitude: 34025 ft&#xA;Speed: 460.8 kts&#xA;Heading: 202.7&#xA;Mission: </description>
          <Point>
            <coordinates>-97.430743,30.793671,34025</coordinates>
          </Point>
        </Placemark>
        <Placemark>
          <name>VV7E264 (A119)</name>
          <description>Branch: &#xA;Altitude: 600 ft&#xA;Speed: 95.5 kts&#xA;Heading: 250.4&#xA;Mission: </description>
          <Point>
            <coordinates>-86.847473,30.688678,600</coordinates>
          </Point>
        </Placemark>
        <Placemark>
          <name>EVAL29 (H60)</name>
          <description>Branch: &#xA;Altitude: 875 ft&#xA;Speed: 112.9 kts&#xA;Heading: 124.5&#xA;Mission: </description>
          <Point>
            <coordinates>-86.675907,34.661865,875</coordinates>
          </Point>
        </Placemark>
        <Placemark>
          <name>PAT171 (BE20)</name>
          <description>Branch: &#xA;Altitude: 11025 ft&#xA;Speed: 255.8 kts&#xA;Heading: 233.3&#xA;Mission: </description>
          <Point>
            <coordinates>-80.667993,32.287445,11025</coordinates>
          </Point>
        </Placemark>
        <Placemark>
          <name>R72106 (EC45)</name>
          <description>Branch: &#xA;Altitude: 3225 ft&#xA;Speed: 99.0 kts&#xA;Heading: 166.0&#xA;Mission: </description>
          <Point>
            <coordinates>11.956466,49.545315,3225</coordinates>
          </Point>
        </Placemark>
        <Placemark>
          <name> (TEX2)</name>
          <description>Branch: &#xA;Altitude: 0 ft&#xA;Speed: 214.1 kts&#xA;Heading: 198.5&#xA;Mission: </description>
          <Point>
            <coordinates>0,0,0</coordinates>
          </Point>
        </Placemark>
        <Placemark>
          <name>COBRA67 (T38)</name>
          <description>Branch: &#xA;Altitude: 16850 ft&#xA;Speed: 116.7 kts&#xA;Heading: 83.6&#xA;Mission: </description>
          <Point>
            <coordinates>-117.375071,35.207794,16850</coordinates>
          </Point>
        </Placemark>
        <Placemark>
          <name>VV7E719 (A119)</name>
          <description>Branch: &#xA;Altitude: 450 ft&#xA;Speed: 62.2 kts&#xA;Heading: 113.7&#xA;Mission: </description>
          <Point>
            <coordinates>-88.111321,30.251953,450</coordinates>
          </Point>
        </Placemark>
        <Placemark>
          <name>RN065 (TEX2)</name>
          <description>Branch: &#xA;Altitude: 5250 ft&#xA;Speed: 227.9 kts&#xA;Heading: 337.8&#xA;Mission: </description>
          <Point>
            <coordinates>-86.748316,31.717163,5250</coordinates>
          </Point>
        </Placemark>
        <Placemark>
          <name>SYS43 (EC45)</name>
          <description>Branch: &#xA;Altitude: 450 ft&#xA;Speed: 94.4 kts&#xA;Heading: 143.6&#xA;Mission: </description>
          <Point>
            <coordinates>-2.446442,52.953918,450</coordinates>
          </Point>
        </Placemark>
        <Placemark>
          <name>I2067 (A139)</name>
          <description>Branch: &#xA;Altitude: 1150 ft&#xA;Speed: 125.9 kts&#xA;Heading: 308.9&#xA;Mission: </description>
          <Point>
            <coordinates>18.442549,40.367913,1150</coordinates>
          </Point>
        </Placemark>
        <Placemark>
          <name>MCUE12 (B762)</name>
          <description>Branch: &#xA;Altitude: 31468 ft&#xA;Speed: 0.0 kts&#xA;Heading: 240.9&#xA;Mission: </description>
          <Point>
            <coordinates>2.440853,38.143673,31468</coordinates>
          </Point>
        </Placemark>
        <Placemark>
          <name>SHARK44 (SR20)</name>
          <description>Branch: &#xA;Altitude: 0 ft&#xA;Speed: 0.0 kts&#xA;Heading: 0.0&#xA;Mission: </description>
          <Point>
            <coordinates>-104.822769,38.964537,0</coordinates>
          </Point>
        </Placemark>
        <Placemark>
          <name>DEVIL02 (TEX2)</name>
          <description>Branch: &#xA;Altitude: 7425 ft&#xA;Speed: 134.2 kts&#xA;Heading: 192.5&#xA;Mission: </description>
          <Point>
            <coordinates>-100.514508,28.878355,7425</coordinates>
          </Point>
        </Placemark>
        <Placemark>
          <name>ZORRO67 (AT8T)</name>
          <description>Branch: &#xA;Altitude: 0 ft&#xA;Speed: 0.0 kts&#xA;Heading: 0.0&#xA;Mission: </description>
          <Point>
            <coordinates>-97.607156,35.399276,0</coordinates>
          </Point>
        </Placemark>
        <Placemark>
          <name>EASY61 (BE20)</name>
          <description>Branch: &#xA;Altitude: 4425 ft&#xA;Speed: 223.4 kts&#xA;Heading: 29.2&#xA;Mission: </description>
          <Point>
            <coordinates>-89.53125,30.474564,4425</coordinates>
          </Point>
        </Placemark>
        <Placemark>
          <name>RCH400 (C17)</name>
          <description>Branch: &#xA;Altitude: 30975 ft&#xA;Speed: 464.0 kts&#xA;Heading: 111.0&#xA;Mission: </description>
          <Point>
            <coordinates>-1.046904,53.588386,30975</coordinates>
          </Point>
        </Placemark>
        <Placemark>
          <name>RCH703 (C17)</name>
          <description>Branch: &#xA;Altitude: 27000 ft&#xA;Speed: 432.0 kts&#xA;Heading: 122.9&#xA;Mission: </description>
          <Point>
            <coordinates>7.994595,50.830576,27000</coordinates>
          </Point>
        </Placemark>
        <Placemark>
          <name>N5916J (C172)</name>
          <description>Branch: &#xA;Altitude: 0 ft&#xA;Speed: 0.0 kts&#xA;Heading: 0.0&#xA;Mission: </description>
          <Point>
            <coordinates>0,0,0</coordinates>
          </Point>
        </Placemark>
        <Placemark>
          <name>GEIV01 (E550)</name>
          <description>Branch: &#xA;Altitude: 29000 ft&#xA;Speed: 481.0 kts&#xA;Heading: 351.4&#xA;Mission: </description>
          <Point>
            <coordinates>-60.361588,-0.204132,29000</coordinates>
          </Point>
        </Placemark>
        <Placemark>
          <name> (P8)</name>
          <description>Branch: &#xA;Altitude: 0 ft&#xA;Speed: 9.8 kts&#xA;Heading: 0.0&#xA;Mission: </description>
          <Point>
            <coordinates>-122.663621,48.361153,0</coordinates>
          </Point>
        </Placemark>
        <Placemark>
          <name>C6531 (AS65)</name>
          <description>Branch: &#xA;Altitude: 500 ft&#xA;Speed: 69.8 kts&#xA;Heading: 152.7&#xA;Mission: </description>
          <Point>
            <coordinates>-122.052015,37.395273,500</coordinates>
          </Point>
        </Placemark>
        <Placemark>
          <name>C6562 (AS65)</name>
          <description>Branch: &#xA;Altitude: 200 ft&#xA;Speed: 63.1 kts&#xA;Heading: 356.4&#xA;Mission: </description>
          <Point>
            <coordinates>-121.583305,38.952438,200</coordinates>
          </Point>
        </Placemark>
        <Placemark>
          <name>DRAGN39 (TEX2)</name>
          <description>Branch: &#xA;Altitude: 3975 ft&#xA;Speed: 210.9 kts&#xA;Heading: 279.6&#xA;Mission: </description>
          <Point>
            <coordinates>-97.825527,36.159576,3975</coordinates>
          </Point>
        </Placemark>
        <Placemark>
          <name>BERT10 (C30J)</name>
          <description>Branch: &#xA;Altitude: 25000 ft&#xA;Speed: 360.0 kts&#xA;Heading: 89.7&#xA;Mission: </description>
          <Point>
            <coordinates>-80.566521,35.156343,25000</coordinates>
          </Point>
        </Placemark>
        <Placemark>
          <name>TEST1234 ()</name>
          <description>Branch: &#xA;Altitude: 0 ft&#xA;Speed: 0.0 kts&#xA;Heading: 0.0&#xA;Mission: </description>
          <Point>
            <coordinates>0,0,0</coordinates>
          </Point>
        </Placemark>
        <Placemark>
          <name> (K35R)</name>
          <description>Branch: &#xA;Altitude: 31000 ft&#xA;Speed: 371.0 kts&#xA;Heading: 297.0&#xA;Mission: </description>
          <Point>
            <coordinates>-124.202168,39.224617,31000</coordinates>
          </Point>
        </Placemark>
        <Placemark>
          <name>SHARK68 (SR20)</name>
          <description>Branch: &#xA;Altitude: 8825 ft&#xA;Speed: 106.9 kts&#xA;Heading: 10.8&#xA;Mission: </description>
          <Point>
            <coordinates>-104.389954,39.082931,8825</coordinates>
          </Point>
        </Placemark>
        <Placemark>
          <name>QUESO82 (C560)</name>
          <description>Branch: &#xA;Altitude: 36000 ft&#xA;Speed: 356.6 kts&#xA;Heading: 253.6&#xA;Mission: </description>
          <Point>
            <coordinates>-88.118372,33.526062,36000</coordinates>
          </Point>
        </Placemark>
        <Placemark>
          <name>MESSY05 (EC45)</name>
          <description>Branch: &#xA;Altitude: 800 ft&#xA;Speed: 88.6 kts&#xA;Heading: 246.0&#xA;Mission: </description>
          <Point>
            <coordinates>-85.561847,31.243881,800</coordinates>
          </Point>
        </Placemark>
        <Placemark>
          <name>GAF701 (A21N)</name>
          <description>Branch: &#xA;Altitude: 29975 ft&#xA;Speed: 434.2 kts&#xA;Heading: 211.1&#xA;Mission: </description>
          <Point>
            <coordinates>-76.503679,42.797893,29975</coordinates>
          </Point>
        </Placemark>
        <Placemark>
          <name>GRIFN11 ()</name>
          <description>Branch: &#xA;Altitude: 9225 ft&#xA;Speed: 0.0 kts&#xA;Heading: 0.0&#xA;Mission: </description>
          <Point>
            <coordinates>0,0,9225</coordinates>
          </Point>
        </Placemark>
        <Placemark>
          <name> ()</name>
          <description>Branch: &#xA;Altitude: 0 ft&#xA;Speed: 0.0 kts&#xA;Heading: 0.0&#xA;Mission: </description>
          <Point>
            <coordinates>0,0,0</coordinates>
          </Point>
        </Placemark>
        <Placemark>
          <name>VVHK051 (H60)</name>
          <description>Branch: &#xA;Altitude: 150 ft&#xA;Speed: 68.6 kts&#xA;Heading: 59.3&#xA;Mission: </description>
          <Point>
            <coordinates>-81.435457,30.381409,150</coordinates>
          </Point>
        </Placemark>
        <Placemark>
          <name>TIGER46 (TEX2)</name>
          <description>Branch: &#xA;Altitude: 3950 ft&#xA;Speed: 241.3 kts&#xA;Heading: 299.0&#xA;Mission: </description>
          <Point>
            <coordinates>-100.676126,29.486141,3950</coordinates>
          </Point>
        </Placemark>
        <Placemark>
          <name>AXLE11 (TEX2)</name>
          <description>Branch: &#xA;Altitude: 9900 ft&#xA;Speed: 257.4 kts&#xA;Heading: 198.6&#xA;Mission: </description>
          <Point>
            <coordinates>-98.079685,36.14367,9900</coordinates>
          </Point>
        </Placemark>
        <Placemark>
          <name>EVAL63 (H60)</name>
          <description>Branch: &#xA;Altitude: 450 ft&#xA;Speed: 0.7 kts&#xA;Heading: 0.0&#xA;Mission: </description>
          <Point>
            <coordinates>-86.68779,34.684662,450</coordinates>
          </Point>
        </Placemark>
        <Placemark>
          <name>TXLU03 (A139)</name>
          <description>Branch: &#xA;Altitude: 0 ft&#xA;Speed: 0.0 kts&#xA;Heading: 0.0&#xA;Mission: </description>
          <Point>
            <coordinates>0,0,0</coordinates>
          </Point>
        </Placemark>
        <Placemark>
          <name>TEST1234 ()</name>
          <description>Branch: &#xA;Altitude: 0 ft&#xA;Speed: 0.0 kts&#xA;Heading: 0.0&#xA;Mission: </description>
          <Point>
            <coordinates>0,0,0</coordinates>
          </Point>
        </Placemark>
        <Placemark>
          <name> (K35R)</name>
          <description>Branch: &#xA;Altitude: 0 ft&#xA;Speed: 0.0 kts&#xA;Heading: 0.0&#xA;Mission: </description>
          <Point>
            <coordinates>0,0,0</coordinates>
          </Point>
        </Placemark>
        <Placemark>
          <name>KNIFE12 (H60)</name>
          <description>Branch: &#xA;Altitude: 0 ft&#xA;Speed: 0.0 kts&#xA;Heading: 0.0&#xA;Mission: </description>
          <Point>
            <coordinates>-118.050056,33.79341,0</coordinates>
          </Point>
        </Placemark>
        <Placemark>
          <name>BDIT304 (TEX2)</name>
          <description>Branch: &#xA;Altitude: 0 ft&#xA;Speed: 5.8 kts&#xA;Heading: 143.4&#xA;Mission: </description>
          <Point>
            <coordinates>-105.574234,50.332093,0</coordinates>
          </Point>
        </Placemark>
        <Placemark>
          <name>BGST343 (BE20)</name>
          <description>Branch: &#xA;Altitude: 4950 ft&#xA;Speed: 171.7 kts&#xA;Heading: 14.8&#xA;Mission: </description>
          <Point>
            <coordinates>-99.300238,27.823288,4950</coordinates>
          </Point>
        </Placemark>
        <Placemark>
          <name>CARD11 (T38)</name>
          <description>Branch: &#xA;Altitude: 1650 ft&#xA;Speed: 312.6 kts&#xA;Heading: 150.5&#xA;Mission: </description>
          <Point>
            <coordinates>-98.240697,29.487167,1650</coordinates>
          </Point>
        </Placemark>
        <Placemark>
          <name>DRAGN77 (TEX2)</name>
          <description>Branch: &#xA;Altitude: 5025 ft&#xA;Speed: 202.9 kts&#xA;Heading: 246.5&#xA;Mission: </description>
          <Point>
            <coordinates>-97.728064,36.11923,5025</coordinates>
          </Point>
        </Placemark>
        <Placemark>
          <name>C2301 (CN35)</name>
          <description>Branch: &#xA;Altitude: 1350 ft&#xA;Speed: 172.0 kts&#xA;Heading: 171.3&#xA;Mission: </description>
          <Point>
            <coordinates>-80.106449,25.52003,1350</coordinates>
          </Point>
        </Placemark>
        <Placemark>
          <name>10630 (MI8)</name>
          <description>Branch: &#xA;Altitude: 1850 ft&#xA;Speed: 82.7 kts&#xA;Heading: 212.2&#xA;Mission: </description>
          <Point>
            <coordinates>19.698338,50.279257,1850</coordinates>
          </Point>
        </Placemark>
        <Placemark>
          <name>TEST1234 ()</name>
          <description>Branch: &#xA;Altitude: 0 ft&#xA;Speed: 0.0 kts&#xA;Heading: 0.0&#xA;Mission: </description>
          <Point>
            <coordinates>0,0,0</coordinates>
          </Point>
        </Placemark>
        <Placemark>
          <name>C6596 (AS65)</name>
          <description>Branch: &#xA;Altitude: 4675 ft&#xA;Speed: 115.7 kts&#xA;Heading: 100.0&#xA;Mission: </description>
          <Point>
            <coordinates>-102.363879,34.874084,4675</coordinates>
          </Point>
        </Placemark>
        <Placemark>
          <name>R20191 (H60)</name>
          <description>Branch: &#xA;Altitude: 3525 ft&#xA;Speed: 101.8 kts&#xA;Heading: 202.5&#xA;Mission: </description>
          <Point>
            <coordinates>-79.113838,34.594254,3525</coordinates>
          </Point>
        </Placemark>
        <Placemark>
          <name>SHARK75 (SR20)</name>
          <description>Branch: &#xA;Altitude: 0 ft&#xA;Speed: 13.8 kts&#xA;Heading: 0.0&#xA;Mission: </description>
          <Point>
            <coordinates>-104.816101,38.978014,0</coordinates>
          </Point>
        </Placemark>
        <Placemark>
          <name>TIGER25 (TEX2)</name>
          <description>Branch: &#xA;Altitude: 1950 ft&#xA;Speed: 205.4 kts&#xA;Heading: 193.2&#xA;Mission: </description>
          <Point>
            <coordinates>-100.516504,29.166046,1950</coordinates>
          </Point>
        </Placemark>
        <Placemark>
          <name>BOYER92 (TEX2)</name>
          <description>Branch: &#xA;Altitude: 13925 ft&#xA;Speed: 244.9 kts&#xA;Heading: 265.1&#xA;Mission: </description>
          <Point>
            <coordinates>-99.188479,29.504883,13925</coordinates>
          </Point>
        </Placemark>
        <Placemark>
          <name>ZORRO21 (AT8T)</name>
          <description>Branch: &#xA;Altitude: 1925 ft&#xA;Speed: 125.0 kts&#xA;Heading: 179.1&#xA;Mission: </description>
          <Point>
            <coordinates>-96.958809,35.35936,1925</coordinates>
          </Point>
        </Placemark>
        <Placemark>
          <name>RAIDR71 (C30J)</name>
          <description>Branch: &#xA;Altitude: 21000 ft&#xA;Speed: 342.0 kts&#xA;Heading: 119.0&#xA;Mission: </description>
          <Point>
            <coordinates>-93.670162,34.254959,21000</coordinates>
          </Point>
        </Placemark>
        <Placemark>
          <name>JIMMY45 (TEX2)</name>
          <description>Branch: &#xA;Altitude: 12000 ft&#xA;Speed: 161.4 kts&#xA;Heading: 249.3&#xA;Mission: </description>
          <Point>
            <coordinates>-88.253398,33.280707,12000</coordinates>
          </Point>
        </Placemark>
        <Placemark>
          <name>KATT24 (TEX2)</name>
          <description>Branch: &#xA;Altitude: 15750 ft&#xA;Speed: 203.0 kts&#xA;Heading: 90.8&#xA;Mission: </description>
          <Point>
            <coordinates>-87.601103,30.459366,15750</coordinates>
          </Point>
        </Placemark>
        <Placemark>
          <name> ()</name>
          <description>Branch: &#xA;Altitude: 0 ft&#xA;Speed: 0.0 kts&#xA;Heading: 0.0&#xA;Mission: </description>
          <Point>
            <coordinates>0,0,0</coordinates>
          </Point>
        </Placemark>
        <Placemark>
          <name>HOOK43 (TEX2)</name>
          <description>Branch: &#xA;Altitude: 1925 ft&#xA;Speed: 119.0 kts&#xA;Heading: 0.5&#xA;Mission: </description>
          <Point>
            <coordinates>-97.382298,35.353363,1925</coordinates>
          </Point>
        </Placemark>
        <Placemark>
          <name>SPAR320 (LJ35)</name>
          <description>Branch: &#xA;Altitude: 2650 ft&#xA;Speed: 224.8 kts&#xA;Heading: 94.8&#xA;Mission: </description>
          <Point>
            <coordinates>-84.472145,39.702942,2650</coordinates>
          </Point>
        </Placemark>
        <Placemark>
          <name>RCH719 (K35R)</name>
          <description>Branch: &#xA;Altitude: 31000 ft&#xA;Speed: 498.0 kts&#xA;Heading: 64.2&#xA;Mission: </description>
          <Point>
            <coordinates>-77.993151,41.333708,31000</coordinates>
          </Point>
        </Placemark>
        <Placemark>
          <name> (GLF5)</name>
          <description>Branch: &#xA;Altitude: 22000 ft&#xA;Speed: 424.0 kts&#xA;Heading: 15.0&#xA;Mission: </description>
          <Point>
            <coordinates>-77.480031,37.02923,22000</coordinates>
          </Point>
        </Placemark>
        <Placemark>
          <name>TEST1234 (TWR)</name>
          <description>Branch: &#xA;Altitude: 0 ft&#xA;Speed: 0.0 kts&#xA;Heading: 0.0&#xA;Mission: </description>
          <Point>
            <coordinates>0,0,0</coordinates>
          </Point>
        </Placemark>
        <Placemark>
          <name> (K35R)</name>
          <description>Branch: &#xA;Altitude: 0 ft&#xA;Speed: 0.0 kts&#xA;Heading: 0.0&#xA;Mission: </description>
          <Point>
            <coordinates>0,0,0</coordinates>
          </Point>
        </Placemark>
        <Placemark>
          <name> (H47)</name>
          <description>Branch: &#xA;Altitude: 825 ft&#xA;Speed: 103.8 kts&#xA;Heading: 97.2&#xA;Mission: </description>
          <Point>
            <coordinates>-85.451876,31.463379,825</coordinates>
          </Point>
        </Placemark>
        <Placemark>
          <name>TIGER53 (TEX2)</name>
          <description>Branch: &#xA;Altitude: 4050 ft&#xA;Speed: 174.6 kts&#xA;Heading: 76.8&#xA;Mission: </description>
          <Point>
            <coordinates>-101.151823,29.628032,4050</coordinates>
          </Point>
        </Placemark>
        <Placemark>
          <name>HANG51 (TEX2)</name>
          <description>Branch: &#xA;Altitude: 6000 ft&#xA;Speed: 249.1 kts&#xA;Heading: 99.0&#xA;Mission: </description>
          <Point>
            <coordinates>-97.817173,36.454834,6000</coordinates>
          </Point>
        </Placemark>
        <Placemark>
          <name>CRAZY11 (TEX2)</name>
          <description>Branch: &#xA;Altitude: 10225 ft&#xA;Speed: 227.4 kts&#xA;Heading: 138.4&#xA;Mission: </description>
          <Point>
            <coordinates>-88.27212,33.103995,10225</coordinates>
          </Point>
        </Placemark>
        <Placemark>
          <name>OLIVE27 (C135)</name>
          <description>Branch: &#xA;Altitude: 20725 ft&#xA;Speed: 290.0 kts&#xA;Heading: 229.3&#xA;Mission: </description>
          <Point>
            <coordinates>-69.801832,43.93819,20725</coordinates>
          </Point>
        </Placemark>
        <Placemark>
          <name>FLEDGE81 (TEX2)</name>
          <description>Branch: &#xA;Altitude: 7725 ft&#xA;Speed: 0.0 kts&#xA;Heading: 0.0&#xA;Mission: </description>
          <Point>
            <coordinates>0,0,7725</coordinates>
          </Point>
        </Placemark>
        <Placemark>
          <name> (H60)</name>
          <description>Branch: &#xA;Altitude: 2500 ft&#xA;Speed: 0.0 kts&#xA;Heading: 0.0&#xA;Mission: </description>
          <Point>
            <coordinates>0,0,2500</coordinates>
          </Point>
        </Placemark>
        <Placemark>
          <name>RCH409 (C17)</name>
          <description>Branch: &#xA;Altitude: 0 ft&#xA;Speed: 0.0 kts&#xA;Heading: 0.0&#xA;Mission: </description>
          <Point>
            <coordinates>0,0,0</coordinates>
          </Point>
        </Placemark>
        <Placemark>
          <name>TEXN763 (TEX2)</name>
          <description>Branch: &#xA;Altitude: 12900 ft&#xA;Speed: 362.4 kts&#xA;Heading: 132.3&#xA;Mission: </description>
          <Point>
            <coordinates>-97.890338,28.283557,12900</coordinates>
          </Point>
        </Placemark>
        <Placemark>
          <name>CODE21 (TEX2)</name>
          <description>Branch: &#xA;Altitude: 9500 ft&#xA;Speed: 234.9 kts&#xA;Heading: 9.1&#xA;Mission: </description>
          <Point>
            <coordinates>-97.44388,36.535872,9500</coordinates>
          </Point>
        </Placemark>
        <Placemark>
          <name>KATT17 (TEX2)</name>
          <description>Branch: &#xA;Altitude: 3300 ft&#xA;Speed: 220.1 kts&#xA;Heading: 170.3&#xA;Mission: </description>
          <Point>
            <coordinates>-87.921387,30.404942,3300</coordinates>
          </Point>
        </Placemark>
        <Placemark>
          <name>HAIRY12 (H47)</name>
          <description>Branch: &#xA;Altitude: 600 ft&#xA;Speed: 31.3 kts&#xA;Heading: 286.7&#xA;Mission: </description>
          <Point>
            <coordinates>-82.369881,34.767353,600</coordinates>
          </Point>
        </Placemark>
        <Placemark>
          <name>FFAB123 (H60)</name>
          <description>Branch: &#xA;Altitude: 325 ft&#xA;Speed: 87.2 kts&#xA;Heading: 242.0&#xA;Mission: </description>
          <Point>
            <coordinates>-81.877917,30.356994,325</coordinates>
          </Point>
        </Placemark>
        <Placemark>
          <name>CROSS21 (H60)</name>
          <description>Branch: &#xA;Altitude: 1500 ft&#xA;Speed: 51.4 kts&#xA;Heading: 186.7&#xA;Mission: </description>
          <Point>
            <coordinates>10.288552,49.413385,1500</coordinates>
          </Point>
        </Placemark>
        <Placemark>
          <name>FAB8821 (EC35)</name>
          <description>Branch: &#xA;Altitude: 0 ft&#xA;Speed: 31.2 kts&#xA;Heading: 129.8&#xA;Mission: </description>
          <Point>
            <coordinates>0,0,0</coordinates>
          </Point>
        </Placemark>
        <Placemark>
          <name>TOTES79 (EC45)</name>
          <description>Branch: &#xA;Altitude: 1825 ft&#xA;Speed: 93.0 kts&#xA;Heading: 187.7&#xA;Mission: </description>
          <Point>
            <coordinates>-86.178459,31.262854,1825</coordinates>
          </Point>
        </Placemark>
        <Placemark>
          <name>AXEL21 (GLEX)</name>
          <description>Branch: &#xA;Altitude: 40000 ft&#xA;Speed: 406.1 kts&#xA;Heading: 271.6&#xA;Mission: </description>
          <Point>
            <coordinates>-102.251788,31.919495,40000</coordinates>
          </Point>
        </Placemark>
        <Placemark>
          <name>EVIL16 (TEX2)</name>
          <description>Branch: &#xA;Altitude: 5075 ft&#xA;Speed: 252.8 kts&#xA;Heading: 329.6&#xA;Mission: </description>
          <Point>
            <coordinates>-97.392046,35.5836,5075</coordinates>
          </Point>
        </Placemark>
        <Placemark>
          <name>GRIT41 (H47)</name>
          <description>Branch: &#xA;Altitude: 1575 ft&#xA;Speed: 50.5 kts&#xA;Heading: 278.0&#xA;Mission: </description>
          <Point>
            <coordinates>10.647703,49.308875,1575</coordinates>
          </Point>
        </Placemark>
        <Placemark>
          <name> ()</name>
          <description>Branch: &#xA;Altitude: 0 ft&#xA;Speed: 0.0 kts&#xA;Heading: 0.0&#xA;Mission: </description>
          <Point>
            <coordinates>0,0,0</coordinates>
          </Point>
        </Placemark>
        <Placemark>
          <name>VIRAL43 (TEX2)</name>
          <description>Branch: &#xA;Altitude: 0 ft&#xA;Speed: 0.0 kts&#xA;Heading: 0.0&#xA;Mission: </description>
          <Point>
            <coordinates>0,0,0</coordinates>
          </Point>
        </Placemark>
        <Placemark>
          <name> (K35R)</name>
          <description>Branch: &#xA;Altitude: 35000 ft&#xA;Speed: 594.0 kts&#xA;Heading: 109.0&#xA;Mission: </description>
          <Point>
            <coordinates>0,0,35000</coordinates>
          </Point>
        </Placemark>
        <Placemark>
          <name>WEIRD23 (EC45)</name>
          <description>Branch: &#xA;Altitude: 525 ft&#xA;Speed: 63.0 kts&#xA;Heading: 92.5&#xA;Mission: </description>
          <Point>
            <coordinates>-85.754051,31.151642,525</coordinates>
          </Point>
        </Placemark>
        <Placemark>
          <name>VV8E734 (A119)</name>
          <description>Branch: &#xA;Altitude: 500 ft&#xA;Speed: 110.0 kts&#xA;Heading: 133.5&#xA;Mission: </description>
          <Point>
            <coordinates>-85.466415,31.334518,500</coordinates>
          </Point>
        </Placemark>
        <Placemark>
          <name>COBRA12 (T38)</name>
          <description>Branch: &#xA;Altitude: 3350 ft&#xA;Speed: 309.1 kts&#xA;Heading: 113.2&#xA;Mission: </description>
          <Point>
            <coordinates>-117.788773,35.004443,3350</coordinates>
          </Point>
        </Placemark>
        <Placemark>
          <name>0720075 (H60)</name>
          <description>Branch: &#xA;Altitude: 4650 ft&#xA;Speed: 119.4 kts&#xA;Heading: 297.4&#xA;Mission: </description>
          <Point>
            <coordinates>-97.792877,30.178466,4650</coordinates>
          </Point>
        </Placemark>
        <Placemark>
          <name>EASY04 (B350)</name>
          <description>Branch: &#xA;Altitude: 25000 ft&#xA;Speed: 298.7 kts&#xA;Heading: 100.2&#xA;Mission: </description>
          <Point>
            <coordinates>-94.640108,30.616241,25000</coordinates>
          </Point>
        </Placemark>
        <Placemark>
          <name>AVLON43 (B737)</name>
          <description>Branch: &#xA;Altitude: 25100 ft&#xA;Speed: 401.2 kts&#xA;Heading: 13.6&#xA;Mission: </description>
          <Point>
            <coordinates>-91.121262,37.458165,25100</coordinates>
          </Point>
        </Placemark>
        <Placemark>
          <name>C6547 (AS65)</name>
          <description>Branch: &#xA;Altitude: 75 ft&#xA;Speed: 55.0 kts&#xA;Heading: 143.1&#xA;Mission: </description>
          <Point>
            <coordinates>-124.208742,40.782367,75</coordinates>
          </Point>
        </Placemark>
        <Placemark>
          <name> ()</name>
          <description>Branch: &#xA;Altitude: 2500 ft&#xA;Speed: 171.7 kts&#xA;Heading: 262.0&#xA;Mission: </description>
          <Point>
            <coordinates>-122.75393,48.543417,2500</coordinates>
          </Point>
        </Placemark>
        <Placemark>
          <name>SAM218 (GLF5)</name>
          <description>Branch: &#xA;Altitude: 41000 ft&#xA;Speed: 535.6 kts&#xA;Heading: 78.0&#xA;Mission: </description>
          <Point>
            <coordinates>-120.21599,34.275421,41000</coordinates>
          </Point>
        </Placemark>
        <Placemark>
          <name>BLZR247 (HAWK)</name>
          <description>Branch: &#xA;Altitude: 5450 ft&#xA;Speed: 0.0 kts&#xA;Heading: 0.0&#xA;Mission: </description>
          <Point>
            <coordinates>0,0,5450</coordinates>
          </Point>
        </Placemark>
        <Placemark>
          <name>RNGR44 (B06)</name>
          <description>Branch: &#xA;Altitude: 1150 ft&#xA;Speed: 68.5 kts&#xA;Heading: 151.2&#xA;Mission: </description>
          <Point>
            <coordinates>-98.153934,49.906885,1150</coordinates>
          </Point>
        </Placemark>
        <Placemark>
          <name>IRON12 (TEX2)</name>
          <description>Branch: &#xA;Altitude: 17925 ft&#xA;Speed: 187.1 kts&#xA;Heading: 344.2&#xA;Mission: </description>
          <Point>
            <coordinates>-88.195159,33.069965,17925</coordinates>
          </Point>
        </Placemark>
        <Placemark>
          <name>ANVIL76 (C30J)</name>
          <description>Branch: &#xA;Altitude: 10275 ft&#xA;Speed: 254.7 kts&#xA;Heading: 253.3&#xA;Mission: </description>
          <Point>
            <coordinates>-83.751463,40.164293,10275</coordinates>
          </Point>
        </Placemark>
        <Placemark>
          <name>TEST1234 ()</name>
          <description>Branch: &#xA;Altitude: 0 ft&#xA;Speed: 0.0 kts&#xA;Heading: 0.0&#xA;Mission: </description>
          <Point>
            <coordinates>0,0,0</coordinates>
          </Point>
        </Placemark>
        <Placemark>
          <name>VR49 (A332)</name>
          <description>Branch: &#xA;Altitude: 31000 ft&#xA;Speed: 0.0 kts&#xA;Heading: 0.0&#xA;Mission: </description>
          <Point>
            <coordinates>0,0,31000</coordinates>
          </Point>
        </Placemark>
        <Placemark>
          <name>RUDY24 (V22)</name>
          <description>Branch: &#xA;Altitude: 3925 ft&#xA;Speed: 213.5 kts&#xA;Heading: 15.2&#xA;Mission: </description>
          <Point>
            <coordinates>-119.029312,34.007015,3925</coordinates>
          </Point>
        </Placemark>
        <Placemark>
          <name>STRKE41 (TEX2)</name>
          <description>Branch: &#xA;Altitude: 1350 ft&#xA;Speed: 123.4 kts&#xA;Heading: 130.4&#xA;Mission: </description>
          <Point>
            <coordinates>-100.794437,29.37117,1350</coordinates>
          </Point>
        </Placemark>
        <Placemark>
          <name>EMOJI77 (EC45)</name>
          <description>Branch: &#xA;Altitude: 775 ft&#xA;Speed: 88.2 kts&#xA;Heading: 17.8&#xA;Mission: </description>
          <Point>
            <coordinates>-85.633527,31.23967,775</coordinates>
          </Point>
        </Placemark>
        <Placemark>
          <name>WING88 (BE20)</name>
          <description>Branch: &#xA;Altitude: 2525 ft&#xA;Speed: 187.2 kts&#xA;Heading: 40.7&#xA;Mission: </description>
          <Point>
            <coordinates>-78.84882,35.119474,2525</coordinates>
          </Point>
        </Placemark>
        <Placemark>
          <name> (A119)</name>
          <description>Branch: &#xA;Altitude: 2775 ft&#xA;Speed: 80.3 kts&#xA;Heading: 161.1&#xA;Mission: </description>
          <Point>
            <coordinates>0,0,2775</coordinates>
          </Point>
        </Placemark>
        <Placemark>
          <name> ()</name>
          <description>Branch: &#xA;Altitude: 6050 ft&#xA;Speed: 194.0 kts&#xA;Heading: 130.5&#xA;Mission: </description>
          <Point>
            <coordinates>-111.225449,47.664001,6050</coordinates>
          </Point>
        </Placemark>
        <Placemark>
          <name>ARCH51 (TEX2)</name>
          <description>Branch: &#xA;Altitude: 8425 ft&#xA;Speed: 211.0 kts&#xA;Heading: 270.3&#xA;Mission: </description>
          <Point>
            <coordinates>-105.492578,50.240711,8425</coordinates>
          </Point>
        </Placemark>
        <Placemark>
          <name>SH037 (TEX2)</name>
          <description>Branch: &#xA;Altitude: 2025 ft&#xA;Speed: 239.0 kts&#xA;Heading: 157.1&#xA;Mission: </description>
          <Point>
            <coordinates>-87.127678,30.89579,2025</coordinates>
          </Point>
        </Placemark>
        <Placemark>
          <name>WIRE31 (TEX2)</name>
          <description>Branch: &#xA;Altitude: 8950 ft&#xA;Speed: 188.1 kts&#xA;Heading: 313.7&#xA;Mission: </description>
          <Point>
            <coordinates>-97.582086,36.173742,8950</coordinates>
          </Point>
        </Placemark>
        <Placemark>
          <name>ASY050 (E737)</name>
          <description>Branch: &#xA;Altitude: -200 ft&#xA;Speed: 137.0 kts&#xA;Heading: 0.4&#xA;Mission: </description>
          <Point>
            <coordinates>-76.870544,38.792306,-200</coordinates>
          </Point>
        </Placemark>
        <Placemark>
          <name>APACHE1 (H64)</name>
          <description>Branch: &#xA;Altitude: 500 ft&#xA;Speed: 93.1 kts&#xA;Heading: 273.1&#xA;Mission: </description>
          <Point>
            <coordinates>4.946891,51.557693,500</coordinates>
          </Point>
        </Placemark>
        <Placemark>
          <name>TUNAV01 (AT76)</name>
          <description>Branch: &#xA;Altitude: -300 ft&#xA;Speed: 104.1 kts&#xA;Heading: 278.3&#xA;Mission: </description>
          <Point>
            <coordinates>14.926599,37.403094,-300</coordinates>
          </Point>
        </Placemark>
        <Placemark>
          <name>ICY97 (H60)</name>
          <description>Branch: &#xA;Altitude: 0 ft&#xA;Speed: 0.0 kts&#xA;Heading: 0.0&#xA;Mission: </description>
          <Point>
            <coordinates>0,0,0</coordinates>
          </Point>
        </Placemark>
        <Placemark>
          <name>MNTNA57 (BE9L)</name>
          <description>Branch: &#xA;Altitude: 1825 ft&#xA;Speed: 144.0 kts&#xA;Heading: 134.0&#xA;Mission: </description>
          <Point>
            <coordinates>-97.255569,27.657661,1825</coordinates>
          </Point>
        </Placemark>
        <Placemark>
          <name>RCH137 (C17)</name>
          <description>Branch: &#xA;Altitude: 36000 ft&#xA;Speed: 280.0 kts&#xA;Heading: 198.5&#xA;Mission: </description>
          <Point>
            <coordinates>0,0,36000</coordinates>
          </Point>
        </Placemark>
        <Placemark>
          <name>EVAL78 (H64)</name>
          <description>Branch: &#xA;Altitude: 1200 ft&#xA;Speed: 122.5 kts&#xA;Heading: 283.7&#xA;Mission: </description>
          <Point>
            <coordinates>-97.092773,31.553805,1200</coordinates>
          </Point>
        </Placemark>
        <Placemark>
          <name>VV7E735 (A119)</name>
          <description>Branch: &#xA;Altitude: 450 ft&#xA;Speed: 98.6 kts&#xA;Heading: 233.2&#xA;Mission: </description>
          <Point>
            <coordinates>-86.939284,30.70578,450</coordinates>
          </Point>
        </Placemark>
        <Placemark>
          <name> ()</name>
          <description>Branch: &#xA;Altitude: 0 ft&#xA;Speed: 0.0 kts&#xA;Heading: 0.0&#xA;Mission: </description>
          <Point>
            <coordinates>0,0,0</coordinates>
          </Point>
        </Placemark>
        <Placemark>
          <name>YODA42 (TEX2)</name>
          <description>Branch: &#xA;Altitude: 7350 ft&#xA;Speed: 205.9 kts&#xA;Heading: 204.1&#xA;Mission: </description>
          <Point>
            <coordinates>-105.116609,50.196899,7350</coordinates>
          </Point>
        </Placemark>
        <Placemark>
          <name>MORPH33 (EC45)</name>
          <description>Branch: &#xA;Altitude: 350 ft&#xA;Speed: 41.0 kts&#xA;Heading: 120.6&#xA;Mission: </description>
          <Point>
            <coordinates>-85.655174,31.232758,350</coordinates>
          </Point>
        </Placemark>
        <Placemark>
          <name>346 (B350)</name>
          <description>Branch: &#xA;Altitude: 29000 ft&#xA;Speed: 233.0 kts&#xA;Heading: 137.2&#xA;Mission: </description>
          <Point>
            <coordinates>-74.235008,-15.616837,29000</coordinates>
          </Point>
        </Placemark>
        <Placemark>
          <name>RUDY30 (V22)</name>
          <description>Branch: &#xA;Altitude: 1400 ft&#xA;Speed: 195.5 kts&#xA;Heading: 14.8&#xA;Mission: </description>
          <Point>
            <coordinates>-117.202989,32.614172,1400</coordinates>
          </Point>
        </Placemark>
        <Placemark>
          <name>N7870N (C172)</name>
          <description>Branch: &#xA;Altitude: 0 ft&#xA;Speed: 0.0 kts&#xA;Heading: 0.0&#xA;Mission: </description>
          <Point>
            <coordinates>-104.713455,38.823006,0</coordinates>
          </Point>
        </Placemark>
        <Placemark>
          <name>SKUNK46 (TEX2)</name>
          <description>Branch: &#xA;Altitude: 19900 ft&#xA;Speed: 118.5 kts&#xA;Heading: 301.5&#xA;Mission: </description>
          <Point>
            <coordinates>-88.067944,33.399811,19900</coordinates>
          </Point>
        </Placemark>
        <Placemark>
          <name>CASTL04 (C130)</name>
          <description>Branch: &#xA;Altitude: 200 ft&#xA;Speed: 176.3 kts&#xA;Heading: 258.9&#xA;Mission: </description>
          <Point>
            <coordinates>-75.645935,39.673865,200</coordinates>
          </Point>
        </Placemark>
        <Placemark>
          <name>TEX02 (TEX2)</name>
          <description>Branch: &#xA;Altitude: 5825 ft&#xA;Speed: 179.6 kts&#xA;Heading: 293.3&#xA;Mission: </description>
          <Point>
            <coordinates>175.092529,-39.97847,5825</coordinates>
          </Point>
        </Placemark>
        <Placemark>
          <name>RCH284 (C17)</name>
          <description>Branch: &#xA;Altitude: 31000 ft&#xA;Speed: 0.0 kts&#xA;Heading: 0.0&#xA;Mission: </description>
          <Point>
            <coordinates>0,0,31000</coordinates>
          </Point>
        </Placemark>
        <Placemark>
          <name>JOLLY92 (H60)</name>
          <description>Branch: &#xA;Altitude: -250 ft&#xA;Speed: 1.2 kts&#xA;Heading: 270.0&#xA;Mission: </description>
          <Point>
            <coordinates>-122.050216,37.420441,-250</coordinates>
          </Point>
        </Placemark>
        <Placemark>
          <name>LEPD31 (TEX2)</name>
          <description>Branch: &#xA;Altitude: 12500 ft&#xA;Speed: 126.3 kts&#xA;Heading: 86.4&#xA;Mission: </description>
          <Point>
            <coordinates>-106.446756,50.128613,12500</coordinates>
          </Point>
        </Placemark>
        <Placemark>
          <name>CHETAH4 (T38)</name>
          <description>Branch: &#xA;Altitude: 17275 ft&#xA;Speed: 467.9 kts&#xA;Heading: 193.5&#xA;Mission: </description>
          <Point>
            <coordinates>-97.577397,29.350662,17275</coordinates>
          </Point>
        </Placemark>
        <Placemark>
          <name>RUSTY12 (TEX2)</name>
          <description>Branch: &#xA;Altitude: 9275 ft&#xA;Speed: 278.7 kts&#xA;Heading: 149.8&#xA;Mission: </description>
          <Point>
            <coordinates>-87.93244,33.227777,9275</coordinates>
          </Point>
        </Placemark>
        <Placemark>
          <name>TEST1234 ()</name>
          <description>Branch: &#xA;Altitude: 0 ft&#xA;Speed: 0.0 kts&#xA;Heading: 0.0&#xA;Mission: </description>
          <Point>
            <coordinates>0,0,0</coordinates>
          </Point>
        </Placemark>
        <Placemark>
          <name> (A332)</name>
          <description>Branch: &#xA;Altitude: 0 ft&#xA;Speed: 0.0 kts&#xA;Heading: 0.0&#xA;Mission: </description>
          <Point>
            <coordinates>0,0,0</coordinates>
          </Point>
        </Placemark>
        <Placemark>
          <name> (K35R)</name>
          <description>Branch: &#xA;Altitude: 34000 ft&#xA;Speed: 0.0 kts&#xA;Heading: 0.0&#xA;Mission: </description>
          <Point>
            <coordinates>0,0,34000</coordinates>
          </Point>
        </Placemark>
        <Placemark>
          <name>KATT21 (TEX2)</name>
          <description>Branch: &#xA;Altitude: 7425 ft&#xA;Speed: 184.1 kts&#xA;Heading: 92.2&#xA;Mission: </description>
          <Point>
            <coordinates>-87.769391,30.455917,7425</coordinates>
          </Point>
        </Placemark>
        <Placemark>
          <name>TEST1234 ()</name>
          <description>Branch: &#xA;Altitude: 0 ft&#xA;Speed: 0.0 kts&#xA;Heading: 0.0&#xA;Mission: </description>
          <Point>
            <coordinates>0,0,0</coordinates>
          </Point>
        </Placemark>
        <Placemark>
          <name>VV1E037 (A119)</name>
          <description>Branch: &#xA;Altitude: 1300 ft&#xA;Speed: 78.0 kts&#xA;Heading: 158.7&#xA;Mission: </description>
          <Point>
            <coordinates>-87.4076,30.795547,1300</coordinates>
          </Point>
        </Placemark>
        <Placemark>
          <name>N738NH (C172)</name>
          <description>Branch: &#xA;Altitude: 2700 ft&#xA;Speed: 88.0 kts&#xA;Heading: 1.3&#xA;Mission: </description>
          <Point>
            <coordinates>-90.007381,35.543793,2700</coordinates>
          </Point>
        </Placemark>
        <Placemark>
          <name> (T38)</name>
          <description>Branch: &#xA;Altitude: 6250 ft&#xA;Speed: 352.0 kts&#xA;Heading: 303.6&#xA;Mission: </description>
          <Point>
            <coordinates>-97.525635,29.273351,6250</coordinates>
          </Point>
        </Placemark>
        <Placemark>
          <name>R23481 (H64)</name>
          <description>Branch: &#xA;Altitude: 500 ft&#xA;Speed: 69.1 kts&#xA;Heading: 58.6&#xA;Mission: </description>
          <Point>
            <coordinates>-78.887329,35.152433,500</coordinates>
          </Point>
        </Placemark>
        <Placemark>
          <name>C104 ()</name>
          <description>Branch: &#xA;Altitude: 6025 ft&#xA;Speed: 236.8 kts&#xA;Heading: 119.0&#xA;Mission: </description>
          <Point>
            <coordinates>-77.351562,38.868744,6025</coordinates>
          </Point>
        </Placemark>
        <Placemark>
          <name> ()</name>
          <description>Branch: &#xA;Altitude: 0 ft&#xA;Speed: 0.0 kts&#xA;Heading: 0.0&#xA;Mission: </description>
          <Point>
            <coordinates>0,0,0</coordinates>
          </Point>
        </Placemark>
        <Placemark>
          <name>@@@@@@@@ (P3)</name>
          <description>Branch: &#xA;Altitude: 1700 ft&#xA;Speed: 164.0 kts&#xA;Heading: 353.0&#xA;Mission: </description>
          <Point>
            <coordinates>23.55711,37.911976,1700</coordinates>
          </Point>
        </Placemark>
        <Placemark>
          <name> (K35R)</name>
          <description>Branch: &#xA;Altitude: 16750 ft&#xA;Speed: 0.0 kts&#xA;Heading: 0.0&#xA;Mission: </description>
          <Point>
            <coordinates>0,0,16750</coordinates>
          </Point>
        </Placemark>
        <Placemark>
          <name>VANDY10 (BE40)</name>
          <description>Branch: &#xA;Altitude: 15900 ft&#xA;Speed: 256.2 kts&#xA;Heading: 347.4&#xA;Mission: </description>
          <Point>
            <coordinates>-98.170452,35.744751,15900</coordinates>
          </Point>
        </Placemark>
        <Placemark>
          <name>BGST307 (BE20)</name>
          <description>Branch: &#xA;Altitude: 18000 ft&#xA;Speed: 208.6 kts&#xA;Heading: 256.7&#xA;Mission: </description>
          <Point>
            <coordinates>-90.710826,30.044174,18000</coordinates>
          </Point>
        </Placemark>
        <Placemark>
          <name>RN148 (TEX2)</name>
          <description>Branch: &#xA;Altitude: 7350 ft&#xA;Speed: 233.9 kts&#xA;Heading: 352.6&#xA;Mission: </description>
          <Point>
            <coordinates>-87.259021,31.32123,7350</coordinates>
          </Point>
        </Placemark>
        <Placemark>
          <name>EVAL00 (TEX2)</name>
          <description>Branch: &#xA;Altitude: 6050 ft&#xA;Speed: 222.7 kts&#xA;Heading: 69.8&#xA;Mission: </description>
          <Point>
            <coordinates>-86.569519,34.812836,6050</coordinates>
          </Point>
        </Placemark>
        <Placemark>
          <name>HAWK252 ()</name>
          <description>Branch: &#xA;Altitude: 1975 ft&#xA;Speed: 200.0 kts&#xA;Heading: 154.8&#xA;Mission: </description>
          <Point>
            <coordinates>-98.382774,26.346313,1975</coordinates>
          </Point>
        </Placemark>
        <Placemark>
          <name>SHARK51 (SR20)</name>
          <description>Branch: &#xA;Altitude: 8050 ft&#xA;Speed: 106.7 kts&#xA;Heading: 169.7&#xA;Mission: </description>
          <Point>
            <coordinates>-104.684265,38.511828,8050</coordinates>
          </Point>
        </Placemark>
        <Placemark>
          <name>AXEL10 (GLEX)</name>
          <description>Branch: &#xA;Altitude: 16175 ft&#xA;Speed: 350.9 kts&#xA;Heading: 286.7&#xA;Mission: </description>
          <Point>
            <coordinates>-103.801743,33.118752,16175</coordinates>
          </Point>
        </Placemark>
        <Placemark>
          <name>SPIKE24 (TEX2)</name>
          <description>Branch: &#xA;Altitude: 9175 ft&#xA;Speed: 234.3 kts&#xA;Heading: 296.9&#xA;Mission: </description>
          <Point>
            <coordinates>-88.110744,33.326887,9175</coordinates>
          </Point>
        </Placemark>
        <Placemark>
          <name>CHEWY31 (TEX2)</name>
          <description>Branch: &#xA;Altitude: 2475 ft&#xA;Speed: 121.4 kts&#xA;Heading: 198.7&#xA;Mission: </description>
          <Point>
            <coordinates>-87.897249,31.476471,2475</coordinates>
          </Point>
        </Placemark>
        <Placemark>
          <name>TEST1234 (TWR)</name>
          <description>Branch: &#xA;Altitude: 0 ft&#xA;Speed: 0.0 kts&#xA;Heading: 0.0&#xA;Mission: </description>
          <Point>
            <coordinates>0,0,0</coordinates>
          </Point>
        </Placemark>
        <Placemark>
          <name>GUNDOG2 (T38)</name>
          <description>Branch: &#xA;Altitude: 14075 ft&#xA;Speed: 479.8 kts&#xA;Heading: 73.9&#xA;Mission: </description>
          <Point>
            <coordinates>-88.531437,34.187032,14075</coordinates>
          </Point>
        </Placemark>
        <Placemark>
          <name>WING23 (C560)</name>
          <description>Branch: &#xA;Altitude: 39000 ft&#xA;Speed: 484.6 kts&#xA;Heading: 85.4&#xA;Mission: </description>
          <Point>
            <coordinates>-84.775814,40.098375,39000</coordinates>
          </Point>
        </Placemark>
        <Placemark>
          <name>COVET15 (H64)</name>
          <description>Branch: &#xA;Altitude: 2100 ft&#xA;Speed: 104.7 kts&#xA;Heading: 190.4&#xA;Mission: </description>
          <Point>
            <coordinates>9.954949,50.003109,2100</coordinates>
          </Point>
        </Placemark>
        <Placemark>
          <name>GAFTT33 ()</name>
          <description>Branch: &#xA;Altitude: 62700 ft&#xA;Speed: 0.0 kts&#xA;Heading: 0.0&#xA;Mission: </description>
          <Point>
            <coordinates>0,0,62700</coordinates>
          </Point>
        </Placemark>
        <Placemark>
          <name>GAFTT07 ()</name>
          <description>Branch: &#xA;Altitude: 62700 ft&#xA;Speed: 0.0 kts&#xA;Heading: 0.0&#xA;Mission: </description>
          <Point>
            <coordinates>0,0,62700</coordinates>
          </Point>
        </Placemark>
        <Placemark>
          <name> (EC45)</name>
          <description>Branch: &#xA;Altitude: 0 ft&#xA;Speed: 0.0 kts&#xA;Heading: 0.0&#xA;Mission: </description>
          <Point>
            <coordinates>0,0,0</coordinates>
          </Point>
        </Placemark>
        <Placemark>
          <name>BLACK34 (H60)</name>
          <description>Branch: &#xA;Altitude: 1975 ft&#xA;Speed: 116.0 kts&#xA;Heading: 292.7&#xA;Mission: </description>
          <Point>
            <coordinates>-8.528262,40.590199,1975</coordinates>
          </Point>
        </Placemark>
        <Placemark>
          <name>TETON38 (C130)</name>
          <description>Branch: &#xA;Altitude: 21000 ft&#xA;Speed: 314.5 kts&#xA;Heading: 159.7&#xA;Mission: </description>
          <Point>
            <coordinates>-102.778076,39.185719,21000</coordinates>
          </Point>
        </Placemark>
        <Placemark>
          <name>MSTG85 (BE9L)</name>
          <description>Branch: &#xA;Altitude: 1125 ft&#xA;Speed: 106.1 kts&#xA;Heading: 314.2&#xA;Mission: </description>
          <Point>
            <coordinates>-98.246872,49.884075,1125</coordinates>
          </Point>
        </Placemark>
        <Placemark>
          <name>BGST312 (BE20)</name>
          <description>Branch: &#xA;Altitude: 12725 ft&#xA;Speed: 259.0 kts&#xA;Heading: 233.8&#xA;Mission: </description>
          <Point>
            <coordinates>-96.353544,28.436807,12725</coordinates>
          </Point>
        </Placemark>
        <Placemark>
          <name> ()</name>
          <description>Branch: &#xA;Altitude: 1800 ft&#xA;Speed: 0.0 kts&#xA;Heading: 0.0&#xA;Mission: </description>
          <Point>
            <coordinates>0,0,1800</coordinates>
          </Point>
        </Placemark>
        <Placemark>
          <name>HAWK208 ()</name>
          <description>Branch: &#xA;Altitude: 0 ft&#xA;Speed: 200.5 kts&#xA;Heading: 245.2&#xA;Mission: </description>
          <Point>
            <coordinates>-98.91081,27.877296,0</coordinates>
          </Point>
        </Placemark>
        <Placemark>
          <name>PAT123 (BE20)</name>
          <description>Branch: &#xA;Altitude: 23125 ft&#xA;Speed: 190.1 kts&#xA;Heading: 6.0&#xA;Mission: </description>
          <Point>
            <coordinates>-98.407665,29.992538,23125</coordinates>
          </Point>
        </Placemark>
        <Placemark>
          <name>RCH1848 (C17)</name>
          <description>Branch: &#xA;Altitude: 35000 ft&#xA;Speed: 533.0 kts&#xA;Heading: 125.0&#xA;Mission: </description>
          <Point>
            <coordinates>-90.532788,38.678264,35000</coordinates>
          </Point>
        </Placemark>
        <Placemark>
          <name>TEST1234 (TWR)</name>
          <description>Branch: &#xA;Altitude: 0 ft&#xA;Speed: 0.0 kts&#xA;Heading: 0.0&#xA;Mission: </description>
          <Point>
            <coordinates>0,0,0</coordinates>
          </Point>
        </Placemark>
        <Placemark>
          <name> (C17)</name>
          <description>Branch: &#xA;Altitude: 0 ft&#xA;Speed: 0.0 kts&#xA;Heading: 0.0&#xA;Mission: </description>
          <Point>
            <coordinates>0,0,0</coordinates>
          </Point>
        </Placemark>
        <Placemark>
          <name>STGRY22 (BE9L)</name>
          <description>Branch: &#xA;Altitude: 1575 ft&#xA;Speed: 114.0 kts&#xA;Heading: 203.1&#xA;Mission: </description>
          <Point>
            <coordinates>-97.448158,27.897263,1575</coordinates>
          </Point>
        </Placemark>
        <Placemark>
          <name>WATTS42 (EC45)</name>
          <description>Branch: &#xA;Altitude: 0 ft&#xA;Speed: 0.0 kts&#xA;Heading: 0.0&#xA;Mission: </description>
          <Point>
            <coordinates>-111.336383,32.522816,0</coordinates>
          </Point>
        </Placemark>
        <Placemark>
          <name>PAT175 (BE20)</name>
          <description>Branch: &#xA;Altitude: 26975 ft&#xA;Speed: 265.0 kts&#xA;Heading: 0.2&#xA;Mission: </description>
          <Point>
            <coordinates>-97.741736,31.719438,26975</coordinates>
          </Point>
        </Placemark>
        <Placemark>
          <name>EVIL81 (TEX2)</name>
          <description>Branch: &#xA;Altitude: 10825 ft&#xA;Speed: 103.2 kts&#xA;Heading: 234.5&#xA;Mission: </description>
          <Point>
            <coordinates>-97.691174,36.674469,10825</coordinates>
          </Point>
        </Placemark>
        <Placemark>
          <name>TALON47 ()</name>
          <description>Branch: &#xA;Altitude: 7975 ft&#xA;Speed: 286.2 kts&#xA;Heading: 92.0&#xA;Mission: </description>
          <Point>
            <coordinates>-89.118403,32.746473,7975</coordinates>
          </Point>
        </Placemark>
        <Placemark>
          <name>BB094 (TEX2)</name>
          <description>Branch: &#xA;Altitude: 6575 ft&#xA;Speed: 208.0 kts&#xA;Heading: 36.6&#xA;Mission: </description>
          <Point>
            <coordinates>-86.969228,30.897858,6575</coordinates>
          </Point>
        </Placemark>
        <Placemark>
          <name>N9358L (C172)</name>
          <description>Branch: &#xA;Altitude: 1850 ft&#xA;Speed: 93.4 kts&#xA;Heading: 217.6&#xA;Mission: </description>
          <Point>
            <coordinates>-86.409948,30.78186,1850</coordinates>
          </Point>
        </Placemark>
        <Placemark>
          <name>DRAG75P (EC45)</name>
          <description>Branch: &#xA;Altitude: 1350 ft&#xA;Speed: 0.0 kts&#xA;Heading: 0.0&#xA;Mission: </description>
          <Point>
            <coordinates>2.249761,48.872335,1350</coordinates>
          </Point>
        </Placemark>
        <Placemark>
          <name> ()</name>
          <description>Branch: &#xA;Altitude: 0 ft&#xA;Speed: 0.0 kts&#xA;Heading: 0.0&#xA;Mission: </description>
          <Point>
            <coordinates>0,0,0</coordinates>
          </Point>
        </Placemark>
        <Placemark>
          <name>N343TA (P28A)</name>
          <description>Branch: &#xA;Altitude: 3300 ft&#xA;Speed: 85.4 kts&#xA;Heading: 215.0&#xA;Mission: </description>
          <Point>
            <coordinates>-121.302612,38.637426,3300</coordinates>
          </Point>
        </Placemark>
        <Placemark>
          <name>RUDY36 (V22)</name>
          <description>Branch: &#xA;Altitude: 6475 ft&#xA;Speed: 202.7 kts&#xA;Heading: 308.8&#xA;Mission: </description>
          <Point>
            <coordinates>-117.983608,33.585159,6475</coordinates>
          </Point>
        </Placemark>