<?xml version="1.0" encoding="UTF-8"?>
<kml xmlns="http://www.opengis.net/kml/2.2">
  <Document>
    <name>US Military Tracker</name>
    <description>Generated: 2026-03-02T22:31:52Z | Chairman: groq | Score: 0.00</description>
    <Folder>
      <name>Aircraft (355 tracked)</name>
      <Folder>
        <name>USAF</name>
        <Placemark>
          <name>SWOOP11 (TEX2)</name>
          <description>Type: TEX2&#xA;Callsign: SWOOP11&#xA;Hex: ae112b&#xA;Branch: USAF&#xA;Mission: training&#xA;Altitude: 8925 ft&#xA;Speed: 220.6 kts&#xA;Heading: 114.9&#xA;Source: adsb.lol</description>
          <Point>
            <coordinates>-100.36391,29.262039,8925</coordinates>
          </Point>
        </Placemark>
        <Placemark>
          <name>JAVET31 (T-38 Talon)</name>
          <description>Type: T-38 Talon&#xA;Callsign: JAVET31&#xA;Hex: ae0083&#xA;Branch: USAF&#xA;Mission: training&#xA;Altitude: 3000 ft&#xA;Speed: 220.0 kts&#xA;Heading: 180.5&#xA;Source: adsb.lol</description>
          <Point>
            <coordinates>-97.349912,35.320626,3000</coordinates>
          </Point>
        </Placemark>
        <Placemark>
          <name>CFC3823 (CL60)</name>
          <description>Type: CL60&#xA;Callsign: CFC3823&#xA;Hex: c2c1f1&#xA;Branch: USAF&#xA;Mission: transport&#xA;Altitude: 37000 ft&#xA;Speed: 512.2 kts&#xA;Heading: 98.2&#xA;Source: adsb.lol</description>
          <Point>
            <coordinates>-141.043996,60.962585,37000</coordinates>
          </Point>
        </Placemark>
        <Placemark>
          <name>RASTA41 (TEX2)</name>
          <description>Type: TEX2&#xA;Callsign: RASTA41&#xA;Hex: ae1415&#xA;Branch: USAF&#xA;Mission: training&#xA;Altitude: 6425 ft&#xA;Speed: 200.4 kts&#xA;Heading: 259.4&#xA;Source: adsb.one</description>
          <Point>
            <coordinates>-100.546336,29.420316,6425</coordinates>
          </Point>
        </Placemark>
        <Placemark>
          <name>MCUE12 (B762)</name>
          <description>Type: B762&#xA;Callsign: MCUE12&#xA;Hex: ae5faa&#xA;Branch: USAF&#xA;Mission: transport&#xA;Altitude: 32008 ft&#xA;Speed: 0.0 kts&#xA;Heading: 298.2&#xA;Source: adsb.one</description>
          <Point>
            <coordinates>-10.846252,36.240978,32008</coordinates>
          </Point>
        </Placemark>
        <Placemark>
          <name>TORO52 (T-38 Talon)</name>
          <description>Type: T-38 Talon&#xA;Callsign: TORO52&#xA;Hex: ae006b&#xA;Branch: USAF&#xA;Mission: training&#xA;Altitude: 27050 ft&#xA;Speed: 450.8 kts&#xA;Heading: 5.1&#xA;Source: adsb.one</description>
          <Point>
            <coordinates>-98.020412,32.368702,27050</coordinates>
          </Point>
        </Placemark>
        <Placemark>
          <name>VIKING1 (TEX2)</name>
          <description>Type: TEX2&#xA;Callsign: VIKING1&#xA;Hex: ae1e66&#xA;Branch: USAF&#xA;Mission: training&#xA;Altitude: 17900 ft&#xA;Speed: 256.6 kts&#xA;Heading: 129.2&#xA;Source: adsb.one</description>
          <Point>
            <coordinates>-97.923048,34.250427,17900</coordinates>
          </Point>
        </Placemark>
        <Placemark>
          <name>GHOST41 (TEX2)</name>
          <description>Type: TEX2&#xA;Callsign: GHOST41&#xA;Hex: ae0899&#xA;Branch: USAF&#xA;Mission: training&#xA;Altitude: 10950 ft&#xA;Speed: 233.2 kts&#xA;Heading: 309.1&#xA;Source: adsb.lol</description>
          <Point>
            <coordinates>-97.904047,34.666626,10950</coordinates>
          </Point>
        </Placemark>
        <Placemark>
          <name>RNGR755 (TEX2)</name>
          <description>Type: TEX2&#xA;Callsign: RNGR755&#xA;Hex: ae1e70&#xA;Branch: USAF&#xA;Mission: training&#xA;Altitude: 14150 ft&#xA;Speed: 295.4 kts&#xA;Heading: 302.6&#xA;Source: adsb.one</description>
          <Point>
            <coordinates>-97.451531,28.304319,14150</coordinates>
          </Point>
        </Placemark>
        <Placemark>
          <name>RIPMO29 (C30J)</name>
          <description>Type: C30J&#xA;Callsign: RIPMO29&#xA;Hex: ae220b&#xA;Branch: USAF&#xA;Mission: transport&#xA;Altitude: 12825 ft&#xA;Speed: 270.8 kts&#xA;Heading: 118.9&#xA;Source: adsb.one</description>
          <Point>
            <coordinates>140.442997,34.698715,12825</coordinates>
          </Point>
        </Placemark>
        <Placemark>
          <name>BRCAT16 (TEX2)</name>
          <description>Type: TEX2&#xA;Callsign: BRCAT16&#xA;Hex: ae4e95&#xA;Branch: USAF&#xA;Mission: training&#xA;Altitude: 6675 ft&#xA;Speed: 214.3 kts&#xA;Heading: 225.2&#xA;Source: adsb.lol</description>
          <Point>
            <coordinates>-103.265038,32.450401,6675</coordinates>
          </Point>
        </Placemark>
        <Placemark>
          <name>ae05ab (KC-135 Stratotanker)</name>
          <description>Type: KC-135 Stratotanker&#xA;Hex: ae05ab&#xA;Branch: USAF&#xA;Mission: training&#xA;Altitude: 36000 ft&#xA;Speed: 0.0 kts&#xA;Heading: 0.0&#xA;Source: adsb.lol</description>
          <Point>
            <coordinates>0,0,36000</coordinates>
          </Point>
        </Placemark>
      </Folder>
      <Folder>
        <name>USCG</name>
        <Placemark>
          <name>R26344 (H-60 Black Hawk)</name>
          <description>Type: H-60 Black Hawk&#xA;Callsign: R26344&#xA;Hex: ae0cc7&#xA;Branch: USCG&#xA;Mission: search and rescue&#xA;Altitude: 2900 ft&#xA;Speed: 111.8 kts&#xA;Heading: 96.7&#xA;Source: adsb.one</description>
          <Point>
            <coordinates>-116.759262,34.837786,2900</coordinates>
          </Point>
        </Placemark>
        <Placemark>
          <name>G20686 (H-60 Black Hawk)</name>
          <description>Type: H-60 Black Hawk&#xA;Callsign: G20686&#xA;Hex: ae579e&#xA;Branch: USCG&#xA;Mission: search and rescue&#xA;Altitude: 3800 ft&#xA;Speed: 120.3 kts&#xA;Heading: 222.3&#xA;Source: adsb.one</description>
          <Point>
            <coordinates>-81.962075,28.23642,3800</coordinates>
          </Point>
        </Placemark>
        <Placemark>
          <name>ICY10 (H-60 Black Hawk)</name>
          <description>Type: H-60 Black Hawk&#xA;Callsign: ICY10&#xA;Hex: ae64ac&#xA;Branch: USCG&#xA;Mission: search and rescue&#xA;Altitude: 225 ft&#xA;Speed: 110.7 kts&#xA;Heading: 327.2&#xA;Source: adsb.lol</description>
          <Point>
            <coordinates>-150.705054,61.561661,225</coordinates>
          </Point>
        </Placemark>
      </Folder>
      <Folder>
        <name>Unknown</name>
        <Placemark>
          <name>TEST1234 (Unknown Type)</name>
          <description>Type: Unknown Type&#xA;Callsign: TEST1234&#xA;Hex: adfbdf&#xA;Altitude: 0 ft&#xA;Speed: 0.0 kts&#xA;Heading: 0.0&#xA;Source: adsb.lol</description>
          <Point>
            <coordinates>0,0,0</coordinates>
          </Point>
        </Placemark>
        <Placemark>
          <name>JANET27 (B736)</name>
          <description>Type: B736&#xA;Callsign: JANET27&#xA;Hex: abcac9&#xA;Altitude: 0 ft&#xA;Speed: 235.5 kts&#xA;Heading: 78.7&#xA;Source: adsb.lol</description>
          <Point>
            <coordinates>0,0,0</coordinates>
          </Point>
        </Placemark>
        <Placemark>
          <name>TEST1234 (Unknown Type)</name>
          <description>Type: Unknown Type&#xA;Callsign: TEST1234&#xA;Hex: adfbe0&#xA;Altitude: 0 ft&#xA;Speed: 0.0 kts&#xA;Heading: 0.0&#xA;Source: adsb.lol</description>
          <Point>
            <coordinates>0,0,0</coordinates>
          </Point>
        </Placemark>
        <Placemark>
          <name>adf8c3 (Unknown Type)</name>
          <description>Type: Unknown Type&#xA;Hex: adf8c3&#xA;Altitude: 0 ft&#xA;Speed: 0.0 kts&#xA;Heading: 0.0&#xA;Source: adsb.one</description>
          <Point>
            <coordinates>0,0,0</coordinates>
          </Point>
        </Placemark>
        <Placemark>
          <name>c02835 (G120)</name>
          <description>Type: G120&#xA;Hex: c02835&#xA;Altitude: 1125 ft&#xA;Speed: 83.8 kts&#xA;Heading: 19.5&#xA;Source: adsb.lol</description>
          <Point>
            <coordinates>-98.261646,49.919495,1125</coordinates>
          </Point>
        </Placemark>
        <Placemark>
          <name>TEST1234 (TWR)</name>
          <description>Type: TWR&#xA;Callsign: TEST1234&#xA;Hex: 400008&#xA;Altitude: 0 ft&#xA;Speed: 0.0 kts&#xA;Heading: 0.0&#xA;Source: adsb.lol</description>
          <Point>
            <coordinates>0,0,0</coordinates>
          </Point>
        </Placemark>
        <Placemark>
          <name>BLADE37 (TEX2)</name>
          <description>Type: TEX2&#xA;Callsign: BLADE37&#xA;Hex: ae1e8a&#xA;Altitude: 12300 ft&#xA;Speed: 135.1 kts&#xA;Heading: 205.4&#xA;Source: adsb.lol</description>
          <Point>
            <coordinates>-98.482735,34.434723,12300</coordinates>
          </Point>
        </Placemark>
        <Placemark>
          <name>GOAT47 (TEX2)</name>
          <description>Type: TEX2&#xA;Callsign: GOAT47&#xA;Hex: ae13f6&#xA;Altitude: 6375 ft&#xA;Speed: 256.5 kts&#xA;Heading: 254.4&#xA;Source: adsb.lol</description>
          <Point>
            <coordinates>-97.676804,29.808329,6375</coordinates>
          </Point>
        </Placemark>
        <Placemark>
          <name>BOBCT51 (HAWK)</name>
          <description>Type: HAWK&#xA;Callsign: BOBCT51&#xA;Hex: ae62ac&#xA;Altitude: 7375 ft&#xA;Speed: 306.5 kts&#xA;Heading: 47.8&#xA;Source: adsb.lol</description>
          <Point>
            <coordinates>-89.131146,32.136795,7375</coordinates>
          </Point>
        </Placemark>
        <Placemark>
          <name>SPUD34 (H-60 Black Hawk)</name>
          <description>Type: H-60 Black Hawk&#xA;Callsign: SPUD34&#xA;Hex: ae4876&#xA;Altitude: 800 ft&#xA;Speed: 105.6 kts&#xA;Heading: 48.5&#xA;Source: adsb.one</description>
          <Point>
            <coordinates>0,0,800</coordinates>
          </Point>
        </Placemark>
        <Placemark>
          <name>BDIT142 (TEX2)</name>
          <description>Type: TEX2&#xA;Callsign: BDIT142&#xA;Hex: c2b035&#xA;Altitude: 0 ft&#xA;Speed: 16.5 kts&#xA;Heading: 295.3&#xA;Source: adsb.one</description>
          <Point>
            <coordinates>-105.569958,50.337479,0</coordinates>
          </Point>
        </Placemark>
        <Placemark>
          <name>SHOOT35 (T-38 Talon)</name>
          <description>Type: T-38 Talon&#xA;Callsign: SHOOT35&#xA;Hex: ae0034&#xA;Altitude: 12925 ft&#xA;Speed: 402.0 kts&#xA;Heading: 333.6&#xA;Source: adsb.one</description>
          <Point>
            <coordinates>-97.617989,35.901215,12925</coordinates>
          </Point>
        </Placemark>
        <Placemark>
          <name>C2310 (CN35)</name>
          <description>Type: CN35&#xA;Callsign: C2310&#xA;Hex: ae2708&#xA;Altitude: 1200 ft&#xA;Speed: 143.1 kts&#xA;Heading: 2.0&#xA;Source: adsb.one</description>
          <Point>
            <coordinates>-89.419318,30.346147,1200</coordinates>
          </Point>
        </Placemark>
        <Placemark>
          <name>C6513 (AS65)</name>
          <description>Type: AS65&#xA;Callsign: C6513&#xA;Hex: ae2667&#xA;Altitude: -200 ft&#xA;Speed: 26.0 kts&#xA;Heading: 242.4&#xA;Source: adsb.one</description>
          <Point>
            <coordinates>-81.336688,29.9561,-200</coordinates>
          </Point>
        </Placemark>
        <Placemark>
          <name>BERT10 (C30J)</name>
          <description>Type: C30J&#xA;Callsign: BERT10&#xA;Hex: ae1480&#xA;Altitude: 22000 ft&#xA;Speed: 266.3 kts&#xA;Heading: 264.4&#xA;Source: adsb.one</description>
          <Point>
            <coordinates>-76.61705,36.744965,22000</coordinates>
          </Point>
        </Placemark>
        <Placemark>
          <name>POSSE89 (C-130 Hercules)</name>
          <description>Type: C-130 Hercules&#xA;Callsign: POSSE89&#xA;Hex: adfdd5&#xA;Altitude: 26000 ft&#xA;Speed: 0.0 kts&#xA;Heading: 0.0&#xA;Source: adsb.lol</description>
          <Point>
            <coordinates>0,0,26000</coordinates>
          </Point>
        </Placemark>
        <Placemark>
          <name>VAPOR81 (T-38 Talon)</name>
          <description>Type: T-38 Talon&#xA;Callsign: VAPOR81&#xA;Hex: ae0017&#xA;Altitude: 5575 ft&#xA;Speed: 336.2 kts&#xA;Heading: 99.1&#xA;Source: adsb.lol</description>
          <Point>
            <coordinates>-98.381341,36.197624,5575</coordinates>
          </Point>
        </Placemark>
        <Placemark>
          <name>BARKY12 (TEX2)</name>
          <description>Type: TEX2&#xA;Callsign: BARKY12&#xA;Hex: ae10f8&#xA;Altitude: 7925 ft&#xA;Speed: 269.3 kts&#xA;Heading: 357.4&#xA;Source: adsb.lol</description>
          <Point>
            <coordinates>-98.196249,33.569092,7925</coordinates>
          </Point>
        </Placemark>
        <Placemark>
          <name>QUESO29 (BE20)</name>
          <description>Type: BE20&#xA;Callsign: QUESO29&#xA;Hex: ae08f8&#xA;Altitude: 19975 ft&#xA;Speed: 234.5 kts&#xA;Heading: 273.7&#xA;Source: adsb.one</description>
          <Point>
            <coordinates>-91.816137,31.514786,19975</coordinates>
          </Point>
        </Placemark>
        <Placemark>
          <name>SH224 (TEX2)</name>
          <description>Type: TEX2&#xA;Callsign: SH224&#xA;Hex: ae54f2&#xA;Altitude: 3850 ft&#xA;Speed: 226.9 kts&#xA;Heading: 5.1&#xA;Source: adsb.lol</description>
          <Point>
            <coordinates>-88.392603,30.75705,3850</coordinates>
          </Point>
        </Placemark>
        <Placemark>
          <name>ae68a4 (P8 ?)</name>
          <description>Type: P8 ?&#xA;Hex: ae68a4&#xA;Altitude: 34000 ft&#xA;Speed: 416.9 kts&#xA;Heading: 214.2&#xA;Source: adsb.lol</description>
          <Point>
            <coordinates>-76.147526,37.628265,34000</coordinates>
          </Point>
        </Placemark>
        <Placemark>
          <name>LS30 (H-60 Black Hawk)</name>
          <description>Type: H-60 Black Hawk&#xA;Callsign: LS30&#xA;Hex: ae2762&#xA;Altitude: 0 ft&#xA;Speed: 4.8 kts&#xA;Heading: 161.6&#xA;Source: adsb.one</description>
          <Point>
            <coordinates>-117.207903,32.711689,0</coordinates>
          </Point>
        </Placemark>
        <Placemark>
          <name>MAUL3 (T-38 Talon)</name>
          <description>Type: T-38 Talon&#xA;Callsign: MAUL3&#xA;Hex: ae009b&#xA;Altitude: 5400 ft&#xA;Speed: 389.2 kts&#xA;Heading: 98.4&#xA;Source: adsb.lol</description>
          <Point>
            <coordinates>-98.783569,34.669081,5400</coordinates>
          </Point>
        </Placemark>
        <Placemark>
          <name>FANGS96 (TEX2)</name>
          <description>Type: TEX2&#xA;Callsign: FANGS96&#xA;Hex: ae1e54&#xA;Altitude: 1400 ft&#xA;Speed: 213.6 kts&#xA;Heading: 8.9&#xA;Source: adsb.lol</description>
          <Point>
            <coordinates>-98.338461,29.473618,1400</coordinates>
          </Point>
        </Placemark>
        <Placemark>
          <name>TOPCT26 (RC-135 Rivet Joint)</name>
          <description>Type: RC-135 Rivet Joint&#xA;Callsign: TOPCT26&#xA;Hex: ae1253&#xA;Altitude: 2150 ft&#xA;Speed: 177.0 kts&#xA;Heading: 52.8&#xA;Source: adsb.lol</description>
          <Point>
            <coordinates>-95.98645,41.151535,2150</coordinates>
          </Point>
        </Placemark>
        <Placemark>
          <name>ae0500 (KC-135 Stratotanker)</name>
          <description>Type: KC-135 Stratotanker&#xA;Hex: ae0500&#xA;Altitude: 150 ft&#xA;Speed: 0.0 kts&#xA;Heading: 0.0&#xA;Source: adsb.lol</description>
          <Point>
            <coordinates>0,0,150</coordinates>
          </Point>
        </Placemark>
        <Placemark>
          <name>TEST1234 (Unknown Type)</name>
          <description>Type: Unknown Type&#xA;Callsign: TEST1234&#xA;Hex: adf994&#xA;Altitude: 0 ft&#xA;Speed: 0.0 kts&#xA;Heading: 0.0&#xA;Source: adsb.lol</description>
          <Point>
            <coordinates>0,0,0</coordinates>
          </Point>
        </Placemark>
        <Placemark>
          <name>adf7e3 (Unknown Type)</name>
          <description>Type: Unknown Type&#xA;Hex: adf7e3&#xA;Altitude: 0 ft&#xA;Speed: 0.0 kts&#xA;Heading: 0.0&#xA;Source: adsb.one</description>
          <Point>
            <coordinates>0,0,0</coordinates>
          </Point>
        </Placemark>
        <Placemark>
          <name>ARCAS32 (T-38 Talon)</name>
          <description>Type: T-38 Talon&#xA;Callsign: ARCAS32&#xA;Hex: ae007b&#xA;Altitude: 5275 ft&#xA;Speed: 277.7 kts&#xA;Heading: 211.0&#xA;Source: adsb.lol</description>
          <Point>
            <coordinates>-99.576837,32.286026,5275</coordinates>
          </Point>
        </Placemark>
        <Placemark>
          <name>MAUL2 (T-38 Talon)</name>
          <description>Type: T-38 Talon&#xA;Callsign: MAUL2&#xA;Hex: ae00bd&#xA;Altitude: 5475 ft&#xA;Speed: 386.1 kts&#xA;Heading: 98.3&#xA;Source: adsb.lol</description>
          <Point>
            <coordinates>-98.764175,34.666489,5475</coordinates>
          </Point>
        </Placemark>
        <Placemark>
          <name>LYRE71 (TEX2)</name>
          <description>Type: TEX2&#xA;Callsign: LYRE71&#xA;Hex: ae1ea3&#xA;Altitude: 9825 ft&#xA;Speed: 201.8 kts&#xA;Heading: 198.8&#xA;Source: adsb.lol</description>
          <Point>
            <coordinates>-97.868429,28.970215,9825</coordinates>
          </Point>
        </Placemark>
        <Placemark>
          <name>VV1E638 (A119)</name>
          <description>Type: A119&#xA;Callsign: VV1E638&#xA;Hex: ae73da&#xA;Altitude: 650 ft&#xA;Speed: 67.0 kts&#xA;Heading: 85.4&#xA;Source: adsb.one</description>
          <Point>
            <coordinates>-86.94817,30.609833,650</coordinates>
          </Point>
        </Placemark>
        <Placemark>
          <name>ae4af3 (C30J)</name>
          <description>Type: C30J&#xA;Hex: ae4af3&#xA;Altitude: 1425 ft&#xA;Speed: 0.0 kts&#xA;Heading: 0.0&#xA;Source: adsb.one</description>
          <Point>
            <coordinates>0,0,1425</coordinates>
          </Point>
        </Placemark>
        <Placemark>
          <name>ae6801 (Unknown Type)</name>
          <description>Type: Unknown Type&#xA;Hex: ae6801&#xA;Altitude: 2850 ft&#xA;Speed: 0.0 kts&#xA;Heading: 0.0&#xA;Source: adsb.lol</description>
          <Point>
            <coordinates>0,0,2850</coordinates>
          </Point>
        </Placemark>
        <Placemark>
          <name>RRR4219 (A400M Atlas)</name>
          <description>Type: A400M Atlas&#xA;Callsign: RRR4219&#xA;Hex: 43c5ed&#xA;Altitude: 32225 ft&#xA;Speed: 420.0 kts&#xA;Heading: 103.3&#xA;Source: adsb.one</description>
          <Point>
            <coordinates>-32.043953,39.612122,32225</coordinates>
          </Point>
        </Placemark>
        <Placemark>
          <name>SNORT33 (T-38 Talon)</name>
          <description>Type: T-38 Talon&#xA;Callsign: SNORT33&#xA;Hex: ae0047&#xA;Altitude: 19075 ft&#xA;Speed: 435.3 kts&#xA;Heading: 215.4&#xA;Source: adsb.one</description>
          <Point>
            <coordinates>-98.852577,33.888958,19075</coordinates>
          </Point>
        </Placemark>
        <Placemark>
          <name>VV7E035 (A119)</name>
          <description>Type: A119&#xA;Callsign: VV7E035&#xA;Hex: ae7411&#xA;Altitude: 1475 ft&#xA;Speed: 113.2 kts&#xA;Heading: 215.7&#xA;Source: adsb.lol</description>
          <Point>
            <coordinates>-86.992924,30.595413,1475</coordinates>
          </Point>
        </Placemark>
        <Placemark>
          <name>GAF903 (A359)</name>
          <description>Type: A359&#xA;Callsign: GAF903&#xA;Hex: 3f5d91&#xA;Altitude: 43000 ft&#xA;Speed: 444.7 kts&#xA;Heading: 219.5&#xA;Source: adsb.one</description>
          <Point>
            <coordinates>-67.607891,47.663114,43000</coordinates>
          </Point>
        </Placemark>
        <Placemark>
          <name>c2b233 (P-3C Orion)</name>
          <description>Type: P-3C Orion&#xA;Hex: c2b233&#xA;Altitude: 1900 ft&#xA;Speed: 0.0 kts&#xA;Heading: 0.0&#xA;Source: adsb.one</description>
          <Point>
            <coordinates>0,0,1900</coordinates>
          </Point>
        </Placemark>
        <Placemark>
          <name>TEST1234 (Unknown Type)</name>
          <description>Type: Unknown Type&#xA;Callsign: TEST1234&#xA;Hex: adfbe2&#xA;Altitude: 0 ft&#xA;Speed: 0.0 kts&#xA;Heading: 0.0&#xA;Source: adsb.lol</description>
          <Point>
            <coordinates>0,0,0</coordinates>
          </Point>
        </Placemark>
        <Placemark>
          <name>WEIRD35 (EC45)</name>
          <description>Type: EC45&#xA;Callsign: WEIRD35&#xA;Hex: ae5a95&#xA;Altitude: 200 ft&#xA;Speed: 30.0 kts&#xA;Heading: 96.3&#xA;Source: adsb.one</description>
          <Point>
            <coordinates>-85.739723,31.151314,200</coordinates>
          </Point>
        </Placemark>
        <Placemark>
          <name>BOLT54 (C172)</name>
          <description>Type: C172&#xA;Callsign: BOLT54&#xA;Hex: aa7e89&#xA;Altitude: 9500 ft&#xA;Speed: 102.4 kts&#xA;Heading: 275.0&#xA;Source: adsb.lol</description>
          <Point>
            <coordinates>-104.423974,39.066788,9500</coordinates>
          </Point>
        </Placemark>
        <Placemark>
          <name>FANNY67 (TEX2)</name>
          <description>Type: TEX2&#xA;Callsign: FANNY67&#xA;Hex: ae1e44&#xA;Altitude: 9825 ft&#xA;Speed: 258.0 kts&#xA;Heading: 251.7&#xA;Source: adsb.one</description>
          <Point>
            <coordinates>-97.957225,29.095009,9825</coordinates>
          </Point>
        </Placemark>
        <Placemark>
          <name>SHOOT77 (T-38 Talon)</name>
          <description>Type: T-38 Talon&#xA;Callsign: SHOOT77&#xA;Hex: ae0019&#xA;Altitude: 6725 ft&#xA;Speed: 351.4 kts&#xA;Heading: 323.1&#xA;Source: adsb.lol</description>
          <Point>
            <coordinates>-97.402565,35.532299,6725</coordinates>
          </Point>
        </Placemark>
        <Placemark>
          <name>SQF961 (GL5T)</name>
          <description>Type: GL5T&#xA;Callsign: SQF961&#xA;Hex: 505fa1&#xA;Altitude: 44525 ft&#xA;Speed: 487.5 kts&#xA;Heading: 132.9&#xA;Source: adsb.lol</description>
          <Point>
            <coordinates>19.946242,47.017527,44525</coordinates>
          </Point>
        </Placemark>
        <Placemark>
          <name>ae5a38 (CH-47 Chinook)</name>
          <description>Type: CH-47 Chinook&#xA;Hex: ae5a38&#xA;Altitude: 850 ft&#xA;Speed: 0.0 kts&#xA;Heading: 0.0&#xA;Source: adsb.lol</description>
          <Point>
            <coordinates>0,0,850</coordinates>
          </Point>
        </Placemark>
        <Placemark>
          <name>LUNA305 (Unknown Type)</name>
          <description>Type: Unknown Type&#xA;Callsign: LUNA305&#xA;Hex: 3f7128&#xA;Altitude: 0 ft&#xA;Speed: 0.0 kts&#xA;Heading: 0.0&#xA;Source: adsb.lol</description>
          <Point>
            <coordinates>0,0,0</coordinates>
          </Point>
        </Placemark>
        <Placemark>
          <name>CATMAN4 (T-38 Talon)</name>
          <description>Type: T-38 Talon&#xA;Callsign: CATMAN4&#xA;Hex: adffb2&#xA;Altitude: 9975 ft&#xA;Speed: 359.3 kts&#xA;Heading: 24.5&#xA;Source: adsb.one</description>
          <Point>
            <coordinates>-98.713935,29.688503,9975</coordinates>
          </Point>
        </Placemark>
        <Placemark>
          <name>BALL52 (TEX2)</name>
          <description>Type: TEX2&#xA;Callsign: BALL52&#xA;Hex: ae141a&#xA;Altitude: 1725 ft&#xA;Speed: 137.0 kts&#xA;Heading: 0.0&#xA;Source: adsb.lol</description>
          <Point>
            <coordinates>-97.605812,35.349721,1725</coordinates>
          </Point>
        </Placemark>
        <Placemark>
          <name>RN208 (TEX2)</name>
          <description>Type: TEX2&#xA;Callsign: RN208&#xA;Hex: ae54e2&#xA;Altitude: 4300 ft&#xA;Speed: 237.0 kts&#xA;Heading: 354.7&#xA;Source: adsb.lol</description>
          <Point>
            <coordinates>-86.990985,30.858215,4300</coordinates>
          </Point>
        </Placemark>
        <Placemark>
          <name>R20873 (H-60 Black Hawk)</name>
          <description>Type: H-60 Black Hawk&#xA;Callsign: R20873&#xA;Hex: ae5d72&#xA;Altitude: 0 ft&#xA;Speed: 124.5 kts&#xA;Heading: 34.2&#xA;Source: adsb.one</description>
          <Point>
            <coordinates>0,0,0</coordinates>
          </Point>
        </Placemark>
        <Placemark>
          <name>CAPE38 (H-60 Black Hawk)</name>
          <description>Type: H-60 Black Hawk&#xA;Callsign: CAPE38&#xA;Hex: ae485c&#xA;Altitude: 0 ft&#xA;Speed: 98.0 kts&#xA;Heading: 57.9&#xA;Source: adsb.one</description>
          <Point>
            <coordinates>-85.767792,31.356936,0</coordinates>
          </Point>
        </Placemark>
        <Placemark>
          <name>PAT393 (BE20)</name>
          <description>Type: BE20&#xA;Callsign: PAT393&#xA;Hex: adfe91&#xA;Altitude: 14600 ft&#xA;Speed: 311.9 kts&#xA;Heading: 83.7&#xA;Source: airplanes.live</description>
          <Point>
            <coordinates>-118.606911,35.361511,14600</coordinates>
          </Point>
        </Placemark>
        <Placemark>
          <name>VOID03 (T-38 Talon)</name>
          <description>Type: T-38 Talon&#xA;Callsign: VOID03&#xA;Hex: ae007d&#xA;Altitude: 14700 ft&#xA;Speed: 406.0 kts&#xA;Heading: 223.8&#xA;Source: adsb.lol</description>
          <Point>
            <coordinates>-99.473511,33.200363,14700</coordinates>
          </Point>
        </Placemark>
        <Placemark>
          <name>BALL57 (TEX2)</name>
          <description>Type: TEX2&#xA;Callsign: BALL57&#xA;Hex: ae172a&#xA;Altitude: 5925 ft&#xA;Speed: 147.5 kts&#xA;Heading: 210.6&#xA;Source: adsb.lol</description>
          <Point>
            <coordinates>-97.581768,35.205921,5925</coordinates>
          </Point>
        </Placemark>
        <Placemark>
          <name>SH190 (TEX2)</name>
          <description>Type: TEX2&#xA;Callsign: SH190&#xA;Hex: ae4ea8&#xA;Altitude: 5625 ft&#xA;Speed: 181.1 kts&#xA;Heading: 357.8&#xA;Source: adsb.lol</description>
          <Point>
            <coordinates>-85.846234,30.962126,5625</coordinates>
          </Point>
        </Placemark>
        <Placemark>
          <name>RCH931 (C-17 Globemaster III)</name>
          <description>Type: C-17 Globemaster III&#xA;Callsign: RCH931&#xA;Hex: ae119b&#xA;Altitude: 32000 ft&#xA;Speed: 467.0 kts&#xA;Heading: 298.0&#xA;Source: adsb.lol</description>
          <Point>
            <coordinates>2.461689,53.140383,32000</coordinates>
          </Point>
        </Placemark>
        <Placemark>
          <name>HAWK200 (Unknown Type)</name>
          <description>Type: Unknown Type&#xA;Callsign: HAWK200&#xA;Hex: ae630a&#xA;Altitude: 3375 ft&#xA;Speed: 328.0 kts&#xA;Heading: 159.1&#xA;Source: adsb.one</description>
          <Point>
            <coordinates>-98.01162,27.813984,3375</coordinates>
          </Point>
        </Placemark>
        <Placemark>
          <name>MNTNA65 (BE9L)</name>
          <description>Type: BE9L&#xA;Callsign: MNTNA65&#xA;Hex: ae14ba&#xA;Altitude: 3700 ft&#xA;Speed: 152.0 kts&#xA;Heading: 78.3&#xA;Source: adsb.one</description>
          <Point>
            <coordinates>-97.890305,27.816422,3700</coordinates>
          </Point>
        </Placemark>
        <Placemark>
          <name>REY00 (BE20)</name>
          <description>Type: BE20&#xA;Callsign: REY00&#xA;Hex: ae06db&#xA;Altitude: 16125 ft&#xA;Speed: 223.1 kts&#xA;Heading: 283.5&#xA;Source: adsb.lol</description>
          <Point>
            <coordinates>-116.680792,33.037262,16125</coordinates>
          </Point>
        </Placemark>
        <Placemark>
          <name>GAFTT07 (Unknown Type)</name>
          <description>Type: Unknown Type&#xA;Callsign: GAFTT07&#xA;Hex: 3ea3b0&#xA;Altitude: 62700 ft&#xA;Speed: 0.0 kts&#xA;Heading: 0.0&#xA;Source: adsb.one</description>
          <Point>
            <coordinates>0,0,62700</coordinates>
          </Point>
        </Placemark>
        <Placemark>
          <name>TOTES70 (EC45)</name>
          <description>Type: EC45&#xA;Callsign: TOTES70&#xA;Hex: ae1f7e&#xA;Altitude: 1375 ft&#xA;Speed: 84.0 kts&#xA;Heading: 50.7&#xA;Source: adsb.one</description>
          <Point>
            <coordinates>-86.014603,31.216003,1375</coordinates>
          </Point>
        </Placemark>
        <Placemark>
          <name>SLASH21 (TEX2)</name>
          <description>Type: TEX2&#xA;Callsign: SLASH21&#xA;Hex: ae13c8&#xA;Altitude: 2825 ft&#xA;Speed: 193.8 kts&#xA;Heading: 45.4&#xA;Source: adsb.one</description>
          <Point>
            <coordinates>-90.17225,32.410925,2825</coordinates>
          </Point>
        </Placemark>
        <Placemark>
          <name>BB094 (TEX2)</name>
          <description>Type: TEX2&#xA;Callsign: BB094&#xA;Hex: ae2edb&#xA;Altitude: 9475 ft&#xA;Speed: 156.9 kts&#xA;Heading: 191.0&#xA;Source: adsb.lol</description>
          <Point>
            <coordinates>-86.512665,30.974137,9475</coordinates>
          </Point>
        </Placemark>
        <Placemark>
          <name>TACO19 (C30J)</name>
          <description>Type: C30J&#xA;Callsign: TACO19&#xA;Hex: ae596d&#xA;Altitude: 20025 ft&#xA;Speed: 282.8 kts&#xA;Heading: 305.9&#xA;Source: adsb.lol</description>
          <Point>
            <coordinates>-83.460864,29.546814,20025</coordinates>
          </Point>
        </Placemark>
        <Placemark>
          <name>ae015e (KC-135 Stratotanker)</name>
          <description>Type: KC-135 Stratotanker&#xA;Hex: ae015e&#xA;Altitude: 21950 ft&#xA;Speed: 446.0 kts&#xA;Heading: 75.0&#xA;Source: adsb.lol</description>
          <Point>
            <coordinates>-82.32944,43.033198,21950</coordinates>
          </Point>
        </Placemark>
        <Placemark>
          <name>MOOSE50 (C-17 Globemaster III)</name>
          <description>Type: C-17 Globemaster III&#xA;Callsign: MOOSE50&#xA;Hex: ae07e9&#xA;Altitude: 3225 ft&#xA;Speed: 257.3 kts&#xA;Heading: 284.6&#xA;Source: adsb.lol</description>
          <Point>
            <coordinates>7.408471,49.45546,3225</coordinates>
          </Point>
        </Placemark>
        <Placemark>
          <name>STACK72 (T-38 Talon)</name>
          <description>Type: T-38 Talon&#xA;Callsign: STACK72&#xA;Hex: ae0044&#xA;Altitude: 6300 ft&#xA;Speed: 360.2 kts&#xA;Heading: 1.9&#xA;Source: adsb.lol</description>
          <Point>
            <coordinates>0,0,6300</coordinates>
          </Point>
        </Placemark>
        <Placemark>
          <name>TEST1234 (Unknown Type)</name>
          <description>Type: Unknown Type&#xA;Callsign: TEST1234&#xA;Hex: adf995&#xA;Altitude: 0 ft&#xA;Speed: 0.0 kts&#xA;Heading: 0.0&#xA;Source: adsb.lol</description>
          <Point>
            <coordinates>0,0,0</coordinates>
          </Point>
        </Placemark>
        <Placemark>
          <name>RCH460 (C-17 Globemaster III)</name>
          <description>Type: C-17 Globemaster III&#xA;Callsign: RCH460&#xA;Hex: ae07f4&#xA;Altitude: 35000 ft&#xA;Speed: 0.0 kts&#xA;Heading: 0.0&#xA;Source: adsb.one</description>
          <Point>
            <coordinates>0,0,35000</coordinates>
          </Point>
        </Placemark>
        <Placemark>
          <name>RUDY24 (V-22 Osprey)</name>
          <description>Type: V-22 Osprey&#xA;Callsign: RUDY24&#xA;Hex: ae6ba7&#xA;Altitude: 1400 ft&#xA;Speed: 214.4 kts&#xA;Heading: 104.0&#xA;Source: adsb.lol</description>
          <Point>
            <coordinates>-117.915811,32.84428,1400</coordinates>
          </Point>
        </Placemark>
        <Placemark>
          <name>AXEL21 (GLEX)</name>
          <description>Type: GLEX&#xA;Callsign: AXEL21&#xA;Hex: a1bbe5&#xA;Altitude: 41000 ft&#xA;Speed: 435.3 kts&#xA;Heading: 322.0&#xA;Source: adsb.lol</description>
          <Point>
            <coordinates>-107.849028,33.321021,41000</coordinates>
          </Point>
        </Placemark>
        <Placemark>
          <name>ae05af (KC-135 Stratotanker)</name>
          <description>Type: KC-135 Stratotanker&#xA;Hex: ae05af&#xA;Altitude: 23825 ft&#xA;Speed: 439.0 kts&#xA;Heading: 51.0&#xA;Source: adsb.lol</description>
          <Point>
            <coordinates>-94.387739,38.897349,23825</coordinates>
          </Point>
        </Placemark>
        <Placemark>
          <name>ae04e6 (KC-135 Stratotanker)</name>
          <description>Type: KC-135 Stratotanker&#xA;Hex: ae04e6&#xA;Altitude: 33000 ft&#xA;Speed: 479.0 kts&#xA;Heading: 134.0&#xA;Source: airplanes.live</description>
          <Point>
            <coordinates>-5.963092,55.377873,33000</coordinates>
          </Point>
        </Placemark>
        <Placemark>
          <name>TEST1234 (Unknown Type)</name>
          <description>Type: Unknown Type&#xA;Callsign: TEST1234&#xA;Hex: adf992&#xA;Altitude: 0 ft&#xA;Speed: 0.0 kts&#xA;Heading: 0.0&#xA;Source: adsb.one</description>
          <Point>
            <coordinates>0,0,0</coordinates>
          </Point>
        </Placemark>
        <Placemark>
          <name>RCH703 (C-17 Globemaster III)</name>
          <description>Type: C-17 Globemaster III&#xA;Callsign: RCH703&#xA;Hex: ae1453&#xA;Altitude: 31000 ft&#xA;Speed: 486.0 kts&#xA;Heading: 142.7&#xA;Source: adsb.lol</description>
          <Point>
            <coordinates>0,0,31000</coordinates>
          </Point>
        </Placemark>
        <Placemark>
          <name>EJC1108 (AC90)</name>
          <description>Type: AC90&#xA;Callsign: EJC1108&#xA;Hex: 0aca88&#xA;Altitude: 21000 ft&#xA;Speed: 250.0 kts&#xA;Heading: 29.3&#xA;Source: adsb.one</description>
          <Point>
            <coordinates>-73.261353,6.582321,21000</coordinates>
          </Point>
        </Placemark>
        <Placemark>
          <name>C6054 (H-60 Black Hawk)</name>
          <description>Type: H-60 Black Hawk&#xA;Callsign: C6054&#xA;Hex: ae6ce8&#xA;Altitude: 275 ft&#xA;Speed: 85.5 kts&#xA;Heading: 155.8&#xA;Source: adsb.one</description>
          <Point>
            <coordinates>-67.219945,18.07782,275</coordinates>
          </Point>
        </Placemark>
        <Placemark>
          <name>DEVIL73 (TEX2)</name>
          <description>Type: TEX2&#xA;Callsign: DEVIL73&#xA;Hex: ae1117&#xA;Altitude: 2250 ft&#xA;Speed: 113.3 kts&#xA;Heading: 137.9&#xA;Source: adsb.lol</description>
          <Point>
            <coordinates>-100.845714,29.419571,2250</coordinates>
          </Point>
        </Placemark>
        <Placemark>
          <name>BLADE33 (TEX2)</name>
          <description>Type: TEX2&#xA;Callsign: BLADE33&#xA;Hex: ae173c&#xA;Altitude: 14325 ft&#xA;Speed: 262.9 kts&#xA;Heading: 141.9&#xA;Source: adsb.lol</description>
          <Point>
            <coordinates>-98.898926,34.422775,14325</coordinates>
          </Point>
        </Placemark>
        <Placemark>
          <name>0d08b5 (C-295)</name>
          <description>Type: C-295&#xA;Hex: 0d08b5&#xA;Altitude: 0 ft&#xA;Speed: 0.0 kts&#xA;Heading: 0.0&#xA;Source: adsb.one</description>
          <Point>
            <coordinates>0,0,0</coordinates>
          </Point>
        </Placemark>
        <Placemark>
          <name>APLO17 (TEX2)</name>
          <description>Type: TEX2&#xA;Callsign: APLO17&#xA;Hex: c2b0c1&#xA;Altitude: 15975 ft&#xA;Speed: 268.0 kts&#xA;Heading: 103.2&#xA;Source: adsb.one</description>
          <Point>
            <coordinates>-105.690139,49.930481,15975</coordinates>
          </Point>
        </Placemark>
        <Placemark>
          <name>BOLT55 (C172)</name>
          <description>Type: C172&#xA;Callsign: BOLT55&#xA;Hex: aa7eac&#xA;Altitude: 9525 ft&#xA;Speed: 101.5 kts&#xA;Heading: 230.2&#xA;Source: adsb.lol</description>
          <Point>
            <coordinates>-104.306886,39.190704,9525</coordinates>
          </Point>
        </Placemark>
        <Placemark>
          <name>TAHOE51 (TEX2)</name>
          <description>Type: TEX2&#xA;Callsign: TAHOE51&#xA;Hex: ae110f&#xA;Altitude: 8900 ft&#xA;Speed: 236.5 kts&#xA;Heading: 18.7&#xA;Source: adsb.one</description>
          <Point>
            <coordinates>-97.871704,29.223586,8900</coordinates>
          </Point>
        </Placemark>
        <Placemark>
          <name>PAT979 (SW4)</name>
          <description>Type: SW4&#xA;Callsign: PAT979&#xA;Hex: adfd80&#xA;Altitude: 2875 ft&#xA;Speed: 194.5 kts&#xA;Heading: 226.0&#xA;Source: adsb.one</description>
          <Point>
            <coordinates>-97.77105,30.081573,2875</coordinates>
          </Point>
        </Placemark>
        <Placemark>
          <name>FFAB123 (H-60 Black Hawk)</name>
          <description>Type: H-60 Black Hawk&#xA;Callsign: FFAB123&#xA;Hex: ae4fc2&#xA;Altitude: 525 ft&#xA;Speed: 94.9 kts&#xA;Heading: 262.1&#xA;Source: adsb.one</description>
          <Point>
            <coordinates>-81.504382,30.391722,525</coordinates>
          </Point>
        </Placemark>
        <Placemark>
          <name>FOXX373 (BE20)</name>
          <description>Type: BE20&#xA;Callsign: FOXX373&#xA;Hex: ae06e4&#xA;Altitude: 22000 ft&#xA;Speed: 243.8 kts&#xA;Heading: 208.1&#xA;Source: adsb.one</description>
          <Point>
            <coordinates>-75.362671,38.58985,22000</coordinates>
          </Point>
        </Placemark>
        <Placemark>
          <name>TROJ16 (C30J)</name>
          <description>Type: C30J&#xA;Callsign: TROJ16&#xA;Hex: 7cf830&#xA;Altitude: 1800 ft&#xA;Speed: 179.8 kts&#xA;Heading: 354.6&#xA;Source: adsb.lol</description>
          <Point>
            <coordinates>152.692808,-27.686874,1800</coordinates>
          </Point>
        </Placemark>
        <Placemark>
          <name>RNGR730 (TEX2)</name>
          <description>Type: TEX2&#xA;Callsign: RNGR730&#xA;Hex: ae58ee&#xA;Altitude: 1525 ft&#xA;Speed: 165.0 kts&#xA;Heading: 313.1&#xA;Source: adsb.one</description>
          <Point>
            <coordinates>-97.282928,27.707241,1525</coordinates>
          </Point>
        </Placemark>
        <Placemark>
          <name>SCRCH54 (V-22 Osprey)</name>
          <description>Type: V-22 Osprey&#xA;Callsign: SCRCH54&#xA;Hex: ae6ba8&#xA;Altitude: 0 ft&#xA;Speed: 0.0 kts&#xA;Heading: 0.0&#xA;Source: adsb.one</description>
          <Point>
            <coordinates>-117.216815,32.704113,0</coordinates>
          </Point>
        </Placemark>
        <Placemark>
          <name>FFAB123 (H-60 Black Hawk)</name>
          <description>Type: H-60 Black Hawk&#xA;Callsign: FFAB123&#xA;Hex: af4f2f&#xA;Altitude: -75 ft&#xA;Speed: 1.2 kts&#xA;Heading: 0.0&#xA;Source: adsb.one</description>
          <Point>
            <coordinates>-117.210553,32.706024,-75</coordinates>
          </Point>
        </Placemark>
        <Placemark>
          <name>RCH227 (C-17 Globemaster III)</name>
          <description>Type: C-17 Globemaster III&#xA;Callsign: RCH227&#xA;Hex: ae1468&#xA;Altitude: 35000 ft&#xA;Speed: 522.5 kts&#xA;Heading: 73.9&#xA;Source: adsb.one</description>
          <Point>
            <coordinates>-103.227539,38.619003,35000</coordinates>
          </Point>
        </Placemark>
        <Placemark>
          <name>ae0583 (C-5M Super Galaxy)</name>
          <description>Type: C-5M Super Galaxy&#xA;Hex: ae0583&#xA;Altitude: 1225 ft&#xA;Speed: 0.0 kts&#xA;Heading: 0.0&#xA;Source: adsb.lol</description>
          <Point>
            <coordinates>0,0,1225</coordinates>
          </Point>
        </Placemark>
        <Placemark>
          <name>MNTNA71 (BE9L)</name>
          <description>Type: BE9L&#xA;Callsign: MNTNA71&#xA;Hex: ae1477&#xA;Altitude: 3150 ft&#xA;Speed: 164.0 kts&#xA;Heading: 32.3&#xA;Source: adsb.one</description>
          <Point>
            <coordinates>-97.269569,27.77409,3150</coordinates>
          </Point>
        </Placemark>
        <Placemark>
          <name>SPUD04 (H-60 Black Hawk)</name>
          <description>Type: H-60 Black Hawk&#xA;Callsign: SPUD04&#xA;Hex: ae50bc&#xA;Altitude: 825 ft&#xA;Speed: 109.0 kts&#xA;Heading: 34.3&#xA;Source: adsb.one</description>
          <Point>
            <coordinates>-86.047775,31.301119,825</coordinates>
          </Point>
        </Placemark>
        <Placemark>
          <name>PAIN81 (TEX2)</name>
          <description>Type: TEX2&#xA;Callsign: PAIN81&#xA;Hex: ae08a1&#xA;Altitude: 9475 ft&#xA;Speed: 173.8 kts&#xA;Heading: 275.6&#xA;Source: adsb.lol</description>
          <Point>
            <coordinates>-100.418593,29.060095,9475</coordinates>
          </Point>
        </Placemark>
        <Placemark>
          <name>BLZR238 (HAWK)</name>
          <description>Type: HAWK&#xA;Callsign: BLZR238&#xA;Hex: ae627e&#xA;Altitude: 0 ft&#xA;Speed: 301.9 kts&#xA;Heading: 12.2&#xA;Source: adsb.lol</description>
          <Point>
            <coordinates>-98.21057,26.6586,0</coordinates>
          </Point>
        </Placemark>
        <Placemark>
          <name>ae6834 (Unknown Type)</name>
          <description>Type: Unknown Type&#xA;Hex: ae6834&#xA;Altitude: 34975 ft&#xA;Speed: 442.5 kts&#xA;Heading: 98.2&#xA;Source: adsb.one</description>
          <Point>
            <coordinates>-91.184766,31.9048,34975</coordinates>
          </Point>
        </Placemark>
        <Placemark>
          <name>VV1E018 (A119)</name>
          <description>Type: A119&#xA;Callsign: VV1E018&#xA;Hex: ae73ea&#xA;Altitude: 2750 ft&#xA;Speed: 86.3 kts&#xA;Heading: 302.2&#xA;Source: adsb.one</description>
          <Point>
            <coordinates>-87.076829,30.680649,2750</coordinates>
          </Point>
        </Placemark>
        <Placemark>
          <name>WGTL14 (E737)</name>
          <description>Type: E737&#xA;Callsign: WGTL14&#xA;Hex: 7cf8f0&#xA;Altitude: 31000 ft&#xA;Speed: 440.9 kts&#xA;Heading: 356.4&#xA;Source: adsb.lol</description>
          <Point>
            <coordinates>152.551575,-30.509628,31000</coordinates>
          </Point>
        </Placemark>
        <Placemark>
          <name>ae013a (KC-135 Stratotanker)</name>
          <description>Type: KC-135 Stratotanker&#xA;Hex: ae013a&#xA;Altitude: 0 ft&#xA;Speed: 0.0 kts&#xA;Heading: 0.0&#xA;Source: adsb.one</description>
          <Point>
            <coordinates>0,0,0</coordinates>
          </Point>
        </Placemark>
        <Placemark>
          <name>G9526652 (H-60 Black Hawk)</name>
          <description>Type: H-60 Black Hawk&#xA;Callsign: G9526652&#xA;Hex: ae0e3d&#xA;Altitude: 4000 ft&#xA;Speed: 0.0 kts&#xA;Heading: 0.0&#xA;Source: adsb.lol</description>
          <Point>
            <coordinates>0,0,4000</coordinates>
          </Point>
        </Placemark>
        <Placemark>
          <name>KATT23 (TEX2)</name>
          <description>Type: TEX2&#xA;Callsign: KATT23&#xA;Hex: ae113e&#xA;Altitude: 350 ft&#xA;Speed: 113.7 kts&#xA;Heading: 68.8&#xA;Source: adsb.one</description>
          <Point>
            <coordinates>-87.355865,30.341631,350</coordinates>
          </Point>
        </Placemark>
        <Placemark>
          <name>DUKE32 (Unknown Type)</name>
          <description>Type: Unknown Type&#xA;Callsign: DUKE32&#xA;Hex: ae2216&#xA;Altitude: 1800 ft&#xA;Speed: 88.0 kts&#xA;Heading: 250.0&#xA;Source: adsb.one</description>
          <Point>
            <coordinates>-117.467571,33.264539,1800</coordinates>
          </Point>
        </Placemark>
        <Placemark>
          <name>MAUL4 (T-38 Talon)</name>
          <description>Type: T-38 Talon&#xA;Callsign: MAUL4&#xA;Hex: ae00cc&#xA;Altitude: 5275 ft&#xA;Speed: 334.5 kts&#xA;Heading: 203.8&#xA;Source: adsb.lol</description>
          <Point>
            <coordinates>-98.811932,34.685028,5275</coordinates>
          </Point>
        </Placemark>
        <Placemark>
          <name>BGST413 (BE20)</name>
          <description>Type: BE20&#xA;Callsign: BGST413&#xA;Hex: afa195&#xA;Altitude: 27025 ft&#xA;Speed: 250.5 kts&#xA;Heading: 161.8&#xA;Source: adsb.one</description>
          <Point>
            <coordinates>-97.285369,37.043571,27025</coordinates>
          </Point>
        </Placemark>
        <Placemark>
          <name>PAT841 (BE20)</name>
          <description>Type: BE20&#xA;Callsign: PAT841&#xA;Hex: ae08fa&#xA;Altitude: 2325 ft&#xA;Speed: 152.1 kts&#xA;Heading: 332.6&#xA;Source: adsb.lol</description>
          <Point>
            <coordinates>-71.536233,43.246331,2325</coordinates>
          </Point>
        </Placemark>
        <Placemark>
          <name>TEST1234 (Unknown Type)</name>
          <description>Type: Unknown Type&#xA;Callsign: TEST1234&#xA;Hex: adf993&#xA;Altitude: 0 ft&#xA;Speed: 0.0 kts&#xA;Heading: 0.0&#xA;Source: adsb.lol</description>
          <Point>
            <coordinates>0,0,0</coordinates>
          </Point>
        </Placemark>
        <Placemark>
          <name>RCH199 (C-17 Globemaster III)</name>
          <description>Type: C-17 Globemaster III&#xA;Callsign: RCH199&#xA;Hex: ae49c7&#xA;Altitude: 30000 ft&#xA;Speed: 0.0 kts&#xA;Heading: 0.0&#xA;Source: adsb.lol</description>
          <Point>
            <coordinates>0,0,30000</coordinates>
          </Point>
        </Placemark>
        <Placemark>
          <name>RN204 (TEX2)</name>
          <description>Type: TEX2&#xA;Callsign: RN204&#xA;Hex: ae54de&#xA;Altitude: 1500 ft&#xA;Speed: 122.0 kts&#xA;Heading: 309.1&#xA;Source: adsb.one</description>
          <Point>
            <coordinates>-87.123199,30.813034,1500</coordinates>
          </Point>
        </Placemark>
        <Placemark>
          <name>VV7E012 (Unknown Type)</name>
          <description>Type: Unknown Type&#xA;Callsign: VV7E012&#xA;Hex: ae6d55&#xA;Altitude: 1775 ft&#xA;Speed: 76.0 kts&#xA;Heading: 151.9&#xA;Source: adsb.one</description>
          <Point>
            <coordinates>-86.792534,30.978241,1775</coordinates>
          </Point>
        </Placemark>
        <Placemark>
          <name>NORTH48 (BE20)</name>
          <description>Type: BE20&#xA;Callsign: NORTH48&#xA;Hex: ae04fa&#xA;Altitude: 5575 ft&#xA;Speed: 206.8 kts&#xA;Heading: 306.1&#xA;Source: adsb.one</description>
          <Point>
            <coordinates>-149.201355,61.446533,5575</coordinates>
          </Point>
        </Placemark>
        <Placemark>
          <name>R26498 (H-60 Black Hawk)</name>
          <description>Type: H-60 Black Hawk&#xA;Callsign: R26498&#xA;Hex: ae0c0b&#xA;Altitude: 1000 ft&#xA;Speed: 94.1 kts&#xA;Heading: 267.6&#xA;Source: adsb.lol</description>
          <Point>
            <coordinates>-147.643835,64.833939,1000</coordinates>
          </Point>
        </Placemark>
        <Placemark>
          <name>MAKO10 (H-60 Black Hawk)</name>
          <description>Type: H-60 Black Hawk&#xA;Callsign: MAKO10&#xA;Hex: ae6031&#xA;Altitude: 6875 ft&#xA;Speed: 130.3 kts&#xA;Heading: 28.9&#xA;Source: adsb.lol</description>
          <Point>
            <coordinates>-120.261326,35.969696,6875</coordinates>
          </Point>
        </Placemark>
        <Placemark>
          <name>RN163 (TEX2)</name>
          <description>Type: TEX2&#xA;Callsign: RN163&#xA;Hex: ae4a2c&#xA;Altitude: 3775 ft&#xA;Speed: 159.3 kts&#xA;Heading: 35.3&#xA;Source: airplanes.live</description>
          <Point>
            <coordinates>-86.592623,31.021545,3775</coordinates>
          </Point>
        </Placemark>
        <Placemark>
          <name>RAIDR72 (C30J)</name>
          <description>Type: C30J&#xA;Callsign: RAIDR72&#xA;Hex: ae2f99&#xA;Altitude: 21000 ft&#xA;Speed: 333.6 kts&#xA;Heading: 98.5&#xA;Source: adsb.lol</description>
          <Point>
            <coordinates>-83.998886,34.031525,21000</coordinates>
          </Point>
        </Placemark>
        <Placemark>
          <name>ae05ad (KC-135 Stratotanker)</name>
          <description>Type: KC-135 Stratotanker&#xA;Hex: ae05ad&#xA;Altitude: 38000 ft&#xA;Speed: 0.0 kts&#xA;Heading: 0.0&#xA;Source: adsb.lol</description>
          <Point>
            <coordinates>0,0,38000</coordinates>
          </Point>
        </Placemark>
        <Placemark>
          <name>R43532 (AH-64 Apache)</name>
          <description>Type: AH-64 Apache&#xA;Callsign: R43532&#xA;Hex: af09ce&#xA;Altitude: 4800 ft&#xA;Speed: 95.0 kts&#xA;Heading: 248.2&#xA;Source: adsb.one</description>
          <Point>
            <coordinates>-105.921219,31.624657,4800</coordinates>
          </Point>
        </Placemark>
        <Placemark>
          <name>RN116 (TEX2)</name>
          <description>Type: TEX2&#xA;Callsign: RN116&#xA;Hex: ae2ef1&#xA;Altitude: 300 ft&#xA;Speed: 105.9 kts&#xA;Heading: 202.2&#xA;Source: adsb.one</description>
          <Point>
            <coordinates>-87.34454,31.468094,300</coordinates>
          </Point>
        </Placemark>
        <Placemark>
          <name>TIGER20 (TEX2)</name>
          <description>Type: TEX2&#xA;Callsign: TIGER20&#xA;Hex: ae1e94&#xA;Altitude: 1350 ft&#xA;Speed: 122.8 kts&#xA;Heading: 99.8&#xA;Source: adsb.one</description>
          <Point>
            <coordinates>-100.489883,29.131027,1350</coordinates>
          </Point>
        </Placemark>
        <Placemark>
          <name>BLZR208 (Unknown Type)</name>
          <description>Type: Unknown Type&#xA;Callsign: BLZR208&#xA;Hex: ae6265&#xA;Altitude: 0 ft&#xA;Speed: 437.6 kts&#xA;Heading: 125.3&#xA;Source: adsb.one</description>
          <Point>
            <coordinates>-98.368028,28.147531,0</coordinates>
          </Point>
        </Placemark>
        <Placemark>
          <name>HAWK226 (Unknown Type)</name>
          <description>Type: Unknown Type&#xA;Callsign: HAWK226&#xA;Hex: ae6276&#xA;Altitude: 12200 ft&#xA;Speed: 361.1 kts&#xA;Heading: 358.6&#xA;Source: adsb.one</description>
          <Point>
            <coordinates>-98.210696,27.506088,12200</coordinates>
          </Point>
        </Placemark>
        <Placemark>
          <name>C6050 (Unknown Type)</name>
          <description>Type: Unknown Type&#xA;Callsign: C6050&#xA;Hex: ae4e02&#xA;Altitude: 0 ft&#xA;Speed: 74.5 kts&#xA;Heading: 6.9&#xA;Source: adsb.one</description>
          <Point>
            <coordinates>-70.71812,41.947952,0</coordinates>
          </Point>
        </Placemark>
        <Placemark>
          <name>RCH549 (C-17 Globemaster III)</name>
          <description>Type: C-17 Globemaster III&#xA;Callsign: RCH549&#xA;Hex: ae123d&#xA;Altitude: 28000 ft&#xA;Speed: 0.0 kts&#xA;Heading: 0.0&#xA;Source: adsb.one</description>
          <Point>
            <coordinates>0,0,28000</coordinates>
          </Point>
        </Placemark>
        <Placemark>
          <name>ae5975 (AH-64 Apache)</name>
          <description>Type: AH-64 Apache&#xA;Hex: ae5975&#xA;Altitude: 2300 ft&#xA;Speed: 0.0 kts&#xA;Heading: 0.0&#xA;Source: adsb.lol</description>
          <Point>
            <coordinates>0,0,2300</coordinates>
          </Point>
        </Placemark>
        <Placemark>
          <name>BB021 (TEX2)</name>
          <description>Type: TEX2&#xA;Callsign: BB021&#xA;Hex: ae1e73&#xA;Altitude: 4250 ft&#xA;Speed: 252.1 kts&#xA;Heading: 185.5&#xA;Source: adsb.one</description>
          <Point>
            <coordinates>-86.926794,31.27775,4250</coordinates>
          </Point>
        </Placemark>
        <Placemark>
          <name>TOTES59 (EC45)</name>
          <description>Type: EC45&#xA;Callsign: TOTES59&#xA;Hex: ae1f4c&#xA;Altitude: 700 ft&#xA;Speed: 69.0 kts&#xA;Heading: 152.7&#xA;Source: adsb.one</description>
          <Point>
            <coordinates>-85.868118,31.371643,700</coordinates>
          </Point>
        </Placemark>
        <Placemark>
          <name>RN110 (TEX2)</name>
          <description>Type: TEX2&#xA;Callsign: RN110&#xA;Hex: ae2eeb&#xA;Altitude: 6375 ft&#xA;Speed: 208.4 kts&#xA;Heading: 273.6&#xA;Source: adsb.lol</description>
          <Point>
            <coordinates>-89.18378,30.548721,6375</coordinates>
          </Point>
        </Placemark>
        <Placemark>
          <name>BELLS75 (EC45)</name>
          <description>Type: EC45&#xA;Callsign: BELLS75&#xA;Hex: ae5a94&#xA;Altitude: 2200 ft&#xA;Speed: 100.7 kts&#xA;Heading: 325.5&#xA;Source: adsb.one</description>
          <Point>
            <coordinates>-85.883862,31.123337,2200</coordinates>
          </Point>
        </Placemark>
        <Placemark>
          <name>7cfa35 (B350)</name>
          <description>Type: B350&#xA;Hex: 7cfa35&#xA;Altitude: 0 ft&#xA;Speed: 0.0 kts&#xA;Heading: 0.0&#xA;Source: adsb.lol</description>
          <Point>
            <coordinates>0,0,0</coordinates>
          </Point>
        </Placemark>
        <Placemark>
          <name>TEST1234 (Unknown Type)</name>
          <description>Type: Unknown Type&#xA;Callsign: TEST1234&#xA;Hex: adf997&#xA;Altitude: 0 ft&#xA;Speed: 0.0 kts&#xA;Heading: 0.0&#xA;Source: adsb.one</description>
          <Point>
            <coordinates>0,0,0</coordinates>
          </Point>
        </Placemark>
        <Placemark>
          <name>HAWK245 (HAWK)</name>
          <description>Type: HAWK&#xA;Callsign: HAWK245&#xA;Hex: ae6313&#xA;Altitude: 12375 ft&#xA;Speed: 229.1 kts&#xA;Heading: 231.4&#xA;Source: adsb.one</description>
          <Point>
            <coordinates>-98.56576,27.456985,12375</coordinates>
          </Point>
        </Placemark>
        <Placemark>
          <name>VV8E030 (A119)</name>
          <description>Type: A119&#xA;Callsign: VV8E030&#xA;Hex: ae73f6&#xA;Altitude: 350 ft&#xA;Speed: 118.9 kts&#xA;Heading: 42.3&#xA;Source: adsb.lol</description>
          <Point>
            <coordinates>-87.929352,30.76102,350</coordinates>
          </Point>
        </Placemark>
        <Placemark>
          <name>e400ce (Unknown Type)</name>
          <description>Type: Unknown Type&#xA;Hex: e400ce&#xA;Altitude: 0 ft&#xA;Speed: 0.0 kts&#xA;Heading: 0.0&#xA;Source: adsb.lol</description>
          <Point>
            <coordinates>0,0,0</coordinates>
          </Point>
        </Placemark>
        <Placemark>
          <name>SNAK503 (C-295)</name>
          <description>Type: C-295&#xA;Callsign: SNAK503&#xA;Hex: c2bcc9&#xA;Altitude: 3025 ft&#xA;Speed: 144.8 kts&#xA;Heading: 127.4&#xA;Source: adsb.one</description>
          <Point>
            <coordinates>-124.91007,49.695419,3025</coordinates>
          </Point>
        </Placemark>
        <Placemark>
          <name>CATMAN3 (T-38 Talon)</name>
          <description>Type: T-38 Talon&#xA;Callsign: CATMAN3&#xA;Hex: ae00f2&#xA;Altitude: 11500 ft&#xA;Speed: 490.9 kts&#xA;Heading: 70.2&#xA;Source: adsb.one</description>
          <Point>
            <coordinates>-98.677476,29.412309,11500</coordinates>
          </Point>
        </Placemark>
        <Placemark>
          <name>BOBCT21 (Unknown Type)</name>
          <description>Type: Unknown Type&#xA;Callsign: BOBCT21&#xA;Hex: ae6314&#xA;Altitude: 18250 ft&#xA;Speed: 162.3 kts&#xA;Heading: 305.0&#xA;Source: adsb.one</description>
          <Point>
            <coordinates>-88.684051,33.224751,18250</coordinates>
          </Point>
        </Placemark>
        <Placemark>
          <name>MESSY21 (EC45)</name>
          <description>Type: EC45&#xA;Callsign: MESSY21&#xA;Hex: ae5a80&#xA;Altitude: 800 ft&#xA;Speed: 102.7 kts&#xA;Heading: 292.3&#xA;Source: adsb.one</description>
          <Point>
            <coordinates>-85.691217,31.288411,800</coordinates>
          </Point>
        </Placemark>
        <Placemark>
          <name>FORGE78 (GLF5)</name>
          <description>Type: GLF5&#xA;Callsign: FORGE78&#xA;Hex: ae13d1&#xA;Altitude: 18000 ft&#xA;Speed: 386.8 kts&#xA;Heading: 198.9&#xA;Source: adsb.lol</description>
          <Point>
            <coordinates>-76.18988,40.365829,18000</coordinates>
          </Point>
        </Placemark>
        <Placemark>
          <name>ae05a0 (KC-135 Stratotanker)</name>
          <description>Type: KC-135 Stratotanker&#xA;Hex: ae05a0&#xA;Altitude: 31000 ft&#xA;Speed: 558.0 kts&#xA;Heading: 81.0&#xA;Source: adsb.lol</description>
          <Point>
            <coordinates>-74.248247,44.241757,31000</coordinates>
          </Point>
        </Placemark>
        <Placemark>
          <name>AAC319 (AH-64 Apache)</name>
          <description>Type: AH-64 Apache&#xA;Callsign: AAC319&#xA;Hex: 43c94c&#xA;Altitude: 0 ft&#xA;Speed: 0.0 kts&#xA;Heading: 0.0&#xA;Source: adsb.one</description>
          <Point>
            <coordinates>0.960007,52.124519,0</coordinates>
          </Point>
        </Placemark>
        <Placemark>
          <name>TEST1234 (Unknown Type)</name>
          <description>Type: Unknown Type&#xA;Callsign: TEST1234&#xA;Hex: adf991&#xA;Altitude: 0 ft&#xA;Speed: 0.0 kts&#xA;Heading: 0.0&#xA;Source: adsb.lol</description>
          <Point>
            <coordinates>0,0,0</coordinates>
          </Point>
        </Placemark>
        <Placemark>
          <name>VAPOR82 (T-38 Talon)</name>
          <description>Type: T-38 Talon&#xA;Callsign: VAPOR82&#xA;Hex: ae002a&#xA;Altitude: 3025 ft&#xA;Speed: 309.1 kts&#xA;Heading: 110.2&#xA;Source: adsb.one</description>
          <Point>
            <coordinates>-98.108551,36.159405,3025</coordinates>
          </Point>
        </Placemark>
        <Placemark>
          <name>COBRA33 (TEX2)</name>
          <description>Type: TEX2&#xA;Callsign: COBRA33&#xA;Hex: ae110a&#xA;Altitude: 11400 ft&#xA;Speed: 266.6 kts&#xA;Heading: 17.7&#xA;Source: adsb.one</description>
          <Point>
            <coordinates>-98.046589,34.415771,11400</coordinates>
          </Point>
        </Placemark>
        <Placemark>
          <name>SHF424 (CH-47 Chinook)</name>
          <description>Type: CH-47 Chinook&#xA;Callsign: SHF424&#xA;Hex: 43c4db&#xA;Altitude: 550 ft&#xA;Speed: 0.0 kts&#xA;Heading: 0.0&#xA;Source: adsb.one</description>
          <Point>
            <coordinates>0,0,550</coordinates>
          </Point>
        </Placemark>
        <Placemark>
          <name>aefc8e (Unknown Type)</name>
          <description>Type: Unknown Type&#xA;Hex: aefc8e&#xA;Altitude: 0 ft&#xA;Speed: 0.0 kts&#xA;Heading: 0.0&#xA;Source: adsb.lol</description>
          <Point>
            <coordinates>0,0,0</coordinates>
          </Point>
        </Placemark>
        <Placemark>
          <name>TEST1234 (Unknown Type)</name>
          <description>Type: Unknown Type&#xA;Callsign: TEST1234&#xA;Hex: adf996&#xA;Altitude: 0 ft&#xA;Speed: 0.0 kts&#xA;Heading: 0.0&#xA;Source: adsb.lol</description>
          <Point>
            <coordinates>0,0,0</coordinates>
          </Point>
        </Placemark>
        <Placemark>
          <name>STGRY22 (BE9L)</name>
          <description>Type: BE9L&#xA;Callsign: STGRY22&#xA;Hex: ae14a7&#xA;Altitude: 5950 ft&#xA;Speed: 206.0 kts&#xA;Heading: 208.3&#xA;Source: adsb.one</description>
          <Point>
            <coordinates>-96.720039,28.250748,5950</coordinates>
          </Point>
        </Placemark>
        <Placemark>
          <name>VV4E631 (A119)</name>
          <description>Type: A119&#xA;Callsign: VV4E631&#xA;Hex: ae6d51&#xA;Altitude: 600 ft&#xA;Speed: 92.0 kts&#xA;Heading: 348.2&#xA;Source: adsb.one</description>
          <Point>
            <coordinates>-87.154808,30.818298,600</coordinates>
          </Point>
        </Placemark>
        <Placemark>
          <name>ROCKY23 (V-22 Osprey)</name>
          <description>Type: V-22 Osprey&#xA;Callsign: ROCKY23&#xA;Hex: ae591c&#xA;Altitude: 1700 ft&#xA;Speed: 220.4 kts&#xA;Heading: 322.6&#xA;Source: adsb.lol</description>
          <Point>
            <coordinates>-117.556458,33.247282,1700</coordinates>
          </Point>
        </Placemark>
        <Placemark>
          <name>CATMAN2 (T-38 Talon)</name>
          <description>Type: T-38 Talon&#xA;Callsign: CATMAN2&#xA;Hex: ae003b&#xA;Altitude: 9975 ft&#xA;Speed: 368.2 kts&#xA;Heading: 52.7&#xA;Source: adsb.one</description>
          <Point>
            <coordinates>-98.90051,29.52095,9975</coordinates>
          </Point>
        </Placemark>
        <Placemark>
          <name>BGST360 (BE20)</name>
          <description>Type: BE20&#xA;Callsign: BGST360&#xA;Hex: af3be2&#xA;Altitude: 7725 ft&#xA;Speed: 219.4 kts&#xA;Heading: 86.6&#xA;Source: adsb.one</description>
          <Point>
            <coordinates>-92.636288,30.164703,7725</coordinates>
          </Point>
        </Placemark>
        <Placemark>
          <name>TIDE34 (H-60 Black Hawk)</name>
          <description>Type: H-60 Black Hawk&#xA;Callsign: TIDE34&#xA;Hex: ae4130&#xA;Altitude: 2650 ft&#xA;Speed: 114.0 kts&#xA;Heading: 79.4&#xA;Source: adsb.lol</description>
          <Point>
            <coordinates>-88.419584,30.836929,2650</coordinates>
          </Point>
        </Placemark>
        <Placemark>
          <name>R20385 (H-60 Black Hawk)</name>
          <description>Type: H-60 Black Hawk&#xA;Callsign: R20385&#xA;Hex: ae536d&#xA;Altitude: 2575 ft&#xA;Speed: 88.9 kts&#xA;Heading: 140.9&#xA;Source: adsb.one</description>
          <Point>
            <coordinates>-78.780605,35.076828,2575</coordinates>
          </Point>
        </Placemark>
        <Placemark>
          <name>KNIFE12 (H-60 Black Hawk)</name>
          <description>Type: H-60 Black Hawk&#xA;Callsign: KNIFE12&#xA;Hex: ae6017&#xA;Altitude: 1600 ft&#xA;Speed: 100.4 kts&#xA;Heading: 234.7&#xA;Source: adsb.one</description>
          <Point>
            <coordinates>-117.977245,33.832214,1600</coordinates>
          </Point>
        </Placemark>
        <Placemark>
          <name>CASH11 (TEX2)</name>
          <description>Type: TEX2&#xA;Callsign: CASH11&#xA;Hex: ae1e8f&#xA;Altitude: 2950 ft&#xA;Speed: 198.9 kts&#xA;Heading: 166.0&#xA;Source: adsb.lol</description>
          <Point>
            <coordinates>-100.927013,29.537292,2950</coordinates>
          </Point>
        </Placemark>
        <Placemark>
          <name>RN203 (TEX2)</name>
          <description>Type: TEX2&#xA;Callsign: RN203&#xA;Hex: ae54dd&#xA;Altitude: 5800 ft&#xA;Speed: 216.3 kts&#xA;Heading: 203.7&#xA;Source: adsb.one</description>
          <Point>
            <coordinates>-86.633337,31.617004,5800</coordinates>
          </Point>
        </Placemark>
        <Placemark>
          <name>CODY06 (C-17 Globemaster III)</name>
          <description>Type: C-17 Globemaster III&#xA;Callsign: CODY06&#xA;Hex: ae07fa&#xA;Altitude: 37025 ft&#xA;Speed: 491.0 kts&#xA;Heading: 112.0&#xA;Source: adsb.lol</description>
          <Point>
            <coordinates>-86.382002,33.864336,37025</coordinates>
          </Point>
        </Placemark>
        <Placemark>
          <name>SHOOT92 (T-38 Talon)</name>
          <description>Type: T-38 Talon&#xA;Callsign: SHOOT92&#xA;Hex: ae0027&#xA;Altitude: 5000 ft&#xA;Speed: 304.0 kts&#xA;Heading: 180.4&#xA;Source: adsb.one</description>
          <Point>
            <coordinates>-98.210335,36.428558,5000</coordinates>
          </Point>
        </Placemark>
        <Placemark>
          <name>ae0253 (C30J)</name>
          <description>Type: C30J&#xA;Hex: ae0253&#xA;Altitude: 23425 ft&#xA;Speed: 0.0 kts&#xA;Heading: 0.0&#xA;Source: adsb.lol</description>
          <Point>
            <coordinates>-92.51674,34.774381,23425</coordinates>
          </Point>
        </Placemark>
        <Placemark>
          <name>RCH718 (KC-135 Stratotanker)</name>
          <description>Type: KC-135 Stratotanker&#xA;Callsign: RCH718&#xA;Hex: ae0145&#xA;Altitude: 29000 ft&#xA;Speed: 497.0 kts&#xA;Heading: 86.0&#xA;Source: adsb.lol</description>
          <Point>
            <coordinates>-86.353407,39.816931,29000</coordinates>
          </Point>
        </Placemark>
        <Placemark>
          <name>RCH137 (C-17 Globemaster III)</name>
          <description>Type: C-17 Globemaster III&#xA;Callsign: RCH137&#xA;Hex: ae145c&#xA;Altitude: 36000 ft&#xA;Speed: 434.0 kts&#xA;Heading: 304.0&#xA;Source: adsb.lol</description>
          <Point>
            <coordinates>17.985754,48.739582,36000</coordinates>
          </Point>
        </Placemark>
        <Placemark>
          <name>00000000 (Unknown Type)</name>
          <description>Type: Unknown Type&#xA;Callsign: 00000000&#xA;Hex: adf8ce&#xA;Altitude: 70000 ft&#xA;Speed: 0.7 kts&#xA;Heading: 0.0&#xA;Source: airplanes.live</description>
          <Point>
            <coordinates>0,0,70000</coordinates>
          </Point>
        </Placemark>
        <Placemark>
          <name>00000000 (CN35)</name>
          <description>Type: CN35&#xA;Callsign: 00000000&#xA;Hex: ae223b&#xA;Altitude: 1500 ft&#xA;Speed: 168.0 kts&#xA;Heading: 43.2&#xA;Source: adsb.one</description>
          <Point>
            <coordinates>0,0,1500</coordinates>
          </Point>
        </Placemark>
        <Placemark>
          <name>VOID01 (T-38 Talon)</name>
          <description>Type: T-38 Talon&#xA;Callsign: VOID01&#xA;Hex: ae0081&#xA;Altitude: 14775 ft&#xA;Speed: 406.0 kts&#xA;Heading: 223.8&#xA;Source: adsb.lol</description>
          <Point>
            <coordinates>-99.473858,33.199706,14775</coordinates>
          </Point>
        </Placemark>
        <Placemark>
          <name>KENT36 (T-38 Talon)</name>
          <description>Type: T-38 Talon&#xA;Callsign: KENT36&#xA;Hex: ae0092&#xA;Altitude: 21050 ft&#xA;Speed: 461.8 kts&#xA;Heading: 309.4&#xA;Source: adsb.lol</description>
          <Point>
            <coordinates>-99.236083,33.880051,21050</coordinates>
          </Point>
        </Placemark>
        <Placemark>
          <name>SHOOT08 (T-38 Talon)</name>
          <description>Type: T-38 Talon&#xA;Callsign: SHOOT08&#xA;Hex: ae0036&#xA;Altitude: 21525 ft&#xA;Speed: 415.5 kts&#xA;Heading: 351.6&#xA;Source: adsb.lol</description>
          <Point>
            <coordinates>-97.205658,34.426683,21525</coordinates>
          </Point>
        </Placemark>
        <Placemark>
          <name>R08131 (CH-47 Chinook)</name>
          <description>Type: CH-47 Chinook&#xA;Callsign: R08131&#xA;Hex: ae5996&#xA;Altitude: 550 ft&#xA;Speed: 49.7 kts&#xA;Heading: 145.7&#xA;Source: adsb.lol</description>
          <Point>
            <coordinates>-87.632622,36.633213,550</coordinates>
          </Point>
        </Placemark>
        <Placemark>
          <name>SH037 (TEX2)</name>
          <description>Type: TEX2&#xA;Callsign: SH037&#xA;Hex: ae1e83&#xA;Altitude: 15225 ft&#xA;Speed: 207.2 kts&#xA;Heading: 2.8&#xA;Source: adsb.lol</description>
          <Point>
            <coordinates>-86.661145,31.331006,15225</coordinates>
          </Point>
        </Placemark>
        <Placemark>
          <name>TEST1234 (Unknown Type)</name>
          <description>Type: Unknown Type&#xA;Callsign: TEST1234&#xA;Hex: adfbe1&#xA;Altitude: 0 ft&#xA;Speed: 0.0 kts&#xA;Heading: 0.0&#xA;Source: adsb.lol</description>
          <Point>
            <coordinates>0,0,0</coordinates>
          </Point>
        </Placemark>
        <Placemark>
          <name>TEST1234 (TWR)</name>
          <description>Type: TWR&#xA;Callsign: TEST1234&#xA;Hex: 400025&#xA;Altitude: 0 ft&#xA;Speed: 0.0 kts&#xA;Heading: 0.0&#xA;Source: adsb.lol</description>
          <Point>
            <coordinates>0,0,0</coordinates>
          </Point>
        </Placemark>
        <Placemark>
          <name>ae0693 (KC-135 Stratotanker)</name>
          <description>Type: KC-135 Stratotanker&#xA;Hex: ae0693&#xA;Altitude: 31000 ft&#xA;Speed: 0.0 kts&#xA;Heading: 0.0&#xA;Source: adsb.lol</description>
          <Point>
            <coordinates>0,0,31000</coordinates>
          </Point>
        </Placemark>
        <Placemark>
          <name>JINX31 (TEX2)</name>
          <description>Type: TEX2&#xA;Callsign: JINX31&#xA;Hex: ae1424&#xA;Altitude: 8150 ft&#xA;Speed: 160.1 kts&#xA;Heading: 159.5&#xA;Source: adsb.one</description>
          <Point>
            <coordinates>-97.67045,29.05516,8150</coordinates>
          </Point>
        </Placemark>
        <Placemark>
          <name>SHOOT88 (T-38 Talon)</name>
          <description>Type: T-38 Talon&#xA;Callsign: SHOOT88&#xA;Hex: adffa5&#xA;Altitude: 18675 ft&#xA;Speed: 456.4 kts&#xA;Heading: 351.2&#xA;Source: adsb.lol</description>
          <Point>
            <coordinates>-97.234211,34.612194,18675</coordinates>
          </Point>
        </Placemark>
        <Placemark>
          <name>TALON22 (HAWK)</name>
          <description>Type: HAWK&#xA;Callsign: TALON22&#xA;Hex: ae62ce&#xA;Altitude: 25000 ft&#xA;Speed: 337.2 kts&#xA;Heading: 52.4&#xA;Source: adsb.lol</description>
          <Point>
            <coordinates>-87.046191,33.57692,25000</coordinates>
          </Point>
        </Placemark>
        <Placemark>
          <name>ae740b (A119)</name>
          <description>Type: A119&#xA;Hex: ae740b&#xA;Altitude: 825 ft&#xA;Speed: 130.1 kts&#xA;Heading: 34.7&#xA;Source: airplanes.live</description>
          <Point>
            <coordinates>-86.676205,30.82663,825</coordinates>
          </Point>
        </Placemark>
        <Placemark>
          <name>NOMAD37 (H-60 Black Hawk)</name>
          <description>Type: H-60 Black Hawk&#xA;Callsign: NOMAD37&#xA;Hex: ae6a73&#xA;Altitude: 625 ft&#xA;Speed: 85.0 kts&#xA;Heading: 3.0&#xA;Source: adsb.one</description>
          <Point>
            <coordinates>-85.739891,31.335617,625</coordinates>
          </Point>
        </Placemark>
        <Placemark>
          <name>GAFTT33 (Unknown Type)</name>
          <description>Type: Unknown Type&#xA;Callsign: GAFTT33&#xA;Hex: 3ea3c3&#xA;Altitude: 62700 ft&#xA;Speed: 0.0 kts&#xA;Heading: 0.0&#xA;Source: adsb.one</description>
          <Point>
            <coordinates>0,0,62700</coordinates>
          </Point>
        </Placemark>
        <Placemark>
          <name>TEST1234 (Unknown Type)</name>
          <description>Type: Unknown Type&#xA;Callsign: TEST1234&#xA;Hex: adfbde&#xA;Altitude: 0 ft&#xA;Speed: 0.0 kts&#xA;Heading: 0.0&#xA;Source: adsb.one</description>
          <Point>
            <coordinates>0,0,0</coordinates>
          </Point>
        </Placemark>
        <Placemark>
          <name>TEST1234 (TWR)</name>
          <description>Type: TWR&#xA;Callsign: TEST1234&#xA;Hex: 400006&#xA;Altitude: 0 ft&#xA;Speed: 0.0 kts&#xA;Heading: 0.0&#xA;Source: adsb.lol</description>
          <Point>
            <coordinates>0,0,0</coordinates>
          </Point>
        </Placemark>
        <Placemark>
          <name>MAUL1 (T-38 Talon)</name>
          <description>Type: T-38 Talon&#xA;Callsign: MAUL1&#xA;Hex: ae00fb&#xA;Altitude: 5500 ft&#xA;Speed: 392.5 kts&#xA;Heading: 92.9&#xA;Source: adsb.one</description>
          <Point>
            <coordinates>-98.719333,34.657104,5500</coordinates>
          </Point>
        </Placemark>
        <Placemark>
          <name>CUJO22 (TEX2)</name>
          <description>Type: TEX2&#xA;Callsign: CUJO22&#xA;Hex: ae0200&#xA;Altitude: 10525 ft&#xA;Speed: 243.6 kts&#xA;Heading: 336.3&#xA;Source: adsb.one</description>
          <Point>
            <coordinates>-88.259601,33.020691,10525</coordinates>
          </Point>
        </Placemark>
        <Placemark>
          <name>HAWK271 (Unknown Type)</name>
          <description>Type: Unknown Type&#xA;Callsign: HAWK271&#xA;Hex: ae629c&#xA;Altitude: 1700 ft&#xA;Speed: 125.0 kts&#xA;Heading: 126.4&#xA;Source: adsb.one</description>
          <Point>
            <coordinates>-97.895264,27.578524,1700</coordinates>
          </Point>
        </Placemark>
        <Placemark>
          <name>ae6325 (EC45)</name>
          <description>Type: EC45&#xA;Hex: ae6325&#xA;Altitude: 875 ft&#xA;Speed: 79.0 kts&#xA;Heading: 95.8&#xA;Source: adsb.one</description>
          <Point>
            <coordinates>-85.935112,31.346878,875</coordinates>
          </Point>
        </Placemark>
        <Placemark>
          <name>CEF624 (C-295)</name>
          <description>Type: C-295&#xA;Callsign: CEF624&#xA;Hex: 498489&#xA;Altitude: 21000 ft&#xA;Speed: 256.5 kts&#xA;Heading: 169.2&#xA;Source: adsb.one</description>
          <Point>
            <coordinates>24.490773,40.336071,21000</coordinates>
          </Point>
        </Placemark>
        <Placemark>
          <name>CASTL04 (C-130 Hercules)</name>
          <description>Type: C-130 Hercules&#xA;Callsign: CASTL04&#xA;Hex: adfea3&#xA;Altitude: 2500 ft&#xA;Speed: 132.2 kts&#xA;Heading: 176.5&#xA;Source: adsb.lol</description>
          <Point>
            <coordinates>-75.459782,40.807971,2500</coordinates>
          </Point>
        </Placemark>
        <Placemark>
          <name>MNTNA23 (BE9L)</name>
          <description>Type: BE9L&#xA;Callsign: MNTNA23&#xA;Hex: ae14a1&#xA;Altitude: 3950 ft&#xA;Speed: 169.0 kts&#xA;Heading: 289.9&#xA;Source: adsb.one</description>
          <Point>
            <coordinates>-97.772194,27.663853,3950</coordinates>
          </Point>
        </Placemark>
        <Placemark>
          <name>MNTNA48 (BE9L)</name>
          <description>Type: BE9L&#xA;Callsign: MNTNA48&#xA;Hex: ae14c7&#xA;Altitude: 1525 ft&#xA;Speed: 107.0 kts&#xA;Heading: 156.9&#xA;Source: adsb.one</description>
          <Point>
            <coordinates>-97.409645,27.797598,1525</coordinates>
          </Point>
        </Placemark>
        <Placemark>
          <name>DEALS97 (EC45)</name>
          <description>Type: EC45&#xA;Callsign: DEALS97&#xA;Hex: ae5a5a&#xA;Altitude: 900 ft&#xA;Speed: 86.0 kts&#xA;Heading: 217.0&#xA;Source: adsb.one</description>
          <Point>
            <coordinates>-85.964035,31.370132,900</coordinates>
          </Point>
        </Placemark>
        <Placemark>
          <name>MESSY47 (EC45)</name>
          <description>Type: EC45&#xA;Callsign: MESSY47&#xA;Hex: ae1f5a&#xA;Altitude: 225 ft&#xA;Speed: 68.0 kts&#xA;Heading: 0.0&#xA;Source: adsb.one</description>
          <Point>
            <coordinates>-85.713028,31.266951,225</coordinates>
          </Point>
        </Placemark>
        <Placemark>
          <name>ae685b (Unknown Type)</name>
          <description>Type: Unknown Type&#xA;Hex: ae685b&#xA;Altitude: 1125 ft&#xA;Speed: 170.4 kts&#xA;Heading: 44.8&#xA;Source: adsb.one</description>
          <Point>
            <coordinates>-83.980007,35.825134,1125</coordinates>
          </Point>
        </Placemark>
        <Placemark>
          <name>ICY14 (H-60 Black Hawk)</name>
          <description>Type: H-60 Black Hawk&#xA;Callsign: ICY14&#xA;Hex: ae0cce&#xA;Altitude: 5600 ft&#xA;Speed: 128.2 kts&#xA;Heading: 200.6&#xA;Source: adsb.lol</description>
          <Point>
            <coordinates>-149.549866,61.947109,5600</coordinates>
          </Point>
        </Placemark>
        <Placemark>
          <name>ae68a6 (P8 ?)</name>
          <description>Type: P8 ?&#xA;Hex: ae68a6&#xA;Altitude: 1850 ft&#xA;Speed: 139.9 kts&#xA;Heading: 189.5&#xA;Source: adsb.lol</description>
          <Point>
            <coordinates>-122.71651,48.448517,1850</coordinates>
          </Point>
        </Placemark>
        <Placemark>
          <name>WATTS57 (H-60 Black Hawk)</name>
          <description>Type: H-60 Black Hawk&#xA;Callsign: WATTS57&#xA;Hex: ae0ac7&#xA;Altitude: 3500 ft&#xA;Speed: 131.5 kts&#xA;Heading: 152.8&#xA;Source: adsb.lol</description>
          <Point>
            <coordinates>-111.373789,32.676645,3500</coordinates>
          </Point>
        </Placemark>
        <Placemark>
          <name>SPADE41 (TEX2)</name>
          <description>Type: TEX2&#xA;Callsign: SPADE41&#xA;Hex: ae139f&#xA;Altitude: 8625 ft&#xA;Speed: 230.5 kts&#xA;Heading: 15.6&#xA;Source: adsb.one</description>
          <Point>
            <coordinates>-100.042096,29.15427,8625</coordinates>
          </Point>
        </Placemark>
        <Placemark>
          <name>STEEL32 (TEX2)</name>
          <description>Type: TEX2&#xA;Callsign: STEEL32&#xA;Hex: ae111e&#xA;Altitude: 11075 ft&#xA;Speed: 255.4 kts&#xA;Heading: 6.1&#xA;Source: adsb.lol</description>
          <Point>
            <coordinates>-97.934988,34.050476,11075</coordinates>
          </Point>
        </Placemark>
        <Placemark>
          <name>C6586 (AS65)</name>
          <description>Type: AS65&#xA;Callsign: C6586&#xA;Hex: ae26ac&#xA;Altitude: 125 ft&#xA;Speed: 58.3 kts&#xA;Heading: 157.8&#xA;Source: adsb.one</description>
          <Point>
            <coordinates>-87.815698,30.569691,125</coordinates>
          </Point>
        </Placemark>
        <Placemark>
          <name>GEARS96 (CH-47 Chinook)</name>
          <description>Type: CH-47 Chinook&#xA;Callsign: GEARS96&#xA;Hex: ae5243&#xA;Altitude: 2050 ft&#xA;Speed: 118.2 kts&#xA;Heading: 156.0&#xA;Source: adsb.lol</description>
          <Point>
            <coordinates>-85.126685,31.506229,2050</coordinates>
          </Point>
        </Placemark>
        <Placemark>
          <name>ALDN77 (PC21)</name>
          <description>Type: PC21&#xA;Callsign: ALDN77&#xA;Hex: 7cf9f7&#xA;Altitude: 15000 ft&#xA;Speed: 233.3 kts&#xA;Heading: 279.6&#xA;Source: adsb.lol</description>
          <Point>
            <coordinates>146.167662,-38.162128,15000</coordinates>
          </Point>
        </Placemark>
        <Placemark>
          <name>ae5dfc (C30J)</name>
          <description>Type: C30J&#xA;Hex: ae5dfc&#xA;Altitude: 4775 ft&#xA;Speed: 188.0 kts&#xA;Heading: 165.0&#xA;Source: adsb.lol</description>
          <Point>
            <coordinates>-122.378441,47.085103,4775</coordinates>
          </Point>
        </Placemark>
        <Placemark>
          <name>ROVE76 (TEX2)</name>
          <description>Type: TEX2&#xA;Callsign: ROVE76&#xA;Hex: ae111c&#xA;Altitude: 15025 ft&#xA;Speed: 282.1 kts&#xA;Heading: 125.0&#xA;Source: adsb.one</description>
          <Point>
            <coordinates>-100.976257,31.744629,15025</coordinates>
          </Point>
        </Placemark>
        <Placemark>
          <name>FLEDGE91 (TEX2)</name>
          <description>Type: TEX2&#xA;Callsign: FLEDGE91&#xA;Hex: ae10fb&#xA;Altitude: 10425 ft&#xA;Speed: 189.9 kts&#xA;Heading: 138.8&#xA;Source: adsb.one</description>
          <Point>
            <coordinates>-100.621455,29.205093,10425</coordinates>
          </Point>
        </Placemark>
        <Placemark>
          <name>TREK01 (C-130 Hercules)</name>
          <description>Type: C-130 Hercules&#xA;Callsign: TREK01&#xA;Hex: adfde6&#xA;Altitude: 20700 ft&#xA;Speed: 251.9 kts&#xA;Heading: 47.2&#xA;Source: adsb.lol</description>
          <Point>
            <coordinates>-93.53548,36.075851,20700</coordinates>
          </Point>
        </Placemark>
        <Placemark>
          <name>N9358L (C172)</name>
          <description>Type: C172&#xA;Callsign: N9358L&#xA;Hex: acfbb7&#xA;Altitude: 250 ft&#xA;Speed: 72.0 kts&#xA;Heading: 179.2&#xA;Source: adsb.lol</description>
          <Point>
            <coordinates>-86.522935,30.647552,250</coordinates>
          </Point>
        </Placemark>
        <Placemark>
          <name>RAIDR71 (C30J)</name>
          <description>Type: C30J&#xA;Callsign: RAIDR71&#xA;Hex: ae6c1f&#xA;Altitude: 21000 ft&#xA;Speed: 325.1 kts&#xA;Heading: 74.3&#xA;Source: adsb.lol</description>
          <Point>
            <coordinates>-82.445984,34.158961,21000</coordinates>
          </Point>
        </Placemark>
        <Placemark>
          <name>TEST1234 (TWR)</name>
          <description>Type: TWR&#xA;Callsign: TEST1234&#xA;Hex: adfbdd&#xA;Altitude: 0 ft&#xA;Speed: 0.0 kts&#xA;Heading: 0.0&#xA;Source: adsb.lol</description>
          <Point>
            <coordinates>0,0,0</coordinates>
          </Point>
        </Placemark>
        <Placemark>
          <name>MC4006 (B737)</name>
          <description>Type: B737&#xA;Callsign: MC4006&#xA;Hex: ae04d8&#xA;Altitude: 38000 ft&#xA;Speed: 408.0 kts&#xA;Heading: 243.0&#xA;Source: adsb.one</description>
          <Point>
            <coordinates>-176.702213,13.410187,38000</coordinates>
          </Point>
        </Placemark>
        <Placemark>
          <name>BLADE10 (TEX2)</name>
          <description>Type: TEX2&#xA;Callsign: BLADE10&#xA;Hex: ae10f2&#xA;Altitude: 10850 ft&#xA;Speed: 247.2 kts&#xA;Heading: 272.3&#xA;Source: adsb.lol</description>
          <Point>
            <coordinates>-98.812408,34.515365,10850</coordinates>
          </Point>
        </Placemark>
        <Placemark>
          <name>FAST11 (B762)</name>
          <description>Type: B762&#xA;Callsign: FAST11&#xA;Hex: ae63d3&#xA;Altitude: 21100 ft&#xA;Speed: 575.0 kts&#xA;Heading: 11.2&#xA;Source: adsb.lol</description>
          <Point>
            <coordinates>-94.030697,36.900558,21100</coordinates>
          </Point>
        </Placemark>
        <Placemark>
          <name>HAWG62 (C30J)</name>
          <description>Type: C30J&#xA;Callsign: HAWG62&#xA;Hex: ae0245&#xA;Altitude: 2950 ft&#xA;Speed: 201.4 kts&#xA;Heading: 49.4&#xA;Source: adsb.one</description>
          <Point>
            <coordinates>-92.031212,34.951653,2950</coordinates>
          </Point>
        </Placemark>
        <Placemark>
          <name>ae04a3 (KC-135 Stratotanker)</name>
          <description>Type: KC-135 Stratotanker&#xA;Hex: ae04a3&#xA;Altitude: 5075 ft&#xA;Speed: 322.0 kts&#xA;Heading: 124.6&#xA;Source: adsb.lol</description>
          <Point>
            <coordinates>0,0,5075</coordinates>
          </Point>
        </Placemark>
        <Placemark>
          <name>BFLO02 (P-8A Poseidon)</name>
          <description>Type: P-8A Poseidon&#xA;Callsign: BFLO02&#xA;Hex: 7cf9d2&#xA;Altitude: 0 ft&#xA;Speed: 0.0 kts&#xA;Heading: 0.0&#xA;Source: adsb.one</description>
          <Point>
            <coordinates>0,0,0</coordinates>
          </Point>
        </Placemark>
        <Placemark>
          <name>ae29d9 (C30J)</name>
          <description>Type: C30J&#xA;Hex: ae29d9&#xA;Altitude: 8425 ft&#xA;Speed: 0.0 kts&#xA;Heading: 0.0&#xA;Source: adsb.one</description>
          <Point>
            <coordinates>0,0,8425</coordinates>
          </Point>
        </Placemark>
        <Placemark>
          <name>PAT375 (BE20)</name>
          <description>Type: BE20&#xA;Callsign: PAT375&#xA;Hex: ae03fa&#xA;Altitude: 26000 ft&#xA;Speed: 241.3 kts&#xA;Heading: 239.1&#xA;Source: adsb.one</description>
          <Point>
            <coordinates>-92.355446,31.84215,26000</coordinates>
          </Point>
        </Placemark>
        <Placemark>
          <name>DAGGER9 (TEX2)</name>
          <description>Type: TEX2&#xA;Callsign: DAGGER9&#xA;Hex: ae1128&#xA;Altitude: 8200 ft&#xA;Speed: 204.7 kts&#xA;Heading: 286.8&#xA;Source: adsb.lol</description>
          <Point>
            <coordinates>-87.98754,33.307055,8200</coordinates>
          </Point>
        </Placemark>
        <Placemark>
          <name>WATTS17 (EC45)</name>
          <description>Type: EC45&#xA;Callsign: WATTS17&#xA;Hex: ae1f67&#xA;Altitude: 0 ft&#xA;Speed: 6.2 kts&#xA;Heading: 0.0&#xA;Source: adsb.one</description>
          <Point>
            <coordinates>-111.332867,32.521328,0</coordinates>
          </Point>
        </Placemark>
        <Placemark>
          <name>BOMR713 (TEX2)</name>
          <description>Type: TEX2&#xA;Callsign: BOMR713&#xA;Hex: ae1eca&#xA;Altitude: 525 ft&#xA;Speed: 151.0 kts&#xA;Heading: 132.3&#xA;Source: adsb.one</description>
          <Point>
            <coordinates>-97.512573,27.777054,525</coordinates>
          </Point>
        </Placemark>
        <Placemark>
          <name>SAM218 (GLF5)</name>
          <description>Type: GLF5&#xA;Callsign: SAM218&#xA;Hex: ae6cf2&#xA;Altitude: 41000 ft&#xA;Speed: 553.4 kts&#xA;Heading: 99.4&#xA;Source: adsb.one</description>
          <Point>
            <coordinates>-101.431723,34.370865,41000</coordinates>
          </Point>
        </Placemark>
        <Placemark>
          <name>ae00f7 (T-38 Talon)</name>
          <description>Type: T-38 Talon&#xA;Hex: ae00f7&#xA;Altitude: 7250 ft&#xA;Speed: 336.4 kts&#xA;Heading: 343.8&#xA;Source: adsb.lol</description>
          <Point>
            <coordinates>-97.928681,36.47568,7250</coordinates>
          </Point>
        </Placemark>
        <Placemark>
          <name>ae1bf0 (C30J)</name>
          <description>Type: C30J&#xA;Hex: ae1bf0&#xA;Altitude: 1400 ft&#xA;Speed: 0.0 kts&#xA;Heading: 0.0&#xA;Source: adsb.one</description>
          <Point>
            <coordinates>0,0,1400</coordinates>
          </Point>
        </Placemark>
        <Placemark>
          <name>adfac3 (Unknown Type)</name>
          <description>Type: Unknown Type&#xA;Hex: adfac3&#xA;Altitude: 0 ft&#xA;Speed: 0.0 kts&#xA;Heading: 0.0&#xA;Source: airplanes.live</description>
          <Point>
            <coordinates>0,0,0</coordinates>
          </Point>
        </Placemark>
        <Placemark>
          <name>C6507 (AS65)</name>
          <description>Type: AS65&#xA;Callsign: C6507&#xA;Hex: ae2661&#xA;Altitude: 200 ft&#xA;Speed: 78.5 kts&#xA;Heading: 43.5&#xA;Source: adsb.one</description>
          <Point>
            <coordinates>-157.685469,21.344925,200</coordinates>
          </Point>
        </Placemark>
        <Placemark>
          <name>RNGR715 (TEX2)</name>
          <description>Type: TEX2&#xA;Callsign: RNGR715&#xA;Hex: ae4a13&#xA;Altitude: 925 ft&#xA;Speed: 228.0 kts&#xA;Heading: 351.2&#xA;Source: adsb.one</description>
          <Point>
            <coordinates>-97.352386,27.613483,925</coordinates>
          </Point>
        </Placemark>
        <Placemark>
          <name>CFC3360 (A310)</name>
          <description>Type: A310&#xA;Callsign: CFC3360&#xA;Hex: c2b37d&#xA;Altitude: 0 ft&#xA;Speed: 0.0 kts&#xA;Heading: 0.0&#xA;Source: adsb.one</description>
          <Point>
            <coordinates>-147.857437,64.821477,0</coordinates>
          </Point>
        </Placemark>
        <Placemark>
          <name>GUNN41 (T-38 Talon)</name>
          <description>Type: T-38 Talon&#xA;Callsign: GUNN41&#xA;Hex: ae003f&#xA;Altitude: 15975 ft&#xA;Speed: 462.3 kts&#xA;Heading: 49.2&#xA;Source: adsb.one</description>
          <Point>
            <coordinates>-98.940241,36.001918,15975</coordinates>
          </Point>
        </Placemark>
        <Placemark>
          <name>BLZR289 (HAWK)</name>
          <description>Type: HAWK&#xA;Callsign: BLZR289&#xA;Hex: ae6300&#xA;Altitude: 8975 ft&#xA;Speed: 302.0 kts&#xA;Heading: 13.2&#xA;Source: adsb.lol</description>
          <Point>
            <coordinates>-98.210537,26.658837,8975</coordinates>
          </Point>
        </Placemark>
        <Placemark>
          <name>0 (HAWK)</name>
          <description>Type: HAWK&#xA;Callsign: 0&#xA;Hex: 7cf848&#xA;Altitude: 13075 ft&#xA;Speed: 437.0 kts&#xA;Heading: 151.0&#xA;Source: adsb.lol</description>
          <Point>
            <coordinates>152.145904,-33.186524,13075</coordinates>
          </Point>
        </Placemark>
        <Placemark>
          <name>APLQ3 (TEX2)</name>
          <description>Type: TEX2&#xA;Callsign: APLQ3&#xA;Hex: c2b0ad&#xA;Altitude: 0 ft&#xA;Speed: 0.0 kts&#xA;Heading: 90.0&#xA;Source: adsb.one</description>
          <Point>
            <coordinates>-105.555267,50.335305,0</coordinates>
          </Point>
        </Placemark>
        <Placemark>
          <name>ae67c2 (Unknown Type)</name>
          <description>Type: Unknown Type&#xA;Hex: ae67c2&#xA;Altitude: 28100 ft&#xA;Speed: 335.4 kts&#xA;Heading: 280.3&#xA;Source: adsb.lol</description>
          <Point>
            <coordinates>-120.526814,48.186035,28100</coordinates>
          </Point>
        </Placemark>
        <Placemark>
          <name>SH246 (TEX2)</name>
          <description>Type: TEX2&#xA;Callsign: SH246&#xA;Hex: ae58eb&#xA;Altitude: 4300 ft&#xA;Speed: 207.1 kts&#xA;Heading: 256.0&#xA;Source: adsb.one</description>
          <Point>
            <coordinates>-88.199373,31.078537,4300</coordinates>
          </Point>
        </Placemark>
        <Placemark>
          <name>WIDGET47 (DH8A)</name>
          <description>Type: DH8A&#xA;Callsign: WIDGET47&#xA;Hex: ae27a6&#xA;Altitude: 1900 ft&#xA;Speed: 224.7 kts&#xA;Heading: 335.8&#xA;Source: adsb.lol</description>
          <Point>
            <coordinates>-85.643113,30.002426,1900</coordinates>
          </Point>
        </Placemark>
        <Placemark>
          <name>44654a (Unknown Type)</name>
          <description>Type: Unknown Type&#xA;Hex: 44654a&#xA;Altitude: 41500 ft&#xA;Speed: 0.0 kts&#xA;Heading: 0.0&#xA;Source: adsb.lol</description>
          <Point>
            <coordinates>0,0,41500</coordinates>
          </Point>
        </Placemark>
        <Placemark>
          <name>af041f (Unknown Type)</name>
          <description>Type: Unknown Type&#xA;Hex: af041f&#xA;Altitude: 0 ft&#xA;Speed: 0.0 kts&#xA;Heading: 0.0&#xA;Source: adsb.lol</description>
          <Point>
            <coordinates>0,0,0</coordinates>
          </Point>
        </Placemark>
        <Placemark>
          <name>ae048c (KC-135 Stratotanker)</name>
          <description>Type: KC-135 Stratotanker&#xA;Hex: ae048c&#xA;Altitude: 1425 ft&#xA;Speed: 832.0 kts&#xA;Heading: 280.0&#xA;Source: adsb.one</description>
          <Point>
            <coordinates>-70.743724,42.979075,1425</coordinates>
          </Point>
        </Placemark>
        <Placemark>
          <name>ae6793 (Unknown Type)</name>
          <description>Type: Unknown Type&#xA;Hex: ae6793&#xA;Altitude: 2675 ft&#xA;Speed: 160.0 kts&#xA;Heading: 160.2&#xA;Source: adsb.one</description>
          <Point>
            <coordinates>-119.302437,47.178879,2675</coordinates>
          </Point>
        </Placemark>
        <Placemark>
          <name>R20185 (H-60 Black Hawk)</name>
          <description>Type: H-60 Black Hawk&#xA;Callsign: R20185&#xA;Hex: ae4867&#xA;Altitude: 550 ft&#xA;Speed: 100.2 kts&#xA;Heading: 204.8&#xA;Source: adsb.one</description>
          <Point>
            <coordinates>-79.203587,34.869069,550</coordinates>
          </Point>
        </Placemark>
        <Placemark>
          <name>GOAT50 (TEX2)</name>
          <description>Type: TEX2&#xA;Callsign: GOAT50&#xA;Hex: ae13ce&#xA;Altitude: 17450 ft&#xA;Speed: 151.2 kts&#xA;Heading: 115.9&#xA;Source: adsb.one</description>
          <Point>
            <coordinates>-98.80985,29.400066,17450</coordinates>
          </Point>
        </Placemark>
        <Placemark>
          <name>BLADE31 (TEX2)</name>
          <description>Type: TEX2&#xA;Callsign: BLADE31&#xA;Hex: ae1e92&#xA;Altitude: 10675 ft&#xA;Speed: 140.6 kts&#xA;Heading: 8.6&#xA;Source: adsb.one</description>
          <Point>
            <coordinates>-98.600389,34.536987,10675</coordinates>
          </Point>
        </Placemark>
        <Placemark>
          <name>N (C208)</name>
          <description>Type: C208&#xA;Callsign: N&#xA;Hex: ae17cb&#xA;Altitude: 1525 ft&#xA;Speed: 144.3 kts&#xA;Heading: 215.1&#xA;Source: adsb.one</description>
          <Point>
            <coordinates>-78.869448,34.861816,1525</coordinates>
          </Point>
        </Placemark>
        <Placemark>
          <name>COBALT1 (T-38 Talon)</name>
          <description>Type: T-38 Talon&#xA;Callsign: COBALT1&#xA;Hex: adff6d&#xA;Altitude: 0 ft&#xA;Speed: 433.1 kts&#xA;Heading: 340.0&#xA;Source: adsb.one</description>
          <Point>
            <coordinates>0,0,0</coordinates>
          </Point>
        </Placemark>
        <Placemark>
          <name>JDGMT88 (A400M Atlas)</name>
          <description>Type: A400M Atlas&#xA;Callsign: JDGMT88&#xA;Hex: 43c5de&#xA;Altitude: 600 ft&#xA;Speed: 274.8 kts&#xA;Heading: 120.4&#xA;Source: adsb.one</description>
          <Point>
            <coordinates>-4.211426,52.217377,600</coordinates>
          </Point>
        </Placemark>
        <Placemark>
          <name>VOID02 (T-38 Talon)</name>
          <description>Type: T-38 Talon&#xA;Callsign: VOID02&#xA;Hex: ae0088&#xA;Altitude: 14675 ft&#xA;Speed: 404.6 kts&#xA;Heading: 223.6&#xA;Source: adsb.one</description>
          <Point>
            <coordinates>-99.468814,33.204315,14675</coordinates>
          </Point>
        </Placemark>
        <Placemark>
          <name>SMASH35 (Unknown Type)</name>
          <description>Type: Unknown Type&#xA;Callsign: SMASH35&#xA;Hex: ae188b&#xA;Altitude: 10325 ft&#xA;Speed: 272.6 kts&#xA;Heading: 341.8&#xA;Source: adsb.one</description>
          <Point>
            <coordinates>-98.25034,34.047684,10325</coordinates>
          </Point>
        </Placemark>
        <Placemark>
          <name>BOBCT71 (Unknown Type)</name>
          <description>Type: Unknown Type&#xA;Callsign: BOBCT71&#xA;Hex: ae62bb&#xA;Altitude: 10825 ft&#xA;Speed: 294.3 kts&#xA;Heading: 152.9&#xA;Source: adsb.one</description>
          <Point>
            <coordinates>-88.317915,32.228673,10825</coordinates>
          </Point>
        </Placemark>
        <Placemark>
          <name>SH131 (TEX2)</name>
          <description>Type: TEX2&#xA;Callsign: SH131&#xA;Hex: ae4a0c&#xA;Altitude: 2825 ft&#xA;Speed: 165.7 kts&#xA;Heading: 299.7&#xA;Source: adsb.lol</description>
          <Point>
            <coordinates>-88.185828,30.873677,2825</coordinates>
          </Point>
        </Placemark>
        <Placemark>
          <name>VV8E615 (A119)</name>
          <description>Type: A119&#xA;Callsign: VV8E615&#xA;Hex: ae6d41&#xA;Altitude: 75 ft&#xA;Speed: 116.0 kts&#xA;Heading: 271.5&#xA;Source: adsb.one</description>
          <Point>
            <coordinates>-86.642963,30.396563,75</coordinates>
          </Point>
        </Placemark>
        <Placemark>
          <name>ae0388 (KC-135 Stratotanker)</name>
          <description>Type: KC-135 Stratotanker&#xA;Hex: ae0388&#xA;Altitude: 0 ft&#xA;Speed: 0.0 kts&#xA;Heading: 0.0&#xA;Source: adsb.lol</description>
          <Point>
            <coordinates>0,0,0</coordinates>
          </Point>
        </Placemark>
        <Placemark>
          <name>LTHL236 (Unknown Type)</name>
          <description>Type: Unknown Type&#xA;Callsign: LTHL236&#xA;Hex: ae627c&#xA;Altitude: 3925 ft&#xA;Speed: 269.0 kts&#xA;Heading: 197.2&#xA;Source: adsb.one</description>
          <Point>
            <coordinates>-97.775833,27.451309,3925</coordinates>
          </Point>
        </Placemark>
        <Placemark>
          <name>WATTS74 (EC45)</name>
          <description>Type: EC45&#xA;Callsign: WATTS74&#xA;Hex: ae1f4b&#xA;Altitude: 4575 ft&#xA;Speed: 108.2 kts&#xA;Heading: 128.2&#xA;Source: adsb.one</description>
          <Point>
            <coordinates>-111.658089,32.790372,4575</coordinates>
          </Point>
        </Placemark>
        <Placemark>
          <name>C6585 (AS65)</name>
          <description>Type: AS65&#xA;Callsign: C6585&#xA;Hex: ae26ab&#xA;Altitude: 100 ft&#xA;Speed: 84.0 kts&#xA;Heading: 8.9&#xA;Source: adsb.one</description>
          <Point>
            <coordinates>-88.061627,30.497581,100</coordinates>
          </Point>
        </Placemark>
        <Placemark>
          <name>TIDE33 (H-60 Black Hawk)</name>
          <description>Type: H-60 Black Hawk&#xA;Callsign: TIDE33&#xA;Hex: ae77ef&#xA;Altitude: 300 ft&#xA;Speed: 98.3 kts&#xA;Heading: 94.7&#xA;Source: adsb.one</description>
          <Point>
            <coordinates>-87.876233,30.227392,300</coordinates>
          </Point>
        </Placemark>
        <Placemark>
          <name>TIGER50 (TEX2)</name>
          <description>Type: TEX2&#xA;Callsign: TIGER50&#xA;Hex: ae1412&#xA;Altitude: 2400 ft&#xA;Speed: 183.4 kts&#xA;Heading: 145.4&#xA;Source: adsb.lol</description>
          <Point>
            <coordinates>-100.759048,29.331985,2400</coordinates>
          </Point>
        </Placemark>
        <Placemark>
          <name>CATMAN1 (T-38 Talon)</name>
          <description>Type: T-38 Talon&#xA;Callsign: CATMAN1&#xA;Hex: ae1898&#xA;Altitude: 14150 ft&#xA;Speed: 381.0 kts&#xA;Heading: 174.1&#xA;Source: adsb.one</description>
          <Point>
            <coordinates>-99.191787,29.607689,14150</coordinates>
          </Point>
        </Placemark>
        <Placemark>
          <name>BLADE32 (TEX2)</name>
          <description>Type: TEX2&#xA;Callsign: BLADE32&#xA;Hex: ae1e8c&#xA;Altitude: 13775 ft&#xA;Speed: 249.7 kts&#xA;Heading: 298.7&#xA;Source: adsb.one</description>
          <Point>
            <coordinates>-98.634853,34.417885,13775</coordinates>
          </Point>
        </Placemark>
        <Placemark>
          <name>ROVE04 (TEX2)</name>
          <description>Type: TEX2&#xA;Callsign: ROVE04&#xA;Hex: ae088e&#xA;Altitude: 3875 ft&#xA;Speed: 193.8 kts&#xA;Heading: 216.4&#xA;Source: adsb.lol</description>
          <Point>
            <coordinates>-96.429695,30.555817,3875</coordinates>
          </Point>
        </Placemark>
        <Placemark>
          <name>ae5f3a (P-8A Poseidon)</name>
          <description>Type: P-8A Poseidon&#xA;Hex: ae5f3a&#xA;Altitude: 9775 ft&#xA;Speed: 284.5 kts&#xA;Heading: 256.0&#xA;Source: adsb.lol</description>
          <Point>
            <coordinates>-87.484508,30.829926,9775</coordinates>
          </Point>
        </Placemark>
        <Placemark>
          <name>ae6797 (Unknown Type)</name>
          <description>Type: Unknown Type&#xA;Hex: ae6797&#xA;Altitude: 14800 ft&#xA;Speed: 293.0 kts&#xA;Heading: 347.0&#xA;Source: adsb.lol</description>
          <Point>
            <coordinates>-81.586353,29.530764,14800</coordinates>
          </Point>
        </Placemark>
        <Placemark>
          <name>C2309 (CN35)</name>
          <description>Type: CN35&#xA;Callsign: C2309&#xA;Hex: ae2707&#xA;Altitude: 3900 ft&#xA;Speed: 187.7 kts&#xA;Heading: 218.9&#xA;Source: adsb.lol</description>
          <Point>
            <coordinates>-69.606309,43.55278,3900</coordinates>
          </Point>
        </Placemark>
        <Placemark>
          <name>ae1458 (C-17 Globemaster III)</name>
          <description>Type: C-17 Globemaster III&#xA;Hex: ae1458&#xA;Altitude: 32000 ft&#xA;Speed: 0.0 kts&#xA;Heading: 0.0&#xA;Source: adsb.one</description>
          <Point>
            <coordinates>0,0,32000</coordinates>
          </Point>
        </Placemark>
        <Placemark>
          <name>BLUFF91 (TEX2)</name>
          <description>Type: TEX2&#xA;Callsign: BLUFF91&#xA;Hex: ae1e96&#xA;Altitude: 10850 ft&#xA;Speed: 213.9 kts&#xA;Heading: 104.6&#xA;Source: adsb.lol</description>
          <Point>
            <coordinates>-100.316755,28.769469,10850</coordinates>
          </Point>
        </Placemark>
        <Placemark>
          <name>ae4a27 (TEX2)</name>
          <description>Type: TEX2&#xA;Hex: ae4a27&#xA;Altitude: 525 ft&#xA;Speed: 130.4 kts&#xA;Heading: 355.6&#xA;Source: adsb.one</description>
          <Point>
            <coordinates>-89.470879,30.387817,525</coordinates>
          </Point>
        </Placemark>
        <Placemark>
          <name>C6597 (AS65)</name>
          <description>Type: AS65&#xA;Callsign: C6597&#xA;Hex: ae26b7&#xA;Altitude: -200 ft&#xA;Speed: 9.0 kts&#xA;Heading: 243.4&#xA;Source: adsb.one</description>
          <Point>
            <coordinates>-81.340192,29.954503,-200</coordinates>
          </Point>
        </Placemark>
        <Placemark>
          <name>ae57c0 (P-8A Poseidon)</name>
          <description>Type: P-8A Poseidon&#xA;Hex: ae57c0&#xA;Altitude: 32000 ft&#xA;Speed: 427.1 kts&#xA;Heading: 184.0&#xA;Source: adsb.lol</description>
          <Point>
            <coordinates>-80.582129,26.696498,32000</coordinates>
          </Point>
        </Placemark>
        <Placemark>
          <name>ae4884 (H-60 Black Hawk)</name>
          <description>Type: H-60 Black Hawk&#xA;Hex: ae4884&#xA;Altitude: 775 ft&#xA;Speed: 106.2 kts&#xA;Heading: 42.0&#xA;Source: adsb.lol</description>
          <Point>
            <coordinates>0,0,775</coordinates>
          </Point>
        </Placemark>
        <Placemark>
          <name>SKULL44 (TEX2)</name>
          <description>Type: TEX2&#xA;Callsign: SKULL44&#xA;Hex: ae1741&#xA;Altitude: 11925 ft&#xA;Speed: 226.9 kts&#xA;Heading: 326.9&#xA;Source: adsb.one</description>
          <Point>
            <coordinates>-97.899628,34.263844,11925</coordinates>
          </Point>
        </Placemark>
        <Placemark>
          <name>WGTL15 (E737)</name>
          <description>Type: E737&#xA;Callsign: WGTL15&#xA;Hex: 7cf8f1&#xA;Altitude: 30000 ft&#xA;Speed: 405.8 kts&#xA;Heading: 193.8&#xA;Source: adsb.lol</description>
          <Point>
            <coordinates>150.464658,-35.169525,30000</coordinates>
          </Point>
        </Placemark>
        <Placemark>
          <name>VV7E642 (A119)</name>
          <description>Type: A119&#xA;Callsign: VV7E642&#xA;Hex: ae73de&#xA;Altitude: 600 ft&#xA;Speed: 80.0 kts&#xA;Heading: 93.0&#xA;Source: adsb.one</description>
          <Point>
            <coordinates>-87.174149,30.821026,600</coordinates>
          </Point>
        </Placemark>
        <Placemark>
          <name>LOGIC510 (C-295)</name>
          <description>Type: C-295&#xA;Callsign: LOGIC510&#xA;Hex: c2bd0f&#xA;Altitude: 2075 ft&#xA;Speed: 136.2 kts&#xA;Heading: 7.6&#xA;Source: adsb.lol</description>
          <Point>
            <coordinates>-97.259884,49.818715,2075</coordinates>
          </Point>
        </Placemark>