<?xml version="1.0" encoding="UTF-8"?>
<kml xmlns="http://www.opengis.net/kml/2.2">
  <Document>
    <name>US Military Tracker</name>
    <description>Generated: 2026-03-02T21:54:02Z | Chairman: groq | Score: 0.00</description>
    <Folder>
      <name>Aircraft (388 tracked)</name>
      <Folder>
        <name>USAF</name>
        <Placemark>
          <name>FAB001 (F900)</name>
          <description>Type: F900&#xA;Callsign: FAB001&#xA;Hex: e940fa&#xA;Branch: USAF&#xA;Mission: ISR&#xA;Altitude: 23500 ft&#xA;Speed: 333.2 kts&#xA;Heading: 267.9&#xA;Source: adsb.one</description>
          <Point>
            <coordinates>-68.015327,-16.628273,23500</coordinates>
          </Point>
        </Placemark>
        <Placemark>
          <name>FUJCG (A332)</name>
          <description>Type: A332&#xA;Callsign: FUJCG&#xA;Hex: 3b75dd&#xA;Branch: USAF&#xA;Mission: transport&#xA;Altitude: 19000 ft&#xA;Speed: 379.3 kts&#xA;Heading: 160.3&#xA;Source: adsb.one</description>
          <Point>
            <coordinates>4.107971,44.870544,19000</coordinates>
          </Point>
        </Placemark>
        <Placemark>
          <name>RN116 (TEX2)</name>
          <description>Type: TEX2&#xA;Callsign: RN116&#xA;Hex: ae2ef1&#xA;Branch: USAF&#xA;Mission: training&#xA;Altitude: 5250 ft&#xA;Speed: 235.0 kts&#xA;Heading: 288.4&#xA;Source: adsb.one</description>
          <Point>
            <coordinates>-87.022867,30.921982,5250</coordinates>
          </Point>
        </Placemark>
        <Placemark>
          <name>ae61dd (Unknown Type)</name>
          <description>Type: Unknown Type&#xA;Hex: ae61dd&#xA;Branch: USAF&#xA;Mission: ISR&#xA;Altitude: 3650 ft&#xA;Speed: 253.3 kts&#xA;Heading: 97.7&#xA;Source: adsb.one</description>
          <Point>
            <coordinates>-82.716272,25.473012,3650</coordinates>
          </Point>
        </Placemark>
        <Placemark>
          <name>C2301 (CN35)</name>
          <description>Type: CN35&#xA;Callsign: C2301&#xA;Hex: ae2237&#xA;Branch: USAF&#xA;Mission: training&#xA;Altitude: 950 ft&#xA;Speed: 176.8 kts&#xA;Heading: 204.4&#xA;Source: adsb.one</description>
          <Point>
            <coordinates>-80.196025,25.537949,950</coordinates>
          </Point>
        </Placemark>
        <Placemark>
          <name>TROJ16 (C30J)</name>
          <description>Type: C30J&#xA;Callsign: TROJ16&#xA;Hex: 7cf830&#xA;Branch: USAF&#xA;Mission: ISR&#xA;Altitude: 28000 ft&#xA;Speed: 344.1 kts&#xA;Heading: 28.3&#xA;Source: adsb.one</description>
          <Point>
            <coordinates>151.008673,-30.782202,28000</coordinates>
          </Point>
        </Placemark>
        <Placemark>
          <name>ZORRO67 (AT8T)</name>
          <description>Type: AT8T&#xA;Callsign: ZORRO67&#xA;Hex: aaec24&#xA;Branch: USAF&#xA;Mission: training&#xA;Altitude: 5450 ft&#xA;Speed: 126.2 kts&#xA;Heading: 151.6&#xA;Source: adsb.lol</description>
          <Point>
            <coordinates>-98.02224,35.495523,5450</coordinates>
          </Point>
        </Placemark>
        <Placemark>
          <name>DUKE88 (TEX2)</name>
          <description>Type: TEX2&#xA;Callsign: DUKE88&#xA;Hex: ae13ca&#xA;Branch: USAF&#xA;Mission: training&#xA;Altitude: 2925 ft&#xA;Speed: 122.8 kts&#xA;Heading: 200.5&#xA;Source: adsb.one</description>
          <Point>
            <coordinates>-97.364661,37.777188,2925</coordinates>
          </Point>
        </Placemark>
        <Placemark>
          <name>FAST35 (T-38 Talon)</name>
          <description>Type: T-38 Talon&#xA;Callsign: FAST35&#xA;Hex: ae63dc&#xA;Branch: USAF&#xA;Mission: training&#xA;Altitude: 1300 ft&#xA;Speed: 169.0 kts&#xA;Heading: 7.7&#xA;Source: adsb.one</description>
          <Point>
            <coordinates>-93.559326,38.684025,1300</coordinates>
          </Point>
        </Placemark>
        <Placemark>
          <name>RCH931 (C-17 Globemaster III)</name>
          <description>Type: C-17 Globemaster III&#xA;Callsign: RCH931&#xA;Hex: ae119b&#xA;Branch: USAF&#xA;Mission: transport&#xA;Altitude: 13375 ft&#xA;Speed: 342.0 kts&#xA;Heading: 352.0&#xA;Source: adsb.lol</description>
          <Point>
            <coordinates>6.972258,49.708964,13375</coordinates>
          </Point>
        </Placemark>
      </Folder>
      <Folder>
        <name>USN</name>
        <Placemark>
          <name>ae0627 (KC-135 Stratotanker)</name>
          <description>Type: KC-135 Stratotanker&#xA;Hex: ae0627&#xA;Branch: USN&#xA;Mission: patrol&#xA;Altitude: 32950 ft&#xA;Speed: 550.7 kts&#xA;Heading: 57.6&#xA;Source: adsb.one</description>
          <Point>
            <coordinates>-65.659172,46.290009,32950</coordinates>
          </Point>
        </Placemark>
        <Placemark>
          <name>ae5f3a (P-8A Poseidon)</name>
          <description>Type: P-8A Poseidon&#xA;Hex: ae5f3a&#xA;Branch: USN&#xA;Mission: patrol&#xA;Altitude: 26000 ft&#xA;Speed: 415.3 kts&#xA;Heading: 272.1&#xA;Source: adsb.lol</description>
          <Point>
            <coordinates>-83.078778,30.522114,26000</coordinates>
          </Point>
        </Placemark>
      </Folder>
      <Folder>
        <name>Unknown</name>
        <Placemark>
          <name>N36120 (P28R)</name>
          <description>Type: P28R&#xA;Callsign: N36120&#xA;Hex: a412ba&#xA;Altitude: -300 ft&#xA;Speed: 66.5 kts&#xA;Heading: 276.9&#xA;Source: adsb.lol</description>
          <Point>
            <coordinates>-71.269309,42.469025,-300</coordinates>
          </Point>
        </Placemark>
        <Placemark>
          <name>3adb1c (Unknown Type)</name>
          <description>Type: Unknown Type&#xA;Hex: 3adb1c&#xA;Altitude: 3800 ft&#xA;Speed: 0.0 kts&#xA;Heading: 0.0&#xA;Source: adsb.lol</description>
          <Point>
            <coordinates>0,0,3800</coordinates>
          </Point>
        </Placemark>
        <Placemark>
          <name>VV8E626 (A119)</name>
          <description>Type: A119&#xA;Callsign: VV8E626&#xA;Hex: ae6d4c&#xA;Altitude: 500 ft&#xA;Speed: 109.0 kts&#xA;Heading: 74.9&#xA;Source: adsb.one</description>
          <Point>
            <coordinates>-87.097237,30.659821,500</coordinates>
          </Point>
        </Placemark>
        <Placemark>
          <name>ae5a65 (EC45)</name>
          <description>Type: EC45&#xA;Hex: ae5a65&#xA;Altitude: 750 ft&#xA;Speed: 93.0 kts&#xA;Heading: 300.5&#xA;Source: adsb.one</description>
          <Point>
            <coordinates>-85.981972,31.376766,750</coordinates>
          </Point>
        </Placemark>
        <Placemark>
          <name>JOKER49 (Unknown Type)</name>
          <description>Type: Unknown Type&#xA;Callsign: JOKER49&#xA;Hex: 3f6f33&#xA;Altitude: 1750 ft&#xA;Speed: 87.7 kts&#xA;Heading: 101.2&#xA;Source: adsb.lol</description>
          <Point>
            <coordinates>9.059673,49.445755,1750</coordinates>
          </Point>
        </Placemark>
        <Placemark>
          <name>TEST1234 (Unknown Type)</name>
          <description>Type: Unknown Type&#xA;Callsign: TEST1234&#xA;Hex: adf996&#xA;Altitude: 0 ft&#xA;Speed: 0.0 kts&#xA;Heading: 0.0&#xA;Source: adsb.lol</description>
          <Point>
            <coordinates>0,0,0</coordinates>
          </Point>
        </Placemark>
        <Placemark>
          <name>HAWK282 (HAWK)</name>
          <description>Type: HAWK&#xA;Callsign: HAWK282&#xA;Hex: ae62fa&#xA;Altitude: 11050 ft&#xA;Speed: 255.6 kts&#xA;Heading: 16.6&#xA;Source: adsb.lol</description>
          <Point>
            <coordinates>-98.904523,27.241928,11050</coordinates>
          </Point>
        </Placemark>
        <Placemark>
          <name>RHODY62 (C30J)</name>
          <description>Type: C30J&#xA;Callsign: RHODY62&#xA;Hex: ae143e&#xA;Altitude: 3275 ft&#xA;Speed: 251.4 kts&#xA;Heading: 168.1&#xA;Source: adsb.one</description>
          <Point>
            <coordinates>-89.320032,30.647919,3275</coordinates>
          </Point>
        </Placemark>
        <Placemark>
          <name>TORO71 (T-38 Talon)</name>
          <description>Type: T-38 Talon&#xA;Callsign: TORO71&#xA;Hex: ae0053&#xA;Altitude: 3425 ft&#xA;Speed: 297.1 kts&#xA;Heading: 358.3&#xA;Source: adsb.one</description>
          <Point>
            <coordinates>-97.381954,35.49527,3425</coordinates>
          </Point>
        </Placemark>
        <Placemark>
          <name>VV8E725 (A119)</name>
          <description>Type: A119&#xA;Callsign: VV8E725&#xA;Hex: ae7409&#xA;Altitude: 2100 ft&#xA;Speed: 115.2 kts&#xA;Heading: 76.5&#xA;Source: adsb.one</description>
          <Point>
            <coordinates>-87.316643,30.440186,2100</coordinates>
          </Point>
        </Placemark>
        <Placemark>
          <name>CASH51 (TEX2)</name>
          <description>Type: TEX2&#xA;Callsign: CASH51&#xA;Hex: ae11b7&#xA;Altitude: 19050 ft&#xA;Speed: 294.5 kts&#xA;Heading: 77.0&#xA;Source: adsb.one</description>
          <Point>
            <coordinates>-98.996726,30.310593,19050</coordinates>
          </Point>
        </Placemark>
        <Placemark>
          <name>GOAT03 (TEX2)</name>
          <description>Type: TEX2&#xA;Callsign: GOAT03&#xA;Hex: ae1e68&#xA;Altitude: 10500 ft&#xA;Speed: 198.2 kts&#xA;Heading: 345.7&#xA;Source: adsb.one</description>
          <Point>
            <coordinates>-98.146416,29.059769,10500</coordinates>
          </Point>
        </Placemark>
        <Placemark>
          <name>R20614 (H-60 Black Hawk)</name>
          <description>Type: H-60 Black Hawk&#xA;Callsign: R20614&#xA;Hex: ae56ce&#xA;Altitude: 0 ft&#xA;Speed: 0.0 kts&#xA;Heading: 0.0&#xA;Source: adsb.one</description>
          <Point>
            <coordinates>-97.71659,31.135185,0</coordinates>
          </Point>
        </Placemark>
        <Placemark>
          <name>TEST1234 (TWR)</name>
          <description>Type: TWR&#xA;Callsign: TEST1234&#xA;Hex: 400008&#xA;Altitude: 0 ft&#xA;Speed: 0.0 kts&#xA;Heading: 0.0&#xA;Source: adsb.lol</description>
          <Point>
            <coordinates>0,0,0</coordinates>
          </Point>
        </Placemark>
        <Placemark>
          <name>TEST1234 (Unknown Type)</name>
          <description>Type: Unknown Type&#xA;Callsign: TEST1234&#xA;Hex: adfbde&#xA;Altitude: 0 ft&#xA;Speed: 0.0 kts&#xA;Heading: 0.0&#xA;Source: adsb.one</description>
          <Point>
            <coordinates>0,0,0</coordinates>
          </Point>
        </Placemark>
        <Placemark>
          <name>ae7410 (A119)</name>
          <description>Type: A119&#xA;Hex: ae7410&#xA;Altitude: 575 ft&#xA;Speed: 74.5 kts&#xA;Heading: 258.4&#xA;Source: adsb.one</description>
          <Point>
            <coordinates>0,0,575</coordinates>
          </Point>
        </Placemark>
        <Placemark>
          <name>BGST360 (BE20)</name>
          <description>Type: BE20&#xA;Callsign: BGST360&#xA;Hex: af3be2&#xA;Altitude: 15700 ft&#xA;Speed: 201.5 kts&#xA;Heading: 106.7&#xA;Source: adsb.lol</description>
          <Point>
            <coordinates>-95.914953,30.598801,15700</coordinates>
          </Point>
        </Placemark>
        <Placemark>
          <name>STGN05 (G120)</name>
          <description>Type: G120&#xA;Callsign: STGN05&#xA;Hex: c02835&#xA;Altitude: 1800 ft&#xA;Speed: 106.3 kts&#xA;Heading: 148.8&#xA;Source: adsb.lol</description>
          <Point>
            <coordinates>-98.32489,49.881002,1800</coordinates>
          </Point>
        </Placemark>
        <Placemark>
          <name>00972064 (EC45)</name>
          <description>Type: EC45&#xA;Callsign: 00972064&#xA;Hex: ae1f4f&#xA;Altitude: 3475 ft&#xA;Speed: 137.1 kts&#xA;Heading: 280.1&#xA;Source: adsb.lol</description>
          <Point>
            <coordinates>-98.073397,26.089417,3475</coordinates>
          </Point>
        </Placemark>
        <Placemark>
          <name>TEST1234 (Unknown Type)</name>
          <description>Type: Unknown Type&#xA;Callsign: TEST1234&#xA;Hex: adfbe2&#xA;Altitude: 0 ft&#xA;Speed: 0.0 kts&#xA;Heading: 0.0&#xA;Source: adsb.lol</description>
          <Point>
            <coordinates>0,0,0</coordinates>
          </Point>
        </Placemark>
        <Placemark>
          <name>BULET56 (H-60 Black Hawk)</name>
          <description>Type: H-60 Black Hawk&#xA;Callsign: BULET56&#xA;Hex: ae2776&#xA;Altitude: 125 ft&#xA;Speed: 74.0 kts&#xA;Heading: 231.6&#xA;Source: adsb.one</description>
          <Point>
            <coordinates>-117.526525,32.687119,125</coordinates>
          </Point>
        </Placemark>
        <Placemark>
          <name>DUKE81 (TEX2)</name>
          <description>Type: TEX2&#xA;Callsign: DUKE81&#xA;Hex: ae01f0&#xA;Altitude: 6925 ft&#xA;Speed: 257.8 kts&#xA;Heading: 14.1&#xA;Source: adsb.one</description>
          <Point>
            <coordinates>-97.748451,36.155869,6925</coordinates>
          </Point>
        </Placemark>
        <Placemark>
          <name>KATT23 (TEX2)</name>
          <description>Type: TEX2&#xA;Callsign: KATT23&#xA;Hex: ae113e&#xA;Altitude: 7325 ft&#xA;Speed: 266.6 kts&#xA;Heading: 64.7&#xA;Source: adsb.one</description>
          <Point>
            <coordinates>-89.376526,30.095742,7325</coordinates>
          </Point>
        </Placemark>
        <Placemark>
          <name>AAC319 (AH-64 Apache)</name>
          <description>Type: AH-64 Apache&#xA;Callsign: AAC319&#xA;Hex: 43c94c&#xA;Altitude: 2900 ft&#xA;Speed: 73.0 kts&#xA;Heading: 203.4&#xA;Source: adsb.one</description>
          <Point>
            <coordinates>1.162275,52.152844,2900</coordinates>
          </Point>
        </Placemark>
        <Placemark>
          <name>adfb0f (Unknown Type)</name>
          <description>Type: Unknown Type&#xA;Hex: adfb0f&#xA;Altitude: 0 ft&#xA;Speed: 0.0 kts&#xA;Heading: 0.0&#xA;Source: adsb.one</description>
          <Point>
            <coordinates>0,0,0</coordinates>
          </Point>
        </Placemark>
        <Placemark>
          <name>GOAT50 (TEX2)</name>
          <description>Type: TEX2&#xA;Callsign: GOAT50&#xA;Hex: ae13ce&#xA;Altitude: 12975 ft&#xA;Speed: 287.9 kts&#xA;Heading: 285.1&#xA;Source: adsb.one</description>
          <Point>
            <coordinates>-98.544994,29.429301,12975</coordinates>
          </Point>
        </Placemark>
        <Placemark>
          <name>afa82a (H-60 Black Hawk)</name>
          <description>Type: H-60 Black Hawk&#xA;Hex: afa82a&#xA;Altitude: 800 ft&#xA;Speed: 96.2 kts&#xA;Heading: 200.7&#xA;Source: adsb.one</description>
          <Point>
            <coordinates>-88.041849,31.194901,800</coordinates>
          </Point>
        </Placemark>
        <Placemark>
          <name>CEF624 (C-295)</name>
          <description>Type: C-295&#xA;Callsign: CEF624&#xA;Hex: 498489&#xA;Altitude: 21000 ft&#xA;Speed: 250.8 kts&#xA;Heading: 173.1&#xA;Source: adsb.lol</description>
          <Point>
            <coordinates>23.904092,42.927029,21000</coordinates>
          </Point>
        </Placemark>
        <Placemark>
          <name>7cfa35 (B350)</name>
          <description>Type: B350&#xA;Hex: 7cfa35&#xA;Altitude: 0 ft&#xA;Speed: 0.0 kts&#xA;Heading: 0.0&#xA;Source: adsb.lol</description>
          <Point>
            <coordinates>0,0,0</coordinates>
          </Point>
        </Placemark>
        <Placemark>
          <name>ARCH52 (TEX2)</name>
          <description>Type: TEX2&#xA;Callsign: ARCH52&#xA;Hex: c2b049&#xA;Altitude: 8075 ft&#xA;Speed: 216.6 kts&#xA;Heading: 230.4&#xA;Source: adsb.one</description>
          <Point>
            <coordinates>-106.211218,50.196906,8075</coordinates>
          </Point>
        </Placemark>
        <Placemark>
          <name>SPUD04 (H-60 Black Hawk)</name>
          <description>Type: H-60 Black Hawk&#xA;Callsign: SPUD04&#xA;Hex: ae50bc&#xA;Altitude: 0 ft&#xA;Speed: 98.0 kts&#xA;Heading: 12.5&#xA;Source: adsb.one</description>
          <Point>
            <coordinates>-86.067543,31.285172,0</coordinates>
          </Point>
        </Placemark>
        <Placemark>
          <name>ae61fe (C30J)</name>
          <description>Type: C30J&#xA;Hex: ae61fe&#xA;Altitude: 4275 ft&#xA;Speed: 166.0 kts&#xA;Heading: 247.0&#xA;Source: adsb.one</description>
          <Point>
            <coordinates>-85.85324,30.231165,4275</coordinates>
          </Point>
        </Placemark>
        <Placemark>
          <name>R33507 (AH-64 Apache)</name>
          <description>Type: AH-64 Apache&#xA;Callsign: R33507&#xA;Hex: af53b8&#xA;Altitude: 2000 ft&#xA;Speed: 111.4 kts&#xA;Heading: 243.9&#xA;Source: adsb.lol</description>
          <Point>
            <coordinates>-79.469156,35.130798,2000</coordinates>
          </Point>
        </Placemark>
        <Placemark>
          <name>LD503 (B737)</name>
          <description>Type: B737&#xA;Callsign: LD503&#xA;Hex: e200ae&#xA;Altitude: 37000 ft&#xA;Speed: 421.6 kts&#xA;Heading: 69.2&#xA;Source: adsb.one</description>
          <Point>
            <coordinates>-64.279573,-39.367722,37000</coordinates>
          </Point>
        </Placemark>
        <Placemark>
          <name>TEST1234 (Unknown Type)</name>
          <description>Type: Unknown Type&#xA;Callsign: TEST1234&#xA;Hex: adfbe3&#xA;Altitude: 0 ft&#xA;Speed: 0.0 kts&#xA;Heading: 0.0&#xA;Source: adsb.lol</description>
          <Point>
            <coordinates>0,0,0</coordinates>
          </Point>
        </Placemark>
        <Placemark>
          <name>TEST1234 (Unknown Type)</name>
          <description>Type: Unknown Type&#xA;Callsign: TEST1234&#xA;Hex: adf997&#xA;Altitude: 0 ft&#xA;Speed: 0.0 kts&#xA;Heading: 0.0&#xA;Source: adsb.one</description>
          <Point>
            <coordinates>0,0,0</coordinates>
          </Point>
        </Placemark>
        <Placemark>
          <name>ELDER1 (T-38 Talon)</name>
          <description>Type: T-38 Talon&#xA;Callsign: ELDER1&#xA;Hex: ae00fa&#xA;Altitude: 15400 ft&#xA;Speed: 260.7 kts&#xA;Heading: 20.0&#xA;Source: adsb.lol</description>
          <Point>
            <coordinates>-98.235626,35.079532,15400</coordinates>
          </Point>
        </Placemark>
        <Placemark>
          <name>BOMR736 (TEX2)</name>
          <description>Type: TEX2&#xA;Callsign: BOMR736&#xA;Hex: ae1ed1&#xA;Altitude: 1550 ft&#xA;Speed: 202.0 kts&#xA;Heading: 115.7&#xA;Source: adsb.one</description>
          <Point>
            <coordinates>-97.232788,27.65062,1550</coordinates>
          </Point>
        </Placemark>
        <Placemark>
          <name>ROKT32 (Unknown Type)</name>
          <description>Type: Unknown Type&#xA;Callsign: ROKT32&#xA;Hex: ae626c&#xA;Altitude: 6750 ft&#xA;Speed: 289.7 kts&#xA;Heading: 31.9&#xA;Source: adsb.one</description>
          <Point>
            <coordinates>-87.136984,29.696278,6750</coordinates>
          </Point>
        </Placemark>
        <Placemark>
          <name>VV7E035 (A119)</name>
          <description>Type: A119&#xA;Callsign: VV7E035&#xA;Hex: ae7411&#xA;Altitude: 1300 ft&#xA;Speed: 85.1 kts&#xA;Heading: 182.0&#xA;Source: adsb.one</description>
          <Point>
            <coordinates>-86.819027,30.790237,1300</coordinates>
          </Point>
        </Placemark>
        <Placemark>
          <name>ae07ff (C-17 Globemaster III)</name>
          <description>Type: C-17 Globemaster III&#xA;Hex: ae07ff&#xA;Altitude: 0 ft&#xA;Speed: 0.0 kts&#xA;Heading: 0.0&#xA;Source: adsb.one</description>
          <Point>
            <coordinates>0,0,0</coordinates>
          </Point>
        </Placemark>
        <Placemark>
          <name>ae29d9 (C30J)</name>
          <description>Type: C30J&#xA;Hex: ae29d9&#xA;Altitude: 7450 ft&#xA;Speed: 0.0 kts&#xA;Heading: 0.0&#xA;Source: adsb.one</description>
          <Point>
            <coordinates>0,0,7450</coordinates>
          </Point>
        </Placemark>
        <Placemark>
          <name>BOLT55 (C172)</name>
          <description>Type: C172&#xA;Callsign: BOLT55&#xA;Hex: aa7eac&#xA;Altitude: 9550 ft&#xA;Speed: 109.0 kts&#xA;Heading: 359.5&#xA;Source: adsb.lol</description>
          <Point>
            <coordinates>-104.19153,39.231674,9550</coordinates>
          </Point>
        </Placemark>
        <Placemark>
          <name>BOLT54 (C172)</name>
          <description>Type: C172&#xA;Callsign: BOLT54&#xA;Hex: aa7e89&#xA;Altitude: 10375 ft&#xA;Speed: 77.9 kts&#xA;Heading: 294.3&#xA;Source: adsb.lol</description>
          <Point>
            <coordinates>-104.070501,39.014648,10375</coordinates>
          </Point>
        </Placemark>
        <Placemark>
          <name>RUDY36 (V-22 Osprey)</name>
          <description>Type: V-22 Osprey&#xA;Callsign: RUDY36&#xA;Hex: ae6b9c&#xA;Altitude: 0 ft&#xA;Speed: 61.0 kts&#xA;Heading: 248.9&#xA;Source: adsb.one</description>
          <Point>
            <coordinates>-120.735909,35.811676,0</coordinates>
          </Point>
        </Placemark>
        <Placemark>
          <name>BARKY12 (TEX2)</name>
          <description>Type: TEX2&#xA;Callsign: BARKY12&#xA;Hex: ae10f8&#xA;Altitude: 3000 ft&#xA;Speed: 200.9 kts&#xA;Heading: 133.8&#xA;Source: adsb.one</description>
          <Point>
            <coordinates>-97.353534,32.742599,3000</coordinates>
          </Point>
        </Placemark>
        <Placemark>
          <name>VV1E018 (A119)</name>
          <description>Type: A119&#xA;Callsign: VV1E018&#xA;Hex: ae73ea&#xA;Altitude: 575 ft&#xA;Speed: 102.0 kts&#xA;Heading: 181.9&#xA;Source: adsb.one</description>
          <Point>
            <coordinates>-87.180191,30.692728,575</coordinates>
          </Point>
        </Placemark>
        <Placemark>
          <name>ae6d53 (A119)</name>
          <description>Type: A119&#xA;Hex: ae6d53&#xA;Altitude: 25 ft&#xA;Speed: 112.9 kts&#xA;Heading: 22.9&#xA;Source: adsb.one</description>
          <Point>
            <coordinates>-87.175329,30.425171,25</coordinates>
          </Point>
        </Placemark>
        <Placemark>
          <name>00000000 (Unknown Type)</name>
          <description>Type: Unknown Type&#xA;Callsign: 00000000&#xA;Hex: adf8ce&#xA;Altitude: 70000 ft&#xA;Speed: 0.7 kts&#xA;Heading: 0.0&#xA;Source: adsb.one</description>
          <Point>
            <coordinates>0,0,70000</coordinates>
          </Point>
        </Placemark>
        <Placemark>
          <name>TEST1234 (Unknown Type)</name>
          <description>Type: Unknown Type&#xA;Callsign: TEST1234&#xA;Hex: adf993&#xA;Altitude: 0 ft&#xA;Speed: 0.0 kts&#xA;Heading: 0.0&#xA;Source: adsb.one</description>
          <Point>
            <coordinates>0,0,0</coordinates>
          </Point>
        </Placemark>
        <Placemark>
          <name>RCH460 (C-17 Globemaster III)</name>
          <description>Type: C-17 Globemaster III&#xA;Callsign: RCH460&#xA;Hex: ae07f4&#xA;Altitude: 11850 ft&#xA;Speed: 489.0 kts&#xA;Heading: 113.0&#xA;Source: adsb.lol</description>
          <Point>
            <coordinates>-117.22208,33.574941,11850</coordinates>
          </Point>
        </Placemark>
        <Placemark>
          <name>G08748 (CH-47 Chinook)</name>
          <description>Type: CH-47 Chinook&#xA;Callsign: G08748&#xA;Hex: ae4cf3&#xA;Altitude: 0 ft&#xA;Speed: 0.0 kts&#xA;Heading: 270.0&#xA;Source: adsb.lol</description>
          <Point>
            <coordinates>-118.833,45.695374,0</coordinates>
          </Point>
        </Placemark>
        <Placemark>
          <name>SHOOT92 (T-38 Talon)</name>
          <description>Type: T-38 Talon&#xA;Callsign: SHOOT92&#xA;Hex: ae0027&#xA;Altitude: 21950 ft&#xA;Speed: 478.8 kts&#xA;Heading: 353.8&#xA;Source: adsb.one</description>
          <Point>
            <coordinates>-97.288868,34.672714,21950</coordinates>
          </Point>
        </Placemark>
        <Placemark>
          <name>CAPE32 (H-60 Black Hawk)</name>
          <description>Type: H-60 Black Hawk&#xA;Callsign: CAPE32&#xA;Hex: ae487a&#xA;Altitude: 800 ft&#xA;Speed: 104.0 kts&#xA;Heading: 49.0&#xA;Source: adsb.one</description>
          <Point>
            <coordinates>-86.032372,31.414215,800</coordinates>
          </Point>
        </Placemark>
        <Placemark>
          <name>PAT841 (BE20)</name>
          <description>Type: BE20&#xA;Callsign: PAT841&#xA;Hex: ae08fa&#xA;Altitude: 850 ft&#xA;Speed: 120.4 kts&#xA;Heading: 336.0&#xA;Source: adsb.one</description>
          <Point>
            <coordinates>-71.471492,43.151318,850</coordinates>
          </Point>
        </Placemark>
        <Placemark>
          <name>e80674 (C-130 Hercules)</name>
          <description>Type: C-130 Hercules&#xA;Hex: e80674&#xA;Altitude: 16450 ft&#xA;Speed: 0.0 kts&#xA;Heading: 0.0&#xA;Source: adsb.lol</description>
          <Point>
            <coordinates>0,0,16450</coordinates>
          </Point>
        </Placemark>
        <Placemark>
          <name>ae6801 (Unknown Type)</name>
          <description>Type: Unknown Type&#xA;Hex: ae6801&#xA;Altitude: 0 ft&#xA;Speed: 0.0 kts&#xA;Heading: 0.0&#xA;Source: adsb.lol</description>
          <Point>
            <coordinates>0,0,0</coordinates>
          </Point>
        </Placemark>
        <Placemark>
          <name>ae576d (AH-64 Apache)</name>
          <description>Type: AH-64 Apache&#xA;Hex: ae576d&#xA;Altitude: 1000 ft&#xA;Speed: 0.0 kts&#xA;Heading: 0.0&#xA;Source: adsb.lol</description>
          <Point>
            <coordinates>0,0,1000</coordinates>
          </Point>
        </Placemark>
        <Placemark>
          <name>C6058 (H-60 Black Hawk)</name>
          <description>Type: H-60 Black Hawk&#xA;Callsign: C6058&#xA;Hex: ae6cec&#xA;Altitude: 1675 ft&#xA;Speed: 79.0 kts&#xA;Heading: 358.6&#xA;Source: adsb.lol</description>
          <Point>
            <coordinates>-119.131762,34.131363,1675</coordinates>
          </Point>
        </Placemark>
        <Placemark>
          <name>SOLID62 (T-38 Talon)</name>
          <description>Type: T-38 Talon&#xA;Callsign: SOLID62&#xA;Hex: ae0005&#xA;Altitude: 16650 ft&#xA;Speed: 414.8 kts&#xA;Heading: 246.7&#xA;Source: adsb.lol</description>
          <Point>
            <coordinates>-99.087868,36.00032,16650</coordinates>
          </Point>
        </Placemark>
        <Placemark>
          <name>R20063 (H-60 Black Hawk)</name>
          <description>Type: H-60 Black Hawk&#xA;Callsign: R20063&#xA;Hex: ae47fc&#xA;Altitude: 375 ft&#xA;Speed: 88.2 kts&#xA;Heading: 93.9&#xA;Source: adsb.one</description>
          <Point>
            <coordinates>-78.976593,35.154202,375</coordinates>
          </Point>
        </Placemark>
        <Placemark>
          <name>COMT451 (A400M Atlas)</name>
          <description>Type: A400M Atlas&#xA;Callsign: COMT451&#xA;Hex: 43c5e1&#xA;Altitude: 750 ft&#xA;Speed: 267.5 kts&#xA;Heading: 259.4&#xA;Source: adsb.one</description>
          <Point>
            <coordinates>-3.587333,50.840195,750</coordinates>
          </Point>
        </Placemark>
        <Placemark>
          <name>SQF900 (GL5T)</name>
          <description>Type: GL5T&#xA;Callsign: SQF900&#xA;Hex: 505fa1&#xA;Altitude: 0 ft&#xA;Speed: 0.0 kts&#xA;Heading: 0.0&#xA;Source: adsb.one</description>
          <Point>
            <coordinates>17.199386,48.167612,0</coordinates>
          </Point>
        </Placemark>
        <Placemark>
          <name>TEST1234 (Unknown Type)</name>
          <description>Type: Unknown Type&#xA;Callsign: TEST1234&#xA;Hex: 40003e&#xA;Altitude: 0 ft&#xA;Speed: 0.0 kts&#xA;Heading: 0.0&#xA;Source: adsb.lol</description>
          <Point>
            <coordinates>0,0,0</coordinates>
          </Point>
        </Placemark>
        <Placemark>
          <name>ae5a38 (Unknown Type)</name>
          <description>Type: Unknown Type&#xA;Hex: ae5a38&#xA;Altitude: 0 ft&#xA;Speed: 0.0 kts&#xA;Heading: 0.0&#xA;Source: adsb.one</description>
          <Point>
            <coordinates>0,0,0</coordinates>
          </Point>
        </Placemark>
        <Placemark>
          <name>MESSY47 (EC45)</name>
          <description>Type: EC45&#xA;Callsign: MESSY47&#xA;Hex: ae1f5a&#xA;Altitude: 0 ft&#xA;Speed: 0.0 kts&#xA;Heading: 0.0&#xA;Source: adsb.lol</description>
          <Point>
            <coordinates>0,0,0</coordinates>
          </Point>
        </Placemark>
        <Placemark>
          <name>RN110 (TEX2)</name>
          <description>Type: TEX2&#xA;Callsign: RN110&#xA;Hex: ae2eeb&#xA;Altitude: 2775 ft&#xA;Speed: 213.2 kts&#xA;Heading: 267.6&#xA;Source: adsb.one</description>
          <Point>
            <coordinates>-87.289716,30.834183,2775</coordinates>
          </Point>
        </Placemark>
        <Placemark>
          <name>3f68a6 (Unknown Type)</name>
          <description>Type: Unknown Type&#xA;Hex: 3f68a6&#xA;Altitude: 17850 ft&#xA;Speed: 0.0 kts&#xA;Heading: 0.0&#xA;Source: adsb.lol</description>
          <Point>
            <coordinates>0,0,17850</coordinates>
          </Point>
        </Placemark>
        <Placemark>
          <name>ae6793 (Unknown Type)</name>
          <description>Type: Unknown Type&#xA;Hex: ae6793&#xA;Altitude: 21275 ft&#xA;Speed: 326.6 kts&#xA;Heading: 264.4&#xA;Source: adsb.one</description>
          <Point>
            <coordinates>-117.911189,47.307222,21275</coordinates>
          </Point>
        </Placemark>
        <Placemark>
          <name>TETON37 (C-130 Hercules)</name>
          <description>Type: C-130 Hercules&#xA;Callsign: TETON37&#xA;Hex: adfe74&#xA;Altitude: 20900 ft&#xA;Speed: 350.3 kts&#xA;Heading: 99.0&#xA;Source: adsb.one</description>
          <Point>
            <coordinates>-101.728882,40.806427,20900</coordinates>
          </Point>
        </Placemark>
        <Placemark>
          <name>STAFF3 (T-38 Talon)</name>
          <description>Type: T-38 Talon&#xA;Callsign: STAFF3&#xA;Hex: ae0104&#xA;Altitude: 12675 ft&#xA;Speed: 438.9 kts&#xA;Heading: 167.2&#xA;Source: adsb.one</description>
          <Point>
            <coordinates>-98.744774,35.012869,12675</coordinates>
          </Point>
        </Placemark>
        <Placemark>
          <name>RIVER21 (Unknown Type)</name>
          <description>Type: Unknown Type&#xA;Callsign: RIVER21&#xA;Hex: ae61cb&#xA;Altitude: 40650 ft&#xA;Speed: 663.4 kts&#xA;Heading: 87.9&#xA;Source: adsb.one</description>
          <Point>
            <coordinates>-83.310414,25.248863,40650</coordinates>
          </Point>
        </Placemark>
        <Placemark>
          <name>COSMO42 (C30J)</name>
          <description>Type: C30J&#xA;Callsign: COSMO42&#xA;Hex: 33ffe5&#xA;Altitude: 700 ft&#xA;Speed: 142.0 kts&#xA;Heading: 11.4&#xA;Source: adsb.one</description>
          <Point>
            <coordinates>10.328745,43.622681,700</coordinates>
          </Point>
        </Placemark>
        <Placemark>
          <name>JANET10 (B350)</name>
          <description>Type: B350&#xA;Callsign: JANET10&#xA;Hex: ac96df&#xA;Altitude: 14975 ft&#xA;Speed: 236.4 kts&#xA;Heading: 220.0&#xA;Source: adsb.lol</description>
          <Point>
            <coordinates>-116.073362,36.981491,14975</coordinates>
          </Point>
        </Placemark>
        <Placemark>
          <name>ae05ad (KC-135 Stratotanker)</name>
          <description>Type: KC-135 Stratotanker&#xA;Hex: ae05ad&#xA;Altitude: 6950 ft&#xA;Speed: 498.0 kts&#xA;Heading: 301.0&#xA;Source: adsb.lol</description>
          <Point>
            <coordinates>-122.014763,38.169881,6950</coordinates>
          </Point>
        </Placemark>
        <Placemark>
          <name>ae67b5 (Unknown Type)</name>
          <description>Type: Unknown Type&#xA;Hex: ae67b5&#xA;Altitude: 20000 ft&#xA;Speed: 387.8 kts&#xA;Heading: 283.6&#xA;Source: adsb.lol</description>
          <Point>
            <coordinates>-120.852426,48.140228,20000</coordinates>
          </Point>
        </Placemark>
        <Placemark>
          <name>CASTL04 (C-130 Hercules)</name>
          <description>Type: C-130 Hercules&#xA;Callsign: CASTL04&#xA;Hex: adfea3&#xA;Altitude: 1400 ft&#xA;Speed: 136.3 kts&#xA;Heading: 172.0&#xA;Source: adsb.one</description>
          <Point>
            <coordinates>-75.452209,40.709427,1400</coordinates>
          </Point>
        </Placemark>
        <Placemark>
          <name>adfaed (Unknown Type)</name>
          <description>Type: Unknown Type&#xA;Hex: adfaed&#xA;Altitude: 80000 ft&#xA;Speed: 0.0 kts&#xA;Heading: 0.0&#xA;Source: adsb.one</description>
          <Point>
            <coordinates>0,0,80000</coordinates>
          </Point>
        </Placemark>
        <Placemark>
          <name>43c6c4 (LYNX)</name>
          <description>Type: LYNX&#xA;Hex: 43c6c4&#xA;Altitude: 0 ft&#xA;Speed: 0.0 kts&#xA;Heading: 0.0&#xA;Source: adsb.one</description>
          <Point>
            <coordinates>0,0,0</coordinates>
          </Point>
        </Placemark>
        <Placemark>
          <name>ae0505 (KC-135 Stratotanker)</name>
          <description>Type: KC-135 Stratotanker&#xA;Hex: ae0505&#xA;Altitude: 0 ft&#xA;Speed: 0.0 kts&#xA;Heading: 0.0&#xA;Source: adsb.one</description>
          <Point>
            <coordinates>0,0,0</coordinates>
          </Point>
        </Placemark>
        <Placemark>
          <name>TIGER20 (TEX2)</name>
          <description>Type: TEX2&#xA;Callsign: TIGER20&#xA;Hex: ae1e94&#xA;Altitude: 2250 ft&#xA;Speed: 177.0 kts&#xA;Heading: 149.8&#xA;Source: adsb.one</description>
          <Point>
            <coordinates>-100.761795,29.335876,2250</coordinates>
          </Point>
        </Placemark>
        <Placemark>
          <name>MNTNA57 (BE9L)</name>
          <description>Type: BE9L&#xA;Callsign: MNTNA57&#xA;Hex: ae14ae&#xA;Altitude: 11050 ft&#xA;Speed: 224.3 kts&#xA;Heading: 6.1&#xA;Source: adsb.one</description>
          <Point>
            <coordinates>-96.534334,29.243231,11050</coordinates>
          </Point>
        </Placemark>
        <Placemark>
          <name>BB158 (TEX2)</name>
          <description>Type: TEX2&#xA;Callsign: BB158&#xA;Hex: ae4a27&#xA;Altitude: 1325 ft&#xA;Speed: 209.0 kts&#xA;Heading: 260.4&#xA;Source: adsb.one</description>
          <Point>
            <coordinates>-89.936398,30.170471,1325</coordinates>
          </Point>
        </Placemark>
        <Placemark>
          <name>SH190 (TEX2)</name>
          <description>Type: TEX2&#xA;Callsign: SH190&#xA;Hex: ae4ea8&#xA;Altitude: 1475 ft&#xA;Speed: 116.7 kts&#xA;Heading: 134.7&#xA;Source: adsb.one</description>
          <Point>
            <coordinates>-85.516232,31.37677,1475</coordinates>
          </Point>
        </Placemark>
        <Placemark>
          <name>APACHE1 (Unknown Type)</name>
          <description>Type: Unknown Type&#xA;Callsign: APACHE1&#xA;Hex: 48088e&#xA;Altitude: 800 ft&#xA;Speed: 117.3 kts&#xA;Heading: 197.3&#xA;Source: adsb.one</description>
          <Point>
            <coordinates>4.991208,51.65451,800</coordinates>
          </Point>
        </Placemark>
        <Placemark>
          <name>RCH199 (C-17 Globemaster III)</name>
          <description>Type: C-17 Globemaster III&#xA;Callsign: RCH199&#xA;Hex: ae49c7&#xA;Altitude: 30000 ft&#xA;Speed: 446.0 kts&#xA;Heading: 343.0&#xA;Source: adsb.one</description>
          <Point>
            <coordinates>24.321999,40.034251,30000</coordinates>
          </Point>
        </Placemark>
        <Placemark>
          <name>ae05ab (KC-135 Stratotanker)</name>
          <description>Type: KC-135 Stratotanker&#xA;Hex: ae05ab&#xA;Altitude: 36000 ft&#xA;Speed: 0.0 kts&#xA;Heading: 0.0&#xA;Source: adsb.lol</description>
          <Point>
            <coordinates>0,0,36000</coordinates>
          </Point>
        </Placemark>
        <Placemark>
          <name>ae013a (KC-135 Stratotanker)</name>
          <description>Type: KC-135 Stratotanker&#xA;Hex: ae013a&#xA;Altitude: 12700 ft&#xA;Speed: 166.0 kts&#xA;Heading: 11.8&#xA;Source: adsb.one</description>
          <Point>
            <coordinates>0,0,12700</coordinates>
          </Point>
        </Placemark>
        <Placemark>
          <name>CFC3360 (A310)</name>
          <description>Type: A310&#xA;Callsign: CFC3360&#xA;Hex: c2b37d&#xA;Altitude: 0 ft&#xA;Speed: 0.0 kts&#xA;Heading: 0.0&#xA;Source: adsb.lol</description>
          <Point>
            <coordinates>-147.857437,64.821477,0</coordinates>
          </Point>
        </Placemark>
        <Placemark>
          <name>SWOOP11 (TEX2)</name>
          <description>Type: TEX2&#xA;Callsign: SWOOP11&#xA;Hex: ae112b&#xA;Altitude: 3900 ft&#xA;Speed: 160.7 kts&#xA;Heading: 148.5&#xA;Source: adsb.one</description>
          <Point>
            <coordinates>-100.738328,29.301003,3900</coordinates>
          </Point>
        </Placemark>
        <Placemark>
          <name>SOLID61 (T-38 Talon)</name>
          <description>Type: T-38 Talon&#xA;Callsign: SOLID61&#xA;Hex: ae001d&#xA;Altitude: 16650 ft&#xA;Speed: 417.0 kts&#xA;Heading: 241.7&#xA;Source: adsb.one</description>
          <Point>
            <coordinates>-99.082775,36.00238,16650</coordinates>
          </Point>
        </Placemark>
        <Placemark>
          <name>STAFF2 (Unknown Type)</name>
          <description>Type: Unknown Type&#xA;Callsign: STAFF2&#xA;Hex: ae0106&#xA;Altitude: 14725 ft&#xA;Speed: 511.9 kts&#xA;Heading: 61.5&#xA;Source: adsb.one</description>
          <Point>
            <coordinates>-98.755589,35.029069,14725</coordinates>
          </Point>
        </Placemark>
        <Placemark>
          <name>EASY61 (BE20)</name>
          <description>Type: BE20&#xA;Callsign: EASY61&#xA;Hex: ae06d9&#xA;Altitude: 1825 ft&#xA;Speed: 231.5 kts&#xA;Heading: 38.2&#xA;Source: adsb.one</description>
          <Point>
            <coordinates>-89.832775,29.901443,1825</coordinates>
          </Point>
        </Placemark>
        <Placemark>
          <name>KATT28 (TEX2)</name>
          <description>Type: TEX2&#xA;Callsign: KATT28&#xA;Hex: ae1142&#xA;Altitude: 14250 ft&#xA;Speed: 175.0 kts&#xA;Heading: 269.0&#xA;Source: adsb.one</description>
          <Point>
            <coordinates>-87.193048,30.497535,14250</coordinates>
          </Point>
        </Placemark>
        <Placemark>
          <name>GAFTT15 (Unknown Type)</name>
          <description>Type: Unknown Type&#xA;Callsign: GAFTT15&#xA;Hex: 3ea3b8&#xA;Altitude: 0 ft&#xA;Speed: 0.0 kts&#xA;Heading: 0.0&#xA;Source: adsb.one</description>
          <Point>
            <coordinates>0,0,0</coordinates>
          </Point>
        </Placemark>
        <Placemark>
          <name>BELLS50 (EC45)</name>
          <description>Type: EC45&#xA;Callsign: BELLS50&#xA;Hex: ae5a77&#xA;Altitude: 0 ft&#xA;Speed: 0.0 kts&#xA;Heading: 0.0&#xA;Source: adsb.one</description>
          <Point>
            <coordinates>0,0,0</coordinates>
          </Point>
        </Placemark>
        <Placemark>
          <name>TACK3 (T-38 Talon)</name>
          <description>Type: T-38 Talon&#xA;Callsign: TACK3&#xA;Hex: ae00d7&#xA;Altitude: 11675 ft&#xA;Speed: 394.0 kts&#xA;Heading: 333.3&#xA;Source: adsb.lol</description>
          <Point>
            <coordinates>-99.075552,29.217224,11675</coordinates>
          </Point>
        </Placemark>
        <Placemark>
          <name>BASHA93 (T-38 Talon)</name>
          <description>Type: T-38 Talon&#xA;Callsign: BASHA93&#xA;Hex: ae0051&#xA;Altitude: 16075 ft&#xA;Speed: 353.7 kts&#xA;Heading: 237.7&#xA;Source: adsb.lol</description>
          <Point>
            <coordinates>-98.810306,33.949036,16075</coordinates>
          </Point>
        </Placemark>
        <Placemark>
          <name>HAWK271 (Unknown Type)</name>
          <description>Type: Unknown Type&#xA;Callsign: HAWK271&#xA;Hex: ae629c&#xA;Altitude: 11325 ft&#xA;Speed: 246.7 kts&#xA;Heading: 344.7&#xA;Source: adsb.one</description>
          <Point>
            <coordinates>-98.363239,27.429062,11325</coordinates>
          </Point>
        </Placemark>
        <Placemark>
          <name>SPUD61 (H-60 Black Hawk)</name>
          <description>Type: H-60 Black Hawk&#xA;Callsign: SPUD61&#xA;Hex: ae648e&#xA;Altitude: 825 ft&#xA;Speed: 105.0 kts&#xA;Heading: 83.6&#xA;Source: adsb.one</description>
          <Point>
            <coordinates>-85.893318,31.329666,825</coordinates>
          </Point>
        </Placemark>
        <Placemark>
          <name>82037 (A124)</name>
          <description>Type: A124&#xA;Callsign: 82037&#xA;Hex: 154075&#xA;Altitude: 27200 ft&#xA;Speed: 0.0 kts&#xA;Heading: 0.0&#xA;Source: adsb.one</description>
          <Point>
            <coordinates>0,0,27200</coordinates>
          </Point>
        </Placemark>
        <Placemark>
          <name>ae5c58 (P-8A Poseidon)</name>
          <description>Type: P-8A Poseidon&#xA;Hex: ae5c58&#xA;Altitude: 1225 ft&#xA;Speed: 0.0 kts&#xA;Heading: 0.0&#xA;Source: adsb.lol</description>
          <Point>
            <coordinates>0,0,1225</coordinates>
          </Point>
        </Placemark>
        <Placemark>
          <name>7cfa05 (PC21)</name>
          <description>Type: PC21&#xA;Hex: 7cfa05&#xA;Altitude: 0 ft&#xA;Speed: 17.5 kts&#xA;Heading: 309.4&#xA;Source: adsb.one</description>
          <Point>
            <coordinates>0,0,0</coordinates>
          </Point>
        </Placemark>
        <Placemark>
          <name>FANGS96 (TEX2)</name>
          <description>Type: TEX2&#xA;Callsign: FANGS96&#xA;Hex: ae1e54&#xA;Altitude: 19150 ft&#xA;Speed: 188.1 kts&#xA;Heading: 261.4&#xA;Source: adsb.lol</description>
          <Point>
            <coordinates>-97.845208,29.223214,19150</coordinates>
          </Point>
        </Placemark>
        <Placemark>
          <name>NORTH48 (BE20)</name>
          <description>Type: BE20&#xA;Callsign: NORTH48&#xA;Hex: ae04fa&#xA;Altitude: 0 ft&#xA;Speed: 13.8 kts&#xA;Heading: 0.0&#xA;Source: adsb.one</description>
          <Point>
            <coordinates>-151.255401,60.562623,0</coordinates>
          </Point>
        </Placemark>
        <Placemark>
          <name>BALL52 (TEX2)</name>
          <description>Type: TEX2&#xA;Callsign: BALL52&#xA;Hex: ae141a&#xA;Altitude: 9875 ft&#xA;Speed: 243.7 kts&#xA;Heading: 144.3&#xA;Source: adsb.one</description>
          <Point>
            <coordinates>-97.378889,35.213699,9875</coordinates>
          </Point>
        </Placemark>
        <Placemark>
          <name>PAT375 (BE20)</name>
          <description>Type: BE20&#xA;Callsign: PAT375&#xA;Hex: ae03fa&#xA;Altitude: 26000 ft&#xA;Speed: 236.3 kts&#xA;Heading: 249.9&#xA;Source: adsb.one</description>
          <Point>
            <coordinates>-89.679771,32.849866,26000</coordinates>
          </Point>
        </Placemark>
        <Placemark>
          <name>QUESO29 (BE20)</name>
          <description>Type: BE20&#xA;Callsign: QUESO29&#xA;Hex: ae08f8&#xA;Altitude: 19975 ft&#xA;Speed: 231.9 kts&#xA;Heading: 274.9&#xA;Source: adsb.one</description>
          <Point>
            <coordinates>-88.978217,31.311454,19975</coordinates>
          </Point>
        </Placemark>
        <Placemark>
          <name>BELLS31 (EC45)</name>
          <description>Type: EC45&#xA;Callsign: BELLS31&#xA;Hex: ae2068&#xA;Altitude: 1800 ft&#xA;Speed: 85.6 kts&#xA;Heading: 247.3&#xA;Source: adsb.one</description>
          <Point>
            <coordinates>-85.800531,31.286828,1800</coordinates>
          </Point>
        </Placemark>
        <Placemark>
          <name>TEST1234 (Unknown Type)</name>
          <description>Type: Unknown Type&#xA;Callsign: TEST1234&#xA;Hex: adfbe1&#xA;Altitude: 0 ft&#xA;Speed: 0.0 kts&#xA;Heading: 0.0&#xA;Source: adsb.one</description>
          <Point>
            <coordinates>0,0,0</coordinates>
          </Point>
        </Placemark>
        <Placemark>
          <name>4448d6 (Unknown Type)</name>
          <description>Type: Unknown Type&#xA;Hex: 4448d6&#xA;Altitude: 6300 ft&#xA;Speed: 0.0 kts&#xA;Heading: 0.0&#xA;Source: adsb.lol</description>
          <Point>
            <coordinates>0,0,6300</coordinates>
          </Point>
        </Placemark>
        <Placemark>
          <name>ae73da (A119)</name>
          <description>Type: A119&#xA;Hex: ae73da&#xA;Altitude: 375 ft&#xA;Speed: 75.4 kts&#xA;Heading: 21.8&#xA;Source: adsb.one</description>
          <Point>
            <coordinates>-86.927563,30.608143,375</coordinates>
          </Point>
        </Placemark>
        <Placemark>
          <name>PAT486 (BE20)</name>
          <description>Type: BE20&#xA;Callsign: PAT486&#xA;Hex: adfecc&#xA;Altitude: 15425 ft&#xA;Speed: 170.8 kts&#xA;Heading: 303.8&#xA;Source: adsb.one</description>
          <Point>
            <coordinates>-105.228284,35.146179,15425</coordinates>
          </Point>
        </Placemark>
        <Placemark>
          <name>BOBCT15 (HAWK)</name>
          <description>Type: HAWK&#xA;Callsign: BOBCT15&#xA;Hex: ae62c8&#xA;Altitude: 15800 ft&#xA;Speed: 319.0 kts&#xA;Heading: 349.9&#xA;Source: adsb.one</description>
          <Point>
            <coordinates>-88.444116,32.053299,15800</coordinates>
          </Point>
        </Placemark>
        <Placemark>
          <name>N (C208)</name>
          <description>Type: C208&#xA;Callsign: N&#xA;Hex: ae17cb&#xA;Altitude: 325 ft&#xA;Speed: 104.8 kts&#xA;Heading: 240.3&#xA;Source: airplanes.live</description>
          <Point>
            <coordinates>-78.729916,35.391815,325</coordinates>
          </Point>
        </Placemark>
        <Placemark>
          <name>ae6d88 (C30J)</name>
          <description>Type: C30J&#xA;Hex: ae6d88&#xA;Altitude: 19000 ft&#xA;Speed: 372.0 kts&#xA;Heading: 65.0&#xA;Source: adsb.one</description>
          <Point>
            <coordinates>-72.096303,43.217247,19000</coordinates>
          </Point>
        </Placemark>
        <Placemark>
          <name>SHARK72 (SR20)</name>
          <description>Type: SR20&#xA;Callsign: SHARK72&#xA;Hex: ae4ee5&#xA;Altitude: 7900 ft&#xA;Speed: 118.8 kts&#xA;Heading: 353.2&#xA;Source: adsb.lol</description>
          <Point>
            <coordinates>-104.795658,38.889221,7900</coordinates>
          </Point>
        </Placemark>
        <Placemark>
          <name>BRCAT22 (TEX2)</name>
          <description>Type: TEX2&#xA;Callsign: BRCAT22&#xA;Hex: ae2ef8&#xA;Altitude: 8975 ft&#xA;Speed: 263.9 kts&#xA;Heading: 40.4&#xA;Source: adsb.one</description>
          <Point>
            <coordinates>-102.927433,34.411102,8975</coordinates>
          </Point>
        </Placemark>
        <Placemark>
          <name>LUZON41 (TEX2)</name>
          <description>Type: TEX2&#xA;Callsign: LUZON41&#xA;Hex: ae0898&#xA;Altitude: 10550 ft&#xA;Speed: 233.7 kts&#xA;Heading: 342.6&#xA;Source: adsb.one</description>
          <Point>
            <coordinates>-98.025297,29.14212,10550</coordinates>
          </Point>
        </Placemark>
        <Placemark>
          <name>ROVE33 (TEX2)</name>
          <description>Type: TEX2&#xA;Callsign: ROVE33&#xA;Hex: ae13fd&#xA;Altitude: 2525 ft&#xA;Speed: 168.7 kts&#xA;Heading: 118.7&#xA;Source: adsb.lol</description>
          <Point>
            <coordinates>-97.817761,31.048946,2525</coordinates>
          </Point>
        </Placemark>
        <Placemark>
          <name>TEAL29 (C30J)</name>
          <description>Type: C30J&#xA;Callsign: TEAL29&#xA;Hex: ae0112&#xA;Altitude: 10825 ft&#xA;Speed: 271.5 kts&#xA;Heading: 86.6&#xA;Source: adsb.one</description>
          <Point>
            <coordinates>-90.782336,30.3245,10825</coordinates>
          </Point>
        </Placemark>
        <Placemark>
          <name>RAIDR72 (C30J)</name>
          <description>Type: C30J&#xA;Callsign: RAIDR72&#xA;Hex: ae2f99&#xA;Altitude: 20975 ft&#xA;Speed: 341.1 kts&#xA;Heading: 82.2&#xA;Source: adsb.one</description>
          <Point>
            <coordinates>-88.110071,33.533951,20975</coordinates>
          </Point>
        </Placemark>
        <Placemark>
          <name>ae67c2 (Unknown Type)</name>
          <description>Type: Unknown Type&#xA;Hex: ae67c2&#xA;Altitude: 22125 ft&#xA;Speed: 376.2 kts&#xA;Heading: 276.3&#xA;Source: adsb.one</description>
          <Point>
            <coordinates>-114.936923,48.058482,22125</coordinates>
          </Point>
        </Placemark>
        <Placemark>
          <name>MNTNA71 (BE9L)</name>
          <description>Type: BE9L&#xA;Callsign: MNTNA71&#xA;Hex: ae1477&#xA;Altitude: 2950 ft&#xA;Speed: 179.0 kts&#xA;Heading: 342.6&#xA;Source: adsb.one</description>
          <Point>
            <coordinates>-98.057732,27.473082,2950</coordinates>
          </Point>
        </Placemark>
        <Placemark>
          <name>ae05a0 (KC-135 Stratotanker)</name>
          <description>Type: KC-135 Stratotanker&#xA;Hex: ae05a0&#xA;Altitude: 31000 ft&#xA;Speed: 540.6 kts&#xA;Heading: 81.1&#xA;Source: adsb.one</description>
          <Point>
            <coordinates>-82.079432,43.421539,31000</coordinates>
          </Point>
        </Placemark>
        <Placemark>
          <name>7TVPM (GLF4)</name>
          <description>Type: GLF4&#xA;Callsign: 7TVPM&#xA;Hex: 0a400a&#xA;Altitude: 24150 ft&#xA;Speed: 333.0 kts&#xA;Heading: 245.8&#xA;Source: adsb.one</description>
          <Point>
            <coordinates>4.567451,36.552155,24150</coordinates>
          </Point>
        </Placemark>
        <Placemark>
          <name>ae01d8 (RC-135 Rivet Joint)</name>
          <description>Type: RC-135 Rivet Joint&#xA;Hex: ae01d8&#xA;Altitude: 33475 ft&#xA;Speed: 0.0 kts&#xA;Heading: 0.0&#xA;Source: adsb.one</description>
          <Point>
            <coordinates>0,0,33475</coordinates>
          </Point>
        </Placemark>
        <Placemark>
          <name>DUKE32 (Unknown Type)</name>
          <description>Type: Unknown Type&#xA;Callsign: DUKE32&#xA;Hex: ae2216&#xA;Altitude: 2900 ft&#xA;Speed: 41.0 kts&#xA;Heading: 259.0&#xA;Source: adsb.lol</description>
          <Point>
            <coordinates>-117.473507,33.256102,2900</coordinates>
          </Point>
        </Placemark>
        <Placemark>
          <name>G026022 (H-60 Black Hawk)</name>
          <description>Type: H-60 Black Hawk&#xA;Callsign: G026022&#xA;Hex: ae0bec&#xA;Altitude: 5100 ft&#xA;Speed: 97.5 kts&#xA;Heading: 159.0&#xA;Source: adsb.lol</description>
          <Point>
            <coordinates>-111.999512,40.604279,5100</coordinates>
          </Point>
        </Placemark>
        <Placemark>
          <name>CASH11 (TEX2)</name>
          <description>Type: TEX2&#xA;Callsign: CASH11&#xA;Hex: ae1e8f&#xA;Altitude: 7975 ft&#xA;Speed: 248.3 kts&#xA;Heading: 197.3&#xA;Source: adsb.lol</description>
          <Point>
            <coordinates>-100.955469,29.968185,7975</coordinates>
          </Point>
        </Placemark>
        <Placemark>
          <name>HAWK264 (HAWK)</name>
          <description>Type: HAWK&#xA;Callsign: HAWK264&#xA;Hex: ae631e&#xA;Altitude: 0 ft&#xA;Speed: 0.0 kts&#xA;Heading: 0.0&#xA;Source: adsb.lol</description>
          <Point>
            <coordinates>0,0,0</coordinates>
          </Point>
        </Placemark>
        <Placemark>
          <name>FANNY67 (TEX2)</name>
          <description>Type: TEX2&#xA;Callsign: FANNY67&#xA;Hex: ae1e44&#xA;Altitude: 3425 ft&#xA;Speed: 213.5 kts&#xA;Heading: 164.8&#xA;Source: adsb.one</description>
          <Point>
            <coordinates>-98.23253,29.366827,3425</coordinates>
          </Point>
        </Placemark>
        <Placemark>
          <name>SHOOT35 (T-38 Talon)</name>
          <description>Type: T-38 Talon&#xA;Callsign: SHOOT35&#xA;Hex: ae0034&#xA;Altitude: 18725 ft&#xA;Speed: 437.3 kts&#xA;Heading: 272.2&#xA;Source: adsb.one</description>
          <Point>
            <coordinates>-94.879646,35.355011,18725</coordinates>
          </Point>
        </Placemark>
        <Placemark>
          <name>VV7E012 (Unknown Type)</name>
          <description>Type: Unknown Type&#xA;Callsign: VV7E012&#xA;Hex: ae6d55&#xA;Altitude: 1075 ft&#xA;Speed: 112.7 kts&#xA;Heading: 21.3&#xA;Source: adsb.one</description>
          <Point>
            <coordinates>-86.914655,30.671082,1075</coordinates>
          </Point>
        </Placemark>
        <Placemark>
          <name>ae6a73 (H-60 Black Hawk)</name>
          <description>Type: H-60 Black Hawk&#xA;Hex: ae6a73&#xA;Altitude: 2750 ft&#xA;Speed: 0.0 kts&#xA;Heading: 0.0&#xA;Source: adsb.one</description>
          <Point>
            <coordinates>0,0,2750</coordinates>
          </Point>
        </Placemark>
        <Placemark>
          <name>MESSY16 (EC45)</name>
          <description>Type: EC45&#xA;Callsign: MESSY16&#xA;Hex: ae1f58&#xA;Altitude: 650 ft&#xA;Speed: 82.5 kts&#xA;Heading: 256.0&#xA;Source: adsb.lol</description>
          <Point>
            <coordinates>-85.570203,31.211506,650</coordinates>
          </Point>
        </Placemark>
        <Placemark>
          <name>MESSY62 (EC45)</name>
          <description>Type: EC45&#xA;Callsign: MESSY62&#xA;Hex: ae632b&#xA;Altitude: 775 ft&#xA;Speed: 94.4 kts&#xA;Heading: 257.1&#xA;Source: adsb.one</description>
          <Point>
            <coordinates>-85.567072,31.241905,775</coordinates>
          </Point>
        </Placemark>
        <Placemark>
          <name>TACO19 (C30J)</name>
          <description>Type: C30J&#xA;Callsign: TACO19&#xA;Hex: ae596d&#xA;Altitude: 4675 ft&#xA;Speed: 253.7 kts&#xA;Heading: 263.4&#xA;Source: adsb.one</description>
          <Point>
            <coordinates>-80.767607,28.251855,4675</coordinates>
          </Point>
        </Placemark>
        <Placemark>
          <name>ae023e (KC-135 Stratotanker)</name>
          <description>Type: KC-135 Stratotanker&#xA;Hex: ae023e&#xA;Altitude: 0 ft&#xA;Speed: 0.0 kts&#xA;Heading: 0.0&#xA;Source: adsb.lol</description>
          <Point>
            <coordinates>0,0,0</coordinates>
          </Point>
        </Placemark>
        <Placemark>
          <name>3ad8ed (Unknown Type)</name>
          <description>Type: Unknown Type&#xA;Hex: 3ad8ed&#xA;Altitude: 0 ft&#xA;Speed: 0.0 kts&#xA;Heading: 0.0&#xA;Source: adsb.lol</description>
          <Point>
            <coordinates>0,0,0</coordinates>
          </Point>
        </Placemark>
        <Placemark>
          <name>TRON11 (GLF5)</name>
          <description>Type: GLF5&#xA;Callsign: TRON11&#xA;Hex: ae142e&#xA;Altitude: 4475 ft&#xA;Speed: 219.2 kts&#xA;Heading: 314.6&#xA;Source: adsb.one</description>
          <Point>
            <coordinates>-110.852765,32.138443,4475</coordinates>
          </Point>
        </Placemark>
        <Placemark>
          <name>TETON38 (C-130 Hercules)</name>
          <description>Type: C-130 Hercules&#xA;Callsign: TETON38&#xA;Hex: adfe75&#xA;Altitude: 21000 ft&#xA;Speed: 300.6 kts&#xA;Heading: 167.1&#xA;Source: adsb.one</description>
          <Point>
            <coordinates>-100.796029,34.074875,21000</coordinates>
          </Point>
        </Placemark>
        <Placemark>
          <name>BALL24 (TEX2)</name>
          <description>Type: TEX2&#xA;Callsign: BALL24&#xA;Hex: ae13c6&#xA;Altitude: 3025 ft&#xA;Speed: 222.9 kts&#xA;Heading: 277.5&#xA;Source: adsb.one</description>
          <Point>
            <coordinates>-97.715967,36.157402,3025</coordinates>
          </Point>
        </Placemark>
        <Placemark>
          <name>MNTNA65 (BE9L)</name>
          <description>Type: BE9L&#xA;Callsign: MNTNA65&#xA;Hex: ae14ba&#xA;Altitude: 1550 ft&#xA;Speed: 109.0 kts&#xA;Heading: 165.2&#xA;Source: adsb.one</description>
          <Point>
            <coordinates>-97.402298,27.796783,1550</coordinates>
          </Point>
        </Placemark>
        <Placemark>
          <name>BB094 (TEX2)</name>
          <description>Type: TEX2&#xA;Callsign: BB094&#xA;Hex: ae2edb&#xA;Altitude: 650 ft&#xA;Speed: 126.0 kts&#xA;Heading: 181.4&#xA;Source: adsb.one</description>
          <Point>
            <coordinates>-85.435895,32.626007,650</coordinates>
          </Point>
        </Placemark>
        <Placemark>
          <name>APACHE2 (AH-64 Apache)</name>
          <description>Type: AH-64 Apache&#xA;Callsign: APACHE2&#xA;Hex: 48088b&#xA;Altitude: 700 ft&#xA;Speed: 122.2 kts&#xA;Heading: 208.9&#xA;Source: adsb.one</description>
          <Point>
            <coordinates>4.88127,51.617386,700</coordinates>
          </Point>
        </Placemark>
        <Placemark>
          <name>N453SP (C172)</name>
          <description>Type: C172&#xA;Callsign: N453SP&#xA;Hex: a57edf&#xA;Altitude: 450 ft&#xA;Speed: 64.9 kts&#xA;Heading: 80.2&#xA;Source: adsb.lol</description>
          <Point>
            <coordinates>-149.84904,61.248314,450</coordinates>
          </Point>
        </Placemark>
        <Placemark>
          <name>73156 (AH-64 Apache)</name>
          <description>Type: AH-64 Apache&#xA;Callsign: 73156&#xA;Hex: ae6049&#xA;Altitude: 1100 ft&#xA;Speed: 110.0 kts&#xA;Heading: 150.0&#xA;Source: adsb.one</description>
          <Point>
            <coordinates>-122.815554,47.212246,1100</coordinates>
          </Point>
        </Placemark>
        <Placemark>
          <name>C6596 (AS65)</name>
          <description>Type: AS65&#xA;Callsign: C6596&#xA;Hex: ae26b6&#xA;Altitude: 8975 ft&#xA;Speed: 136.0 kts&#xA;Heading: 115.2&#xA;Source: adsb.one</description>
          <Point>
            <coordinates>-101.91215,34.696793,8975</coordinates>
          </Point>
        </Placemark>
        <Placemark>
          <name>ORCA82 (T-38 Talon)</name>
          <description>Type: T-38 Talon&#xA;Callsign: ORCA82&#xA;Hex: ae005b&#xA;Altitude: 14150 ft&#xA;Speed: 435.3 kts&#xA;Heading: 328.7&#xA;Source: adsb.one</description>
          <Point>
            <coordinates>-99.547348,33.979828,14150</coordinates>
          </Point>
        </Placemark>
        <Placemark>
          <name>STEEL31 (TEX2)</name>
          <description>Type: TEX2&#xA;Callsign: STEEL31&#xA;Hex: ae11c4&#xA;Altitude: 11525 ft&#xA;Speed: 257.1 kts&#xA;Heading: 7.4&#xA;Source: adsb.lol</description>
          <Point>
            <coordinates>-97.904887,34.033813,11525</coordinates>
          </Point>
        </Placemark>
        <Placemark>
          <name>RN223 (TEX2)</name>
          <description>Type: TEX2&#xA;Callsign: RN223&#xA;Hex: ae54f1&#xA;Altitude: 3250 ft&#xA;Speed: 203.2 kts&#xA;Heading: 73.7&#xA;Source: adsb.one</description>
          <Point>
            <coordinates>-87.67343,31.337265,3250</coordinates>
          </Point>
        </Placemark>
        <Placemark>
          <name>ae5245 (CH-47 Chinook)</name>
          <description>Type: CH-47 Chinook&#xA;Hex: ae5245&#xA;Altitude: 725 ft&#xA;Speed: 0.0 kts&#xA;Heading: 0.0&#xA;Source: adsb.one</description>
          <Point>
            <coordinates>-85.477672,31.436325,725</coordinates>
          </Point>
        </Placemark>
        <Placemark>
          <name>RCH137 (C-17 Globemaster III)</name>
          <description>Type: C-17 Globemaster III&#xA;Callsign: RCH137&#xA;Hex: ae145c&#xA;Altitude: 36000 ft&#xA;Speed: 0.0 kts&#xA;Heading: 0.0&#xA;Source: adsb.lol</description>
          <Point>
            <coordinates>0,0,36000</coordinates>
          </Point>
        </Placemark>
        <Placemark>
          <name>R08478 (CH-47 Chinook)</name>
          <description>Type: CH-47 Chinook&#xA;Callsign: R08478&#xA;Hex: ae6996&#xA;Altitude: 475 ft&#xA;Speed: 41.2 kts&#xA;Heading: 256.0&#xA;Source: adsb.one</description>
          <Point>
            <coordinates>-117.137464,32.870535,475</coordinates>
          </Point>
        </Placemark>
        <Placemark>
          <name>HAWK201 (HAWK)</name>
          <description>Type: HAWK&#xA;Callsign: HAWK201&#xA;Hex: ae62f7&#xA;Altitude: 8900 ft&#xA;Speed: 295.8 kts&#xA;Heading: 100.3&#xA;Source: adsb.lol</description>
          <Point>
            <coordinates>-98.30442,27.847229,8900</coordinates>
          </Point>
        </Placemark>
        <Placemark>
          <name>RN163 (TEX2)</name>
          <description>Type: TEX2&#xA;Callsign: RN163&#xA;Hex: ae4a2c&#xA;Altitude: 1300 ft&#xA;Speed: 212.2 kts&#xA;Heading: 237.5&#xA;Source: adsb.one</description>
          <Point>
            <coordinates>-87.265887,30.287724,1300</coordinates>
          </Point>
        </Placemark>
        <Placemark>
          <name>VV7E642 (A119)</name>
          <description>Type: A119&#xA;Callsign: VV7E642&#xA;Hex: ae73de&#xA;Altitude: 300 ft&#xA;Speed: 64.0 kts&#xA;Heading: 61.0&#xA;Source: adsb.one</description>
          <Point>
            <coordinates>-87.177971,30.820862,300</coordinates>
          </Point>
        </Placemark>
        <Placemark>
          <name>WEIRD86 (EC45)</name>
          <description>Type: EC45&#xA;Callsign: WEIRD86&#xA;Hex: ae5a74&#xA;Altitude: 775 ft&#xA;Speed: 81.0 kts&#xA;Heading: 154.4&#xA;Source: adsb.one</description>
          <Point>
            <coordinates>-85.761969,31.156296,775</coordinates>
          </Point>
        </Placemark>
        <Placemark>
          <name>VFR (Unknown Type)</name>
          <description>Type: Unknown Type&#xA;Callsign: VFR&#xA;Hex: c239fc&#xA;Altitude: 0 ft&#xA;Speed: 0.0 kts&#xA;Heading: 0.0&#xA;Source: adsb.one</description>
          <Point>
            <coordinates>0,0,0</coordinates>
          </Point>
        </Placemark>
        <Placemark>
          <name>HAF356C (C-130 Hercules)</name>
          <description>Type: C-130 Hercules&#xA;Callsign: HAF356C&#xA;Hex: 4682ef&#xA;Altitude: 16200 ft&#xA;Speed: 0.0 kts&#xA;Heading: 0.0&#xA;Source: adsb.one</description>
          <Point>
            <coordinates>0,0,16200</coordinates>
          </Point>
        </Placemark>
        <Placemark>
          <name>HANG51 (TEX2)</name>
          <description>Type: TEX2&#xA;Callsign: HANG51&#xA;Hex: ae13b5&#xA;Altitude: 4025 ft&#xA;Speed: 222.1 kts&#xA;Heading: 130.1&#xA;Source: adsb.one</description>
          <Point>
            <coordinates>-97.64292,36.238543,4025</coordinates>
          </Point>
        </Placemark>
        <Placemark>
          <name>C6585 (AS65)</name>
          <description>Type: AS65&#xA;Callsign: C6585&#xA;Hex: ae26ab&#xA;Altitude: 200 ft&#xA;Speed: 58.8 kts&#xA;Heading: 144.7&#xA;Source: adsb.one</description>
          <Point>
            <coordinates>-88.057672,30.374311,200</coordinates>
          </Point>
        </Placemark>
        <Placemark>
          <name>TESLA88 (H-60 Black Hawk)</name>
          <description>Type: H-60 Black Hawk&#xA;Callsign: TESLA88&#xA;Hex: ae5d47&#xA;Altitude: 750 ft&#xA;Speed: 105.0 kts&#xA;Heading: 0.0&#xA;Source: adsb.one</description>
          <Point>
            <coordinates>-86.06781,31.282883,750</coordinates>
          </Point>
        </Placemark>
        <Placemark>
          <name>ae485c (H-60 Black Hawk)</name>
          <description>Type: H-60 Black Hawk&#xA;Hex: ae485c&#xA;Altitude: 0 ft&#xA;Speed: 89.0 kts&#xA;Heading: 272.7&#xA;Source: adsb.one</description>
          <Point>
            <coordinates>-86.027786,31.287294,0</coordinates>
          </Point>
        </Placemark>
        <Placemark>
          <name>SQUIB08 (EC45)</name>
          <description>Type: EC45&#xA;Callsign: SQUIB08&#xA;Hex: ae5a91&#xA;Altitude: 225 ft&#xA;Speed: 59.0 kts&#xA;Heading: 2.4&#xA;Source: adsb.one</description>
          <Point>
            <coordinates>-85.712906,31.271301,225</coordinates>
          </Point>
        </Placemark>
        <Placemark>
          <name>ae68a4 (Unknown Type)</name>
          <description>Type: Unknown Type&#xA;Hex: ae68a4&#xA;Altitude: 1300 ft&#xA;Speed: 211.7 kts&#xA;Heading: 114.3&#xA;Source: adsb.one</description>
          <Point>
            <coordinates>-74.512451,39.433377,1300</coordinates>
          </Point>
        </Placemark>
        <Placemark>
          <name>LUNA305 (Unknown Type)</name>
          <description>Type: Unknown Type&#xA;Callsign: LUNA305&#xA;Hex: 3f7128&#xA;Altitude: 0 ft&#xA;Speed: 0.0 kts&#xA;Heading: 0.0&#xA;Source: airplanes.live</description>
          <Point>
            <coordinates>10.76031,47.959161,0</coordinates>
          </Point>
        </Placemark>
        <Placemark>
          <name>TXLU03 (A139)</name>
          <description>Type: A139&#xA;Callsign: TXLU03&#xA;Hex: 4ca331&#xA;Altitude: 0 ft&#xA;Speed: 0.0 kts&#xA;Heading: 0.0&#xA;Source: adsb.lol</description>
          <Point>
            <coordinates>0,0,0</coordinates>
          </Point>
        </Placemark>
        <Placemark>
          <name>LYRE71 (TEX2)</name>
          <description>Type: TEX2&#xA;Callsign: LYRE71&#xA;Hex: ae1e4c&#xA;Altitude: 12875 ft&#xA;Speed: 293.0 kts&#xA;Heading: 171.8&#xA;Source: adsb.one</description>
          <Point>
            <coordinates>-97.885545,29.236155,12875</coordinates>
          </Point>
        </Placemark>
        <Placemark>
          <name>STGRY22 (BE9L)</name>
          <description>Type: BE9L&#xA;Callsign: STGRY22&#xA;Hex: ae14a7&#xA;Altitude: 2925 ft&#xA;Speed: 157.0 kts&#xA;Heading: 79.5&#xA;Source: adsb.one</description>
          <Point>
            <coordinates>-97.112465,28.982121,2925</coordinates>
          </Point>
        </Placemark>
        <Placemark>
          <name>MORPH33 (EC45)</name>
          <description>Type: EC45&#xA;Callsign: MORPH33&#xA;Hex: ae205a&#xA;Altitude: 775 ft&#xA;Speed: 93.2 kts&#xA;Heading: 218.5&#xA;Source: adsb.one</description>
          <Point>
            <coordinates>-85.63645,31.191117,775</coordinates>
          </Point>
        </Placemark>
        <Placemark>
          <name>MESSY13 (EC45)</name>
          <description>Type: EC45&#xA;Callsign: MESSY13&#xA;Hex: ae2065&#xA;Altitude: 450 ft&#xA;Speed: 52.0 kts&#xA;Heading: 67.4&#xA;Source: adsb.lol</description>
          <Point>
            <coordinates>-85.565039,31.224355,450</coordinates>
          </Point>
        </Placemark>
        <Placemark>
          <name>ae749c (P-8A Poseidon)</name>
          <description>Type: P-8A Poseidon&#xA;Hex: ae749c&#xA;Altitude: 16225 ft&#xA;Speed: 335.0 kts&#xA;Heading: 279.4&#xA;Source: adsb.one</description>
          <Point>
            <coordinates>-82.235031,30.309603,16225</coordinates>
          </Point>
        </Placemark>
        <Placemark>
          <name>7cf9d3 (P-8A Poseidon)</name>
          <description>Type: P-8A Poseidon&#xA;Hex: 7cf9d3&#xA;Altitude: 0 ft&#xA;Speed: 0.0 kts&#xA;Heading: 0.0&#xA;Source: adsb.one</description>
          <Point>
            <coordinates>138.627505,-34.709488,0</coordinates>
          </Point>
        </Placemark>
        <Placemark>
          <name>TEST1234 (Unknown Type)</name>
          <description>Type: Unknown Type&#xA;Callsign: TEST1234&#xA;Hex: adf994&#xA;Altitude: 0 ft&#xA;Speed: 0.0 kts&#xA;Heading: 0.0&#xA;Source: adsb.lol</description>
          <Point>
            <coordinates>0,0,0</coordinates>
          </Point>
        </Placemark>
        <Placemark>
          <name>G26676 (H-60 Black Hawk)</name>
          <description>Type: H-60 Black Hawk&#xA;Callsign: G26676&#xA;Hex: ae0e43&#xA;Altitude: 800 ft&#xA;Speed: 0.0 kts&#xA;Heading: 0.0&#xA;Source: adsb.one</description>
          <Point>
            <coordinates>0,0,800</coordinates>
          </Point>
        </Placemark>
        <Placemark>
          <name>XA405 (A332)</name>
          <description>Type: A332&#xA;Callsign: XA405&#xA;Hex: 7cf867&#xA;Altitude: 30000 ft&#xA;Speed: 492.0 kts&#xA;Heading: 207.8&#xA;Source: adsb.one</description>
          <Point>
            <coordinates>-163.181992,14.088421,30000</coordinates>
          </Point>
        </Placemark>
        <Placemark>
          <name>BASHA91 (T-38 Talon)</name>
          <description>Type: T-38 Talon&#xA;Callsign: BASHA91&#xA;Hex: ae00a0&#xA;Altitude: 17950 ft&#xA;Speed: 370.0 kts&#xA;Heading: 235.8&#xA;Source: adsb.one</description>
          <Point>
            <coordinates>-98.869386,33.919968,17950</coordinates>
          </Point>
        </Placemark>
        <Placemark>
          <name>0d01e0 (B732)</name>
          <description>Type: B732&#xA;Hex: 0d01e0&#xA;Altitude: 30950 ft&#xA;Speed: 447.0 kts&#xA;Heading: 6.7&#xA;Source: adsb.lol</description>
          <Point>
            <coordinates>-98.409335,23.164948,30950</coordinates>
          </Point>
        </Placemark>
        <Placemark>
          <name>PAT123 (BE20)</name>
          <description>Type: BE20&#xA;Callsign: PAT123&#xA;Hex: ae0631&#xA;Altitude: 16350 ft&#xA;Speed: 311.1 kts&#xA;Heading: 358.9&#xA;Source: adsb.one</description>
          <Point>
            <coordinates>-98.003426,34.585147,16350</coordinates>
          </Point>
        </Placemark>
        <Placemark>
          <name>GOAT28 (TEX2)</name>
          <description>Type: TEX2&#xA;Callsign: GOAT28&#xA;Hex: ae0206&#xA;Altitude: 3250 ft&#xA;Speed: 135.1 kts&#xA;Heading: 134.7&#xA;Source: adsb.lol</description>
          <Point>
            <coordinates>-97.16524,30.028107,3250</coordinates>
          </Point>
        </Placemark>
        <Placemark>
          <name>WEIRD99 (EC45)</name>
          <description>Type: EC45&#xA;Callsign: WEIRD99&#xA;Hex: ae5a4f&#xA;Altitude: 775 ft&#xA;Speed: 85.0 kts&#xA;Heading: 269.3&#xA;Source: adsb.lol</description>
          <Point>
            <coordinates>-85.724835,31.163697,775</coordinates>
          </Point>
        </Placemark>
        <Placemark>
          <name>POBOY11 (EC45)</name>
          <description>Type: EC45&#xA;Callsign: POBOY11&#xA;Hex: ae1fb7&#xA;Altitude: 1800 ft&#xA;Speed: 108.6 kts&#xA;Heading: 301.1&#xA;Source: adsb.lol</description>
          <Point>
            <coordinates>-85.400714,30.946701,1800</coordinates>
          </Point>
        </Placemark>
        <Placemark>
          <name>FFAB123 (H-60 Black Hawk)</name>
          <description>Type: H-60 Black Hawk&#xA;Callsign: FFAB123&#xA;Hex: ae4f87&#xA;Altitude: 625 ft&#xA;Speed: 75.8 kts&#xA;Heading: 337.5&#xA;Source: adsb.one</description>
          <Point>
            <coordinates>-81.547658,29.737381,625</coordinates>
          </Point>
        </Placemark>
        <Placemark>
          <name>VAPOR81 (T-38 Talon)</name>
          <description>Type: T-38 Talon&#xA;Callsign: VAPOR81&#xA;Hex: ae0017&#xA;Altitude: 15075 ft&#xA;Speed: 474.0 kts&#xA;Heading: 270.2&#xA;Source: adsb.one</description>
          <Point>
            <coordinates>-98.956375,36.252182,15075</coordinates>
          </Point>
        </Placemark>
        <Placemark>
          <name>ae07ac (KC-135 Stratotanker)</name>
          <description>Type: KC-135 Stratotanker&#xA;Hex: ae07ac&#xA;Altitude: 34000 ft&#xA;Speed: 0.0 kts&#xA;Heading: 0.0&#xA;Source: adsb.lol</description>
          <Point>
            <coordinates>0,0,34000</coordinates>
          </Point>
        </Placemark>
        <Placemark>
          <name>TEST1234 (Unknown Type)</name>
          <description>Type: Unknown Type&#xA;Callsign: TEST1234&#xA;Hex: adf991&#xA;Altitude: 0 ft&#xA;Speed: 0.0 kts&#xA;Heading: 0.0&#xA;Source: adsb.lol</description>
          <Point>
            <coordinates>0,0,0</coordinates>
          </Point>
        </Placemark>
        <Placemark>
          <name>ae5975 (AH-64 Apache)</name>
          <description>Type: AH-64 Apache&#xA;Hex: ae5975&#xA;Altitude: 2900 ft&#xA;Speed: 0.0 kts&#xA;Heading: 0.0&#xA;Source: adsb.lol</description>
          <Point>
            <coordinates>0,0,2900</coordinates>
          </Point>
        </Placemark>
        <Placemark>
          <name>N43128 (P28A)</name>
          <description>Type: P28A&#xA;Callsign: N43128&#xA;Hex: a52994&#xA;Altitude: 700 ft&#xA;Speed: 79.1 kts&#xA;Heading: 237.9&#xA;Source: adsb.lol</description>
          <Point>
            <coordinates>-71.46236,42.758556,700</coordinates>
          </Point>
        </Placemark>
        <Placemark>
          <name>c29b9e (Unknown Type)</name>
          <description>Type: Unknown Type&#xA;Hex: c29b9e&#xA;Altitude: 0 ft&#xA;Speed: 0.0 kts&#xA;Heading: 0.0&#xA;Source: adsb.lol</description>
          <Point>
            <coordinates>0,0,0</coordinates>
          </Point>
        </Placemark>
        <Placemark>
          <name>44fd19 (Unknown Type)</name>
          <description>Type: Unknown Type&#xA;Hex: 44fd19&#xA;Altitude: 49000 ft&#xA;Speed: 0.0 kts&#xA;Heading: 0.0&#xA;Source: adsb.lol</description>
          <Point>
            <coordinates>0,0,49000</coordinates>
          </Point>
        </Placemark>
        <Placemark>
          <name>CFC3823 (CL60)</name>
          <description>Type: CL60&#xA;Callsign: CFC3823&#xA;Hex: c2c1f1&#xA;Altitude: 2200 ft&#xA;Speed: 170.0 kts&#xA;Heading: 88.7&#xA;Source: adsb.one</description>
          <Point>
            <coordinates>-149.91806,61.169952,2200</coordinates>
          </Point>
        </Placemark>
        <Placemark>
          <name>SH157 (TEX2)</name>
          <description>Type: TEX2&#xA;Callsign: SH157&#xA;Hex: ae4a26&#xA;Altitude: 4000 ft&#xA;Speed: 251.3 kts&#xA;Heading: 182.7&#xA;Source: adsb.one</description>
          <Point>
            <coordinates>-86.951514,31.394876,4000</coordinates>
          </Point>
        </Placemark>
        <Placemark>
          <name>c87f25 (TEX2)</name>
          <description>Type: TEX2&#xA;Hex: c87f25&#xA;Altitude: 11475 ft&#xA;Speed: 0.0 kts&#xA;Heading: 0.0&#xA;Source: adsb.one</description>
          <Point>
            <coordinates>173.723623,-41.751709,11475</coordinates>
          </Point>
        </Placemark>
        <Placemark>
          <name>adf7e3 (Unknown Type)</name>
          <description>Type: Unknown Type&#xA;Hex: adf7e3&#xA;Altitude: 0 ft&#xA;Speed: 0.0 kts&#xA;Heading: 0.0&#xA;Source: adsb.one</description>
          <Point>
            <coordinates>0,0,0</coordinates>
          </Point>
        </Placemark>
        <Placemark>
          <name>GAFTT33 (Unknown Type)</name>
          <description>Type: Unknown Type&#xA;Callsign: GAFTT33&#xA;Hex: 3ea3c3&#xA;Altitude: 62700 ft&#xA;Speed: 0.0 kts&#xA;Heading: 0.0&#xA;Source: adsb.one</description>
          <Point>
            <coordinates>0,0,62700</coordinates>
          </Point>
        </Placemark>
        <Placemark>
          <name>ae0421 (KC-135 Stratotanker)</name>
          <description>Type: KC-135 Stratotanker&#xA;Hex: ae0421&#xA;Altitude: 2825 ft&#xA;Speed: 0.0 kts&#xA;Heading: 0.0&#xA;Source: adsb.one</description>
          <Point>
            <coordinates>0,0,2825</coordinates>
          </Point>
        </Placemark>
        <Placemark>
          <name>GRAIL41 (TEX2)</name>
          <description>Type: TEX2&#xA;Callsign: GRAIL41&#xA;Hex: ae112d&#xA;Altitude: 4175 ft&#xA;Speed: 216.0 kts&#xA;Heading: 268.9&#xA;Source: adsb.one</description>
          <Point>
            <coordinates>-88.200604,33.351837,4175</coordinates>
          </Point>
        </Placemark>
        <Placemark>
          <name>ROKT31 (HAWK)</name>
          <description>Type: HAWK&#xA;Callsign: ROKT31&#xA;Hex: ae627d&#xA;Altitude: 6750 ft&#xA;Speed: 282.8 kts&#xA;Heading: 342.7&#xA;Source: adsb.lol</description>
          <Point>
            <coordinates>-87.147271,29.771413,6750</coordinates>
          </Point>
        </Placemark>
        <Placemark>
          <name>TEX02 (TEX2)</name>
          <description>Type: TEX2&#xA;Callsign: TEX02&#xA;Hex: c87f22&#xA;Altitude: 1925 ft&#xA;Speed: 119.5 kts&#xA;Heading: 170.8&#xA;Source: adsb.one</description>
          <Point>
            <coordinates>175.356029,-40.11276,1925</coordinates>
          </Point>
        </Placemark>
        <Placemark>
          <name>RCH284 (C-17 Globemaster III)</name>
          <description>Type: C-17 Globemaster III&#xA;Callsign: RCH284&#xA;Hex: ae123f&#xA;Altitude: 31000 ft&#xA;Speed: 0.0 kts&#xA;Heading: 0.0&#xA;Source: adsb.one</description>
          <Point>
            <coordinates>0,0,31000</coordinates>
          </Point>
        </Placemark>
        <Placemark>
          <name>BALL64 (TEX2)</name>
          <description>Type: TEX2&#xA;Callsign: BALL64&#xA;Hex: ae1e60&#xA;Altitude: 2925 ft&#xA;Speed: 195.5 kts&#xA;Heading: 184.1&#xA;Source: adsb.lol</description>
          <Point>
            <coordinates>-97.288786,35.40968,2925</coordinates>
          </Point>
        </Placemark>
        <Placemark>
          <name>TALON91 (HAWK)</name>
          <description>Type: HAWK&#xA;Callsign: TALON91&#xA;Hex: ae62eb&#xA;Altitude: 9700 ft&#xA;Speed: 286.0 kts&#xA;Heading: 276.8&#xA;Source: adsb.one</description>
          <Point>
            <coordinates>-88.769806,32.570526,9700</coordinates>
          </Point>
        </Placemark>
        <Placemark>
          <name>REEF52 (T-38 Talon)</name>
          <description>Type: T-38 Talon&#xA;Callsign: REEF52&#xA;Hex: adff95&#xA;Altitude: 15325 ft&#xA;Speed: 416.2 kts&#xA;Heading: 292.3&#xA;Source: adsb.lol</description>
          <Point>
            <coordinates>-87.730426,34.274094,15325</coordinates>
          </Point>
        </Placemark>
        <Placemark>
          <name>BELLS03 (EC45)</name>
          <description>Type: EC45&#xA;Callsign: BELLS03&#xA;Hex: ae1f2e&#xA;Altitude: 875 ft&#xA;Speed: 81.0 kts&#xA;Heading: 60.4&#xA;Source: adsb.one</description>
          <Point>
            <coordinates>-85.767303,31.248413,875</coordinates>
          </Point>
        </Placemark>
        <Placemark>
          <name>c38ca9 (Unknown Type)</name>
          <description>Type: Unknown Type&#xA;Hex: c38ca9&#xA;Altitude: 0 ft&#xA;Speed: 0.0 kts&#xA;Heading: 0.0&#xA;Source: adsb.lol</description>
          <Point>
            <coordinates>0,0,0</coordinates>
          </Point>
        </Placemark>
        <Placemark>
          <name>REEF51 (Unknown Type)</name>
          <description>Type: Unknown Type&#xA;Callsign: REEF51&#xA;Hex: adff7b&#xA;Altitude: 15575 ft&#xA;Speed: 416.9 kts&#xA;Heading: 309.6&#xA;Source: adsb.one</description>
          <Point>
            <coordinates>-87.73447,34.273806,15575</coordinates>
          </Point>
        </Placemark>
        <Placemark>
          <name>SHARK40 (SR20)</name>
          <description>Type: SR20&#xA;Callsign: SHARK40&#xA;Hex: ae4ed9&#xA;Altitude: 6275 ft&#xA;Speed: 73.0 kts&#xA;Heading: 179.2&#xA;Source: adsb.lol</description>
          <Point>
            <coordinates>-104.301086,38.771497,6275</coordinates>
          </Point>
        </Placemark>
        <Placemark>
          <name>SHARK51 (SR20)</name>
          <description>Type: SR20&#xA;Callsign: SHARK51&#xA;Hex: ae4edb&#xA;Altitude: 7225 ft&#xA;Speed: 104.8 kts&#xA;Heading: 346.8&#xA;Source: adsb.one</description>
          <Point>
            <coordinates>-104.800913,38.960083,7225</coordinates>
          </Point>
        </Placemark>
        <Placemark>
          <name>DEVIL73 (TEX2)</name>
          <description>Type: TEX2&#xA;Callsign: DEVIL73&#xA;Hex: ae1117&#xA;Altitude: 10125 ft&#xA;Speed: 135.7 kts&#xA;Heading: 174.1&#xA;Source: adsb.lol</description>
          <Point>
            <coordinates>-100.514074,28.93071,10125</coordinates>
          </Point>
        </Placemark>
        <Placemark>
          <name>RASTA41 (TEX2)</name>
          <description>Type: TEX2&#xA;Callsign: RASTA41&#xA;Hex: ae141f&#xA;Altitude: 11050 ft&#xA;Speed: 182.7 kts&#xA;Heading: 7.9&#xA;Source: adsb.lol</description>
          <Point>
            <coordinates>-100.341851,29.516353,11050</coordinates>
          </Point>
        </Placemark>
        <Placemark>
          <name>ORCA83 (T-38 Talon)</name>
          <description>Type: T-38 Talon&#xA;Callsign: ORCA83&#xA;Hex: adff46&#xA;Altitude: 16525 ft&#xA;Speed: 412.3 kts&#xA;Heading: 134.3&#xA;Source: adsb.one</description>
          <Point>
            <coordinates>-99.548745,33.930817,16525</coordinates>
          </Point>
        </Placemark>
        <Placemark>
          <name>ae4eca (V-22 Osprey)</name>
          <description>Type: V-22 Osprey&#xA;Hex: ae4eca&#xA;Altitude: 5700 ft&#xA;Speed: 0.0 kts&#xA;Heading: 0.0&#xA;Source: adsb.lol</description>
          <Point>
            <coordinates>0,0,5700</coordinates>
          </Point>
        </Placemark>
        <Placemark>
          <name>TEST1234 (TWR)</name>
          <description>Type: TWR&#xA;Callsign: TEST1234&#xA;Hex: adfbdd&#xA;Altitude: 0 ft&#xA;Speed: 0.0 kts&#xA;Heading: 0.0&#xA;Source: adsb.lol</description>
          <Point>
            <coordinates>0,0,0</coordinates>
          </Point>
        </Placemark>
        <Placemark>
          <name>ICY14 (Unknown Type)</name>
          <description>Type: Unknown Type&#xA;Callsign: ICY14&#xA;Hex: ae0cce&#xA;Altitude: 6700 ft&#xA;Speed: 125.2 kts&#xA;Heading: 187.8&#xA;Source: adsb.one</description>
          <Point>
            <coordinates>-149.06272,63.275105,6700</coordinates>
          </Point>
        </Placemark>
        <Placemark>
          <name>R26344 (H-60 Black Hawk)</name>
          <description>Type: H-60 Black Hawk&#xA;Callsign: R26344&#xA;Hex: ae0cc7&#xA;Altitude: 2800 ft&#xA;Speed: 82.0 kts&#xA;Heading: 269.3&#xA;Source: adsb.one</description>
          <Point>
            <coordinates>-116.724644,34.851566,2800</coordinates>
          </Point>
        </Placemark>
        <Placemark>
          <name>C2310 (CN35)</name>
          <description>Type: CN35&#xA;Callsign: C2310&#xA;Hex: ae2708&#xA;Altitude: 1175 ft&#xA;Speed: 125.0 kts&#xA;Heading: 352.6&#xA;Source: adsb.one</description>
          <Point>
            <coordinates>-89.423712,30.41402,1175</coordinates>
          </Point>
        </Placemark>
        <Placemark>
          <name>SH246 (TEX2)</name>
          <description>Type: TEX2&#xA;Callsign: SH246&#xA;Hex: ae58eb&#xA;Altitude: 3250 ft&#xA;Speed: 219.2 kts&#xA;Heading: 30.4&#xA;Source: adsb.one</description>
          <Point>
            <coordinates>-87.501819,31.273281,3250</coordinates>
          </Point>
        </Placemark>
        <Placemark>
          <name>SH224 (TEX2)</name>
          <description>Type: TEX2&#xA;Callsign: SH224&#xA;Hex: ae54f2&#xA;Altitude: 5750 ft&#xA;Speed: 226.5 kts&#xA;Heading: 263.4&#xA;Source: adsb.one</description>
          <Point>
            <coordinates>-87.410687,30.783459,5750</coordinates>
          </Point>
        </Placemark>
        <Placemark>
          <name>BELLS75 (EC45)</name>
          <description>Type: EC45&#xA;Callsign: BELLS75&#xA;Hex: ae5a94&#xA;Altitude: 2775 ft&#xA;Speed: 0.0 kts&#xA;Heading: 0.0&#xA;Source: adsb.one</description>
          <Point>
            <coordinates>-86.01988,31.08046,2775</coordinates>
          </Point>
        </Placemark>
        <Placemark>
          <name>G20686 (H-60 Black Hawk)</name>
          <description>Type: H-60 Black Hawk&#xA;Callsign: G20686&#xA;Hex: ae579e&#xA;Altitude: 2675 ft&#xA;Speed: 98.0 kts&#xA;Heading: 114.7&#xA;Source: adsb.lol</description>
          <Point>
            <coordinates>-82.156031,29.161067,2675</coordinates>
          </Point>
        </Placemark>
        <Placemark>
          <name>400032 (Unknown Type)</name>
          <description>Type: Unknown Type&#xA;Hex: 400032&#xA;Altitude: 0 ft&#xA;Speed: 0.0 kts&#xA;Heading: 0.0&#xA;Source: adsb.one</description>
          <Point>
            <coordinates>0,0,0</coordinates>
          </Point>
        </Placemark>
        <Placemark>
          <name>VAPOR82 (T-38 Talon)</name>
          <description>Type: T-38 Talon&#xA;Callsign: VAPOR82&#xA;Hex: ae002a&#xA;Altitude: 15375 ft&#xA;Speed: 455.5 kts&#xA;Heading: 265.3&#xA;Source: adsb.one</description>
          <Point>
            <coordinates>-98.963091,36.267917,15375</coordinates>
          </Point>
        </Placemark>
        <Placemark>
          <name>RGR840Z (TEX2)</name>
          <description>Type: TEX2&#xA;Callsign: RGR840Z&#xA;Hex: ae4e9e&#xA;Altitude: 1875 ft&#xA;Speed: 244.0 kts&#xA;Heading: 154.1&#xA;Source: adsb.one</description>
          <Point>
            <coordinates>-97.217049,28.070766,1875</coordinates>
          </Point>
        </Placemark>
        <Placemark>
          <name>VV8E705 (A119)</name>
          <description>Type: A119&#xA;Callsign: VV8E705&#xA;Hex: ae73e6&#xA;Altitude: 1100 ft&#xA;Speed: 86.0 kts&#xA;Heading: 299.2&#xA;Source: adsb.lol</description>
          <Point>
            <coordinates>-86.54881,30.768702,1100</coordinates>
          </Point>
        </Placemark>
        <Placemark>
          <name>ae685b (Unknown Type)</name>
          <description>Type: Unknown Type&#xA;Hex: ae685b&#xA;Altitude: 19325 ft&#xA;Speed: 354.4 kts&#xA;Heading: 331.7&#xA;Source: adsb.lol</description>
          <Point>
            <coordinates>-83.758252,35.046158,19325</coordinates>
          </Point>
        </Placemark>
        <Placemark>
          <name>36a466 (Unknown Type)</name>
          <description>Type: Unknown Type&#xA;Hex: 36a466&#xA;Altitude: 0 ft&#xA;Speed: 0.0 kts&#xA;Heading: 0.0&#xA;Source: adsb.one</description>
          <Point>
            <coordinates>0,0,0</coordinates>
          </Point>
        </Placemark>
        <Placemark>
          <name>SONIC11 (TEX2)</name>
          <description>Type: TEX2&#xA;Callsign: SONIC11&#xA;Hex: ae1401&#xA;Altitude: 5725 ft&#xA;Speed: 242.0 kts&#xA;Heading: 0.9&#xA;Source: adsb.one</description>
          <Point>
            <coordinates>-88.206427,33.183334,5725</coordinates>
          </Point>
        </Placemark>
        <Placemark>
          <name>BOBCT45 (HAWK)</name>
          <description>Type: HAWK&#xA;Callsign: BOBCT45&#xA;Hex: ae62ac&#xA;Altitude: 11800 ft&#xA;Speed: 341.4 kts&#xA;Heading: 233.9&#xA;Source: adsb.one</description>
          <Point>
            <coordinates>-88.973822,32.265976,11800</coordinates>
          </Point>
        </Placemark>
        <Placemark>
          <name>G9426581 (H-60 Black Hawk)</name>
          <description>Type: H-60 Black Hawk&#xA;Callsign: G9426581&#xA;Hex: ae0a3f&#xA;Altitude: 2400 ft&#xA;Speed: 0.0 kts&#xA;Heading: 0.0&#xA;Source: adsb.one</description>
          <Point>
            <coordinates>0,0,2400</coordinates>
          </Point>
        </Placemark>
        <Placemark>
          <name>adfe71 (C-130 Hercules)</name>
          <description>Type: C-130 Hercules&#xA;Hex: adfe71&#xA;Altitude: 19100 ft&#xA;Speed: 0.0 kts&#xA;Heading: 0.0&#xA;Source: adsb.lol</description>
          <Point>
            <coordinates>0,0,19100</coordinates>
          </Point>
        </Placemark>
        <Placemark>
          <name>JOLLY91 (H-60 Black Hawk)</name>
          <description>Type: H-60 Black Hawk&#xA;Callsign: JOLLY91&#xA;Hex: afb23c&#xA;Altitude: -200 ft&#xA;Speed: 2.1 kts&#xA;Heading: 270.0&#xA;Source: adsb.lol</description>
          <Point>
            <coordinates>-122.275802,36.860481,-200</coordinates>
          </Point>
        </Placemark>
        <Placemark>
          <name>0720075 (H-60 Black Hawk)</name>
          <description>Type: H-60 Black Hawk&#xA;Callsign: 0720075&#xA;Hex: ae4818&#xA;Altitude: 1675 ft&#xA;Speed: 94.8 kts&#xA;Heading: 46.7&#xA;Source: adsb.lol</description>
          <Point>
            <coordinates>-97.817473,31.068604,1675</coordinates>
          </Point>
        </Placemark>
        <Placemark>
          <name>SPOOKY1 (T-38 Talon)</name>
          <description>Type: T-38 Talon&#xA;Callsign: SPOOKY1&#xA;Hex: adffc6&#xA;Altitude: 13925 ft&#xA;Speed: 564.0 kts&#xA;Heading: 101.3&#xA;Source: adsb.one</description>
          <Point>
            <coordinates>-89.220486,34.42524,13925</coordinates>
          </Point>
        </Placemark>
        <Placemark>
          <name>CHAOS17 (AH-64 Apache)</name>
          <description>Type: AH-64 Apache&#xA;Callsign: CHAOS17&#xA;Hex: ae6dc4&#xA;Altitude: 300 ft&#xA;Speed: 118.0 kts&#xA;Heading: 269.0&#xA;Source: adsb.one</description>
          <Point>
            <coordinates>-80.849678,33.931503,300</coordinates>
          </Point>
        </Placemark>
        <Placemark>
          <name>RCH690 (C-17 Globemaster III)</name>
          <description>Type: C-17 Globemaster III&#xA;Callsign: RCH690&#xA;Hex: ae1459&#xA;Altitude: 27000 ft&#xA;Speed: 430.0 kts&#xA;Heading: 106.0&#xA;Source: adsb.one</description>
          <Point>
            <coordinates>12.906066,49.722579,27000</coordinates>
          </Point>
        </Placemark>
        <Placemark>
          <name>RCH409 (C-17 Globemaster III)</name>
          <description>Type: C-17 Globemaster III&#xA;Callsign: RCH409&#xA;Hex: ae2fa4&#xA;Altitude: 36000 ft&#xA;Speed: 0.0 kts&#xA;Heading: 0.0&#xA;Source: adsb.lol</description>
          <Point>
            <coordinates>0,0,36000</coordinates>
          </Point>
        </Placemark>
        <Placemark>
          <name>ae0583 (C-5M Super Galaxy)</name>
          <description>Type: C-5M Super Galaxy&#xA;Hex: ae0583&#xA;Altitude: 2950 ft&#xA;Speed: 0.0 kts&#xA;Heading: 0.0&#xA;Source: adsb.lol</description>
          <Point>
            <coordinates>-98.554274,29.701011,2950</coordinates>
          </Point>
        </Placemark>
        <Placemark>
          <name>BRCAT16 (TEX2)</name>
          <description>Type: TEX2&#xA;Callsign: BRCAT16&#xA;Hex: ae4e95&#xA;Altitude: 6925 ft&#xA;Speed: 248.0 kts&#xA;Heading: 90.9&#xA;Source: adsb.one</description>
          <Point>
            <coordinates>-103.320366,32.848049,6925</coordinates>
          </Point>
        </Placemark>
        <Placemark>
          <name>VACA51 (TEX2)</name>
          <description>Type: TEX2&#xA;Callsign: VACA51&#xA;Hex: ae13a6&#xA;Altitude: 3125 ft&#xA;Speed: 251.3 kts&#xA;Heading: 339.3&#xA;Source: adsb.one</description>
          <Point>
            <coordinates>-101.063609,29.570121,3125</coordinates>
          </Point>
        </Placemark>
        <Placemark>
          <name>HANG52 (TEX2)</name>
          <description>Type: TEX2&#xA;Callsign: HANG52&#xA;Hex: ae1732&#xA;Altitude: 6850 ft&#xA;Speed: 238.1 kts&#xA;Heading: 354.5&#xA;Source: adsb.one</description>
          <Point>
            <coordinates>-97.713146,36.296173,6850</coordinates>
          </Point>
        </Placemark>
        <Placemark>
          <name>TEST1234 (Unknown Type)</name>
          <description>Type: Unknown Type&#xA;Callsign: TEST1234&#xA;Hex: adfbdf&#xA;Altitude: 0 ft&#xA;Speed: 0.0 kts&#xA;Heading: 0.0&#xA;Source: adsb.lol</description>
          <Point>
            <coordinates>0,0,0</coordinates>
          </Point>
        </Placemark>
        <Placemark>
          <name>BOLT56 (C172)</name>
          <description>Type: C172&#xA;Callsign: BOLT56&#xA;Hex: aa7ecf&#xA;Altitude: 6950 ft&#xA;Speed: 83.2 kts&#xA;Heading: 166.8&#xA;Source: adsb.lol</description>
          <Point>
            <coordinates>-104.812914,38.956375,6950</coordinates>
          </Point>
        </Placemark>
        <Placemark>
          <name>LS30 (H-60 Black Hawk)</name>
          <description>Type: H-60 Black Hawk&#xA;Callsign: LS30&#xA;Hex: ae2762&#xA;Altitude: -100 ft&#xA;Speed: 1.2 kts&#xA;Heading: 90.0&#xA;Source: adsb.lol</description>
          <Point>
            <coordinates>-117.117554,32.563293,-100</coordinates>
          </Point>
        </Placemark>
        <Placemark>
          <name>C6547 (AS65)</name>
          <description>Type: AS65&#xA;Callsign: C6547&#xA;Hex: ae2686&#xA;Altitude: -100 ft&#xA;Speed: 1.6 kts&#xA;Heading: 315.0&#xA;Source: adsb.one</description>
          <Point>
            <coordinates>-124.211988,40.779388,-100</coordinates>
          </Point>
        </Placemark>
        <Placemark>
          <name>ae68a6 (Unknown Type)</name>
          <description>Type: Unknown Type&#xA;Hex: ae68a6&#xA;Altitude: 34000 ft&#xA;Speed: 365.6 kts&#xA;Heading: 282.5&#xA;Source: adsb.one</description>
          <Point>
            <coordinates>-118.010674,47.836212,34000</coordinates>
          </Point>
        </Placemark>
        <Placemark>
          <name>SKULL82 (H-60 Black Hawk)</name>
          <description>Type: H-60 Black Hawk&#xA;Callsign: SKULL82&#xA;Hex: ae6da4&#xA;Altitude: 5175 ft&#xA;Speed: 1.2 kts&#xA;Heading: 180.0&#xA;Source: adsb.lol</description>
          <Point>
            <coordinates>-106.565781,34.951141,5175</coordinates>
          </Point>
        </Placemark>
        <Placemark>
          <name>CODE22 (TEX2)</name>
          <description>Type: TEX2&#xA;Callsign: CODE22&#xA;Hex: ae1e5c&#xA;Altitude: 2925 ft&#xA;Speed: 159.0 kts&#xA;Heading: 345.7&#xA;Source: adsb.one</description>
          <Point>
            <coordinates>-97.882233,36.221146,2925</coordinates>
          </Point>
        </Placemark>
        <Placemark>
          <name>BELLS80 (EC45)</name>
          <description>Type: EC45&#xA;Callsign: BELLS80&#xA;Hex: ae6335&#xA;Altitude: 1325 ft&#xA;Speed: 99.0 kts&#xA;Heading: 114.7&#xA;Source: adsb.one</description>
          <Point>
            <coordinates>-85.628034,31.52536,1325</coordinates>
          </Point>
        </Placemark>
        <Placemark>
          <name>MCUE12 (B762)</name>
          <description>Type: B762&#xA;Callsign: MCUE12&#xA;Hex: ae5faa&#xA;Altitude: 32004 ft&#xA;Speed: 0.0 kts&#xA;Heading: 269.2&#xA;Source: adsb.one</description>
          <Point>
            <coordinates>-6.700115,35.92495,32004</coordinates>
          </Point>
        </Placemark>
        <Placemark>
          <name>N5215F (C172)</name>
          <description>Type: C172&#xA;Callsign: N5215F&#xA;Hex: a68fb2&#xA;Altitude: 100 ft&#xA;Speed: 57.7 kts&#xA;Heading: 261.0&#xA;Source: adsb.lol</description>
          <Point>
            <coordinates>-121.705886,38.193551,100</coordinates>
          </Point>
        </Placemark>
        <Placemark>
          <name>BRACE32 (H-60 Black Hawk)</name>
          <description>Type: H-60 Black Hawk&#xA;Callsign: BRACE32&#xA;Hex: ae2767&#xA;Altitude: 475 ft&#xA;Speed: 103.1 kts&#xA;Heading: 292.8&#xA;Source: adsb.one</description>
          <Point>
            <coordinates>-118.399493,33.017075,475</coordinates>
          </Point>
        </Placemark>
        <Placemark>
          <name>SKULL44 (TEX2)</name>
          <description>Type: TEX2&#xA;Callsign: SKULL44&#xA;Hex: ae1741&#xA;Altitude: 11925 ft&#xA;Speed: 260.8 kts&#xA;Heading: 79.0&#xA;Source: adsb.lol</description>
          <Point>
            <coordinates>-98.142999,34.195999,11925</coordinates>
          </Point>
        </Placemark>
        <Placemark>
          <name>GOAT20 (TEX2)</name>
          <description>Type: TEX2&#xA;Callsign: GOAT20&#xA;Hex: ae13b6&#xA;Altitude: 12975 ft&#xA;Speed: 270.8 kts&#xA;Heading: 143.3&#xA;Source: adsb.one</description>
          <Point>
            <coordinates>-98.124178,29.244186,12975</coordinates>
          </Point>
        </Placemark>
        <Placemark>
          <name>ae0145 (KC-135 Stratotanker)</name>
          <description>Type: KC-135 Stratotanker&#xA;Hex: ae0145&#xA;Altitude: 29000 ft&#xA;Speed: 500.0 kts&#xA;Heading: 86.0&#xA;Source: adsb.lol</description>
          <Point>
            <coordinates>-92.944827,39.527844,29000</coordinates>
          </Point>
        </Placemark>
        <Placemark>
          <name>RAIDR71 (C30J)</name>
          <description>Type: C30J&#xA;Callsign: RAIDR71&#xA;Hex: ae6c1f&#xA;Altitude: 21000 ft&#xA;Speed: 330.5 kts&#xA;Heading: 71.3&#xA;Source: adsb.one</description>
          <Point>
            <coordinates>-86.523628,33.776674,21000</coordinates>
          </Point>
        </Placemark>
        <Placemark>
          <name>WING23 (C560)</name>
          <description>Type: C560&#xA;Callsign: WING23&#xA;Hex: adfec1&#xA;Altitude: 3350 ft&#xA;Speed: 256.2 kts&#xA;Heading: 87.5&#xA;Source: adsb.one</description>
          <Point>
            <coordinates>-74.99823,40.14267,3350</coordinates>
          </Point>
        </Placemark>
        <Placemark>
          <name>SAM218 (GLF5)</name>
          <description>Type: GLF5&#xA;Callsign: SAM218&#xA;Hex: ae6cf2&#xA;Altitude: 41000 ft&#xA;Speed: 554.5 kts&#xA;Heading: 95.5&#xA;Source: adsb.one</description>
          <Point>
            <coordinates>-108.400194,35.125168,41000</coordinates>
          </Point>
        </Placemark>
        <Placemark>
          <name>ROVE17 (TEX2)</name>
          <description>Type: TEX2&#xA;Callsign: ROVE17&#xA;Hex: ae1e87&#xA;Altitude: 4125 ft&#xA;Speed: 177.9 kts&#xA;Heading: 95.8&#xA;Source: adsb.lol</description>
          <Point>
            <coordinates>-102.193945,31.926086,4125</coordinates>
          </Point>
        </Placemark>
        <Placemark>
          <name>GRIM25 (T-38 Talon)</name>
          <description>Type: T-38 Talon&#xA;Callsign: GRIM25&#xA;Hex: ae0025&#xA;Altitude: 14375 ft&#xA;Speed: 440.6 kts&#xA;Heading: 107.2&#xA;Source: adsb.one</description>
          <Point>
            <coordinates>-98.357563,36.048431,14375</coordinates>
          </Point>
        </Placemark>
        <Placemark>
          <name>KATT19 (TEX2)</name>
          <description>Type: TEX2&#xA;Callsign: KATT19&#xA;Hex: ae1148&#xA;Altitude: 2775 ft&#xA;Speed: 155.9 kts&#xA;Heading: 141.5&#xA;Source: adsb.one</description>
          <Point>
            <coordinates>-88.079008,30.638809,2775</coordinates>
          </Point>
        </Placemark>
        <Placemark>
          <name>CHAOS22 (AH-64 Apache)</name>
          <description>Type: AH-64 Apache&#xA;Callsign: CHAOS22&#xA;Hex: ae7487&#xA;Altitude: 200 ft&#xA;Speed: 134.0 kts&#xA;Heading: 101.9&#xA;Source: adsb.one</description>
          <Point>
            <coordinates>-80.478401,33.837193,200</coordinates>
          </Point>
        </Placemark>
        <Placemark>
          <name>C2309 (CN35)</name>
          <description>Type: CN35&#xA;Callsign: C2309&#xA;Hex: ae2707&#xA;Altitude: 1400 ft&#xA;Speed: 175.0 kts&#xA;Heading: 0.0&#xA;Source: adsb.one</description>
          <Point>
            <coordinates>-68.88552,43.923992,1400</coordinates>
          </Point>
        </Placemark>
        <Placemark>
          <name>356182 (Unknown Type)</name>
          <description>Type: Unknown Type&#xA;Hex: 356182&#xA;Altitude: 0 ft&#xA;Speed: 2.2 kts&#xA;Heading: 0.0&#xA;Source: adsb.lol</description>
          <Point>
            <coordinates>0,0,0</coordinates>
          </Point>
        </Placemark>
        <Placemark>
          <name>WATTS17 (EC45)</name>
          <description>Type: EC45&#xA;Callsign: WATTS17&#xA;Hex: ae1f67&#xA;Altitude: 0 ft&#xA;Speed: 0.9 kts&#xA;Heading: 0.0&#xA;Source: adsb.lol</description>
          <Point>
            <coordinates>-111.488571,32.665443,0</coordinates>
          </Point>
        </Placemark>
        <Placemark>
          <name>TACK2 (T-38 Talon)</name>
          <description>Type: T-38 Talon&#xA;Callsign: TACK2&#xA;Hex: ae003a&#xA;Altitude: 17500 ft&#xA;Speed: 435.2 kts&#xA;Heading: 242.2&#xA;Source: adsb.one</description>
          <Point>
            <coordinates>-99.226931,29.600235,17500</coordinates>
          </Point>
        </Placemark>
        <Placemark>
          <name>TEXN086 (TEX2)</name>
          <description>Type: TEX2&#xA;Callsign: TEXN086&#xA;Hex: ae2ed3&#xA;Altitude: 18075 ft&#xA;Speed: 270.7 kts&#xA;Heading: 230.6&#xA;Source: adsb.one</description>
          <Point>
            <coordinates>-87.88497,30.708984,18075</coordinates>
          </Point>
        </Placemark>
        <Placemark>
          <name>CAPE47 (H-60 Black Hawk)</name>
          <description>Type: H-60 Black Hawk&#xA;Callsign: CAPE47&#xA;Hex: ae50e5&#xA;Altitude: 0 ft&#xA;Speed: 102.0 kts&#xA;Heading: 349.3&#xA;Source: adsb.one</description>
          <Point>
            <coordinates>-86.039261,31.388451,0</coordinates>
          </Point>
        </Placemark>
        <Placemark>
          <name>WEIRD13 (EC45)</name>
          <description>Type: EC45&#xA;Callsign: WEIRD13&#xA;Hex: ae1c2a&#xA;Altitude: 725 ft&#xA;Speed: 97.0 kts&#xA;Heading: 247.3&#xA;Source: adsb.one</description>
          <Point>
            <coordinates>-85.730034,31.131317,725</coordinates>
          </Point>
        </Placemark>
        <Placemark>
          <name>TROL81 (TEX2)</name>
          <description>Type: TEX2&#xA;Callsign: TROL81&#xA;Hex: c2b03f&#xA;Altitude: 7050 ft&#xA;Speed: 237.7 kts&#xA;Heading: 351.3&#xA;Source: adsb.one</description>
          <Point>
            <coordinates>-105.701913,50.027549,7050</coordinates>
          </Point>
        </Placemark>
        <Placemark>
          <name>BDIT304 (TEX2)</name>
          <description>Type: TEX2&#xA;Callsign: BDIT304&#xA;Hex: c2b017&#xA;Altitude: 0 ft&#xA;Speed: 0.0 kts&#xA;Heading: 0.0&#xA;Source: adsb.one</description>
          <Point>
            <coordinates>-105.546594,50.32362,0</coordinates>
          </Point>
        </Placemark>
        <Placemark>
          <name>LUZON41 (TEX2)</name>
          <description>Type: TEX2&#xA;Callsign: LUZON41&#xA;Hex: ae1408&#xA;Altitude: 10625 ft&#xA;Speed: 227.4 kts&#xA;Heading: 336.1&#xA;Source: adsb.one</description>
          <Point>
            <coordinates>-98.013153,29.111801,10625</coordinates>
          </Point>
        </Placemark>