<?xml version="1.0" encoding="UTF-8"?>
<kml xmlns="http://www.opengis.net/kml/2.2">
  <Document>
    <name>US Military Tracker</name>
    <description>Generated: 2026-03-02T21:47:28Z | Chairman: groq | Score: 0.00</description>
    <Folder>
      <name>Aircraft (392 tracked)</name>
      <Folder>
        <name>Unknown</name>
        <Placemark>
          <name>ae68a4 (Unknown Type)</name>
          <description>Type: Unknown Type&#xA;Hex: ae68a4&#xA;Altitude: 1350 ft&#xA;Speed: 189.6 kts&#xA;Heading: 348.8&#xA;Source: airplanes.live</description>
          <Point>
            <coordinates>-74.82782,39.475134,1350</coordinates>
          </Point>
        </Placemark>
        <Placemark>
          <name>WING14 (BE20)</name>
          <description>Type: BE20&#xA;Callsign: WING14&#xA;Hex: adfe97&#xA;Altitude: 850 ft&#xA;Speed: 0.0 kts&#xA;Heading: 0.0&#xA;Source: airplanes.live</description>
          <Point>
            <coordinates>0,0,850</coordinates>
          </Point>
        </Placemark>
        <Placemark>
          <name>350040 (Unknown Type)</name>
          <description>Type: Unknown Type&#xA;Hex: 350040&#xA;Altitude: 30275 ft&#xA;Speed: 0.0 kts&#xA;Heading: 0.0&#xA;Source: adsb.lol</description>
          <Point>
            <coordinates>0,0,30275</coordinates>
          </Point>
        </Placemark>
        <Placemark>
          <name>ae4f14 (C-17 Globemaster III)</name>
          <description>Type: C-17 Globemaster III&#xA;Hex: ae4f14&#xA;Altitude: 15875 ft&#xA;Speed: 353.0 kts&#xA;Heading: 275.0&#xA;Source: adsb.lol</description>
          <Point>
            <coordinates>-120.848651,47.038285,15875</coordinates>
          </Point>
        </Placemark>
        <Placemark>
          <name>JDGMT88 (A400M Atlas)</name>
          <description>Type: A400M Atlas&#xA;Callsign: JDGMT88&#xA;Hex: 43c5de&#xA;Altitude: 1175 ft&#xA;Speed: 269.8 kts&#xA;Heading: 309.9&#xA;Source: airplanes.live</description>
          <Point>
            <coordinates>-3.056183,50.916045,1175</coordinates>
          </Point>
        </Placemark>
        <Placemark>
          <name>7TVPM (GLF4)</name>
          <description>Type: GLF4&#xA;Callsign: 7TVPM&#xA;Hex: 0a400a&#xA;Altitude: 26000 ft&#xA;Speed: 352.0 kts&#xA;Heading: 267.6&#xA;Source: airplanes.live</description>
          <Point>
            <coordinates>5.356121,36.723679,26000</coordinates>
          </Point>
        </Placemark>
        <Placemark>
          <name>JOKER49 (Unknown Type)</name>
          <description>Type: Unknown Type&#xA;Callsign: JOKER49&#xA;Hex: 3f6f33&#xA;Altitude: 1425 ft&#xA;Speed: 92.0 kts&#xA;Heading: 227.6&#xA;Source: adsb.lol</description>
          <Point>
            <coordinates>9.115535,49.548573,1425</coordinates>
          </Point>
        </Placemark>
        <Placemark>
          <name>G9426581 (H-60 Black Hawk)</name>
          <description>Type: H-60 Black Hawk&#xA;Callsign: G9426581&#xA;Hex: ae0a3f&#xA;Altitude: 2400 ft&#xA;Speed: 0.0 kts&#xA;Heading: 0.0&#xA;Source: airplanes.live</description>
          <Point>
            <coordinates>0,0,2400</coordinates>
          </Point>
        </Placemark>
        <Placemark>
          <name>BOLT79 (C150)</name>
          <description>Type: C150&#xA;Callsign: BOLT79&#xA;Hex: a71b1d&#xA;Altitude: 6650 ft&#xA;Speed: 62.0 kts&#xA;Heading: 169.8&#xA;Source: adsb.lol</description>
          <Point>
            <coordinates>-104.817989,38.974319,6650</coordinates>
          </Point>
        </Placemark>
        <Placemark>
          <name>ZORRO67 (AT8T)</name>
          <description>Type: AT8T&#xA;Callsign: ZORRO67&#xA;Hex: aaec24&#xA;Altitude: 5225 ft&#xA;Speed: 99.2 kts&#xA;Heading: 282.2&#xA;Source: adsb.lol</description>
          <Point>
            <coordinates>-98.163757,35.539764,5225</coordinates>
          </Point>
        </Placemark>
        <Placemark>
          <name>c2e5f9 (Unknown Type)</name>
          <description>Type: Unknown Type&#xA;Hex: c2e5f9&#xA;Altitude: 0 ft&#xA;Speed: 10.2 kts&#xA;Heading: 0.0&#xA;Source: adsb.lol</description>
          <Point>
            <coordinates>0,0,0</coordinates>
          </Point>
        </Placemark>
        <Placemark>
          <name>SPAR18 (B737)</name>
          <description>Type: B737&#xA;Callsign: SPAR18&#xA;Hex: ae189c&#xA;Altitude: 0 ft&#xA;Speed: 2.2 kts&#xA;Heading: 0.0&#xA;Source: airplanes.live</description>
          <Point>
            <coordinates>-149.9779,61.164555,0</coordinates>
          </Point>
        </Placemark>
        <Placemark>
          <name>R20938 (H-60 Black Hawk)</name>
          <description>Type: H-60 Black Hawk&#xA;Callsign: R20938&#xA;Hex: ae6019&#xA;Altitude: 175 ft&#xA;Speed: 63.1 kts&#xA;Heading: 62.6&#xA;Source: adsb.lol</description>
          <Point>
            <coordinates>-75.766166,44.072447,175</coordinates>
          </Point>
        </Placemark>
        <Placemark>
          <name>COSMO42 (C30J)</name>
          <description>Type: C30J&#xA;Callsign: COSMO42&#xA;Hex: 33ffe5&#xA;Altitude: 700 ft&#xA;Speed: 148.0 kts&#xA;Heading: 221.0&#xA;Source: airplanes.live</description>
          <Point>
            <coordinates>10.407454,43.65292,700</coordinates>
          </Point>
        </Placemark>
        <Placemark>
          <name>ae01eb (TEX2)</name>
          <description>Type: TEX2&#xA;Hex: ae01eb&#xA;Altitude: 4325 ft&#xA;Speed: 209.0 kts&#xA;Heading: 323.9&#xA;Source: airplanes.live</description>
          <Point>
            <coordinates>-97.970423,28.859848,4325</coordinates>
          </Point>
        </Placemark>
        <Placemark>
          <name>ROVE33 (TEX2)</name>
          <description>Type: TEX2&#xA;Callsign: ROVE33&#xA;Hex: ae13fd&#xA;Altitude: 2925 ft&#xA;Speed: 162.8 kts&#xA;Heading: 120.7&#xA;Source: airplanes.live</description>
          <Point>
            <coordinates>-97.961049,31.25798,2925</coordinates>
          </Point>
        </Placemark>
        <Placemark>
          <name>ae6797 (Unknown Type)</name>
          <description>Type: Unknown Type&#xA;Hex: ae6797&#xA;Altitude: 15850 ft&#xA;Speed: 0.0 kts&#xA;Heading: 0.0&#xA;Source: airplanes.live</description>
          <Point>
            <coordinates>-78.913329,27.045622,15850</coordinates>
          </Point>
        </Placemark>
        <Placemark>
          <name>ae6793 (Unknown Type)</name>
          <description>Type: Unknown Type&#xA;Hex: ae6793&#xA;Altitude: 27525 ft&#xA;Speed: 346.1 kts&#xA;Heading: 265.4&#xA;Source: airplanes.live</description>
          <Point>
            <coordinates>-116.993889,47.362289,27525</coordinates>
          </Point>
        </Placemark>
        <Placemark>
          <name>PAT175 (BE20)</name>
          <description>Type: BE20&#xA;Callsign: PAT175&#xA;Hex: adfedb&#xA;Altitude: 27000 ft&#xA;Speed: 278.1 kts&#xA;Heading: 40.3&#xA;Source: airplanes.live</description>
          <Point>
            <coordinates>-94.701519,35.379227,27000</coordinates>
          </Point>
        </Placemark>
        <Placemark>
          <name>EASY61 (BE20)</name>
          <description>Type: BE20&#xA;Callsign: EASY61&#xA;Hex: ae06d9&#xA;Altitude: 825 ft&#xA;Speed: 166.9 kts&#xA;Heading: 224.5&#xA;Source: adsb.lol</description>
          <Point>
            <coordinates>-90.049923,29.812705,825</coordinates>
          </Point>
        </Placemark>
        <Placemark>
          <name>KATT28 (TEX2)</name>
          <description>Type: TEX2&#xA;Callsign: KATT28&#xA;Hex: ae1142&#xA;Altitude: 14150 ft&#xA;Speed: 112.5 kts&#xA;Heading: 194.4&#xA;Source: airplanes.live</description>
          <Point>
            <coordinates>-87.193542,30.509126,14150</coordinates>
          </Point>
        </Placemark>
        <Placemark>
          <name>ae2216 (Unknown Type)</name>
          <description>Type: Unknown Type&#xA;Hex: ae2216&#xA;Altitude: 1600 ft&#xA;Speed: 0.0 kts&#xA;Heading: 0.0&#xA;Source: adsb.lol</description>
          <Point>
            <coordinates>0,0,1600</coordinates>
          </Point>
        </Placemark>
        <Placemark>
          <name>SAM218 (GLF5)</name>
          <description>Type: GLF5&#xA;Callsign: SAM218&#xA;Hex: ae6cf2&#xA;Altitude: 41000 ft&#xA;Speed: 561.2 kts&#xA;Heading: 88.6&#xA;Source: airplanes.live</description>
          <Point>
            <coordinates>-109.630909,35.206666,41000</coordinates>
          </Point>
        </Placemark>
        <Placemark>
          <name>C2310 (CN35)</name>
          <description>Type: CN35&#xA;Callsign: C2310&#xA;Hex: ae2708&#xA;Altitude: 1325 ft&#xA;Speed: 153.6 kts&#xA;Heading: 291.4&#xA;Source: airplanes.live</description>
          <Point>
            <coordinates>-89.39339,30.346752,1325</coordinates>
          </Point>
        </Placemark>
        <Placemark>
          <name>TEST1234 (Unknown Type)</name>
          <description>Type: Unknown Type&#xA;Callsign: TEST1234&#xA;Hex: adfbe1&#xA;Altitude: 0 ft&#xA;Speed: 0.0 kts&#xA;Heading: 0.0&#xA;Source: airplanes.live</description>
          <Point>
            <coordinates>0,0,0</coordinates>
          </Point>
        </Placemark>
        <Placemark>
          <name>CODE22 (TEX2)</name>
          <description>Type: TEX2&#xA;Callsign: CODE22&#xA;Hex: ae1e5c&#xA;Altitude: 3925 ft&#xA;Speed: 241.6 kts&#xA;Heading: 193.4&#xA;Source: airplanes.live</description>
          <Point>
            <coordinates>-97.657242,36.123093,3925</coordinates>
          </Point>
        </Placemark>
        <Placemark>
          <name>RUDY24 (V-22 Osprey)</name>
          <description>Type: V-22 Osprey&#xA;Callsign: RUDY24&#xA;Hex: ae6ba7&#xA;Altitude: 3500 ft&#xA;Speed: 246.7 kts&#xA;Heading: 166.6&#xA;Source: adsb.lol</description>
          <Point>
            <coordinates>-118.611969,33.373581,3500</coordinates>
          </Point>
        </Placemark>
        <Placemark>
          <name>GOAT50 (TEX2)</name>
          <description>Type: TEX2&#xA;Callsign: GOAT50&#xA;Hex: ae13ce&#xA;Altitude: 2750 ft&#xA;Speed: 190.8 kts&#xA;Heading: 159.8&#xA;Source: airplanes.live</description>
          <Point>
            <coordinates>-98.267634,29.472198,2750</coordinates>
          </Point>
        </Placemark>
        <Placemark>
          <name>BGST343 (BE20)</name>
          <description>Type: BE20&#xA;Callsign: BGST343&#xA;Hex: aecaa3&#xA;Altitude: 6200 ft&#xA;Speed: 202.0 kts&#xA;Heading: 131.9&#xA;Source: airplanes.live</description>
          <Point>
            <coordinates>-97.726297,28.132867,6200</coordinates>
          </Point>
        </Placemark>
        <Placemark>
          <name>DUKE88 (TEX2)</name>
          <description>Type: TEX2&#xA;Callsign: DUKE88&#xA;Hex: ae13ca&#xA;Altitude: 3775 ft&#xA;Speed: 246.1 kts&#xA;Heading: 338.5&#xA;Source: airplanes.live</description>
          <Point>
            <coordinates>-97.590968,37.658615,3775</coordinates>
          </Point>
        </Placemark>
        <Placemark>
          <name>BGST360 (BE20)</name>
          <description>Type: BE20&#xA;Callsign: BGST360&#xA;Hex: af3be2&#xA;Altitude: 5900 ft&#xA;Speed: 184.5 kts&#xA;Heading: 40.2&#xA;Source: airplanes.live</description>
          <Point>
            <coordinates>-96.279675,30.550791,5900</coordinates>
          </Point>
        </Placemark>
        <Placemark>
          <name>ae0145 (KC-135 Stratotanker)</name>
          <description>Type: KC-135 Stratotanker&#xA;Hex: ae0145&#xA;Altitude: 27925 ft&#xA;Speed: 513.0 kts&#xA;Heading: 87.0&#xA;Source: adsb.lol</description>
          <Point>
            <coordinates>-94.102454,39.438794,27925</coordinates>
          </Point>
        </Placemark>
        <Placemark>
          <name>RAIDR72 (C30J)</name>
          <description>Type: C30J&#xA;Callsign: RAIDR72&#xA;Hex: ae2f99&#xA;Altitude: 21025 ft&#xA;Speed: 346.0 kts&#xA;Heading: 89.7&#xA;Source: airplanes.live</description>
          <Point>
            <coordinates>-88.856873,33.483582,21025</coordinates>
          </Point>
        </Placemark>
        <Placemark>
          <name>ae05ab (KC-135 Stratotanker)</name>
          <description>Type: KC-135 Stratotanker&#xA;Hex: ae05ab&#xA;Altitude: 36000 ft&#xA;Speed: 0.0 kts&#xA;Heading: 0.0&#xA;Source: adsb.lol</description>
          <Point>
            <coordinates>0,0,36000</coordinates>
          </Point>
        </Placemark>
        <Placemark>
          <name>FANNY67 (TEX2)</name>
          <description>Type: TEX2&#xA;Callsign: FANNY67&#xA;Hex: ae1e44&#xA;Altitude: 1975 ft&#xA;Speed: 146.9 kts&#xA;Heading: 336.8&#xA;Source: adsb.lol</description>
          <Point>
            <coordinates>-98.30783,29.537155,1975</coordinates>
          </Point>
        </Placemark>
        <Placemark>
          <name>SQUIB08 (EC45)</name>
          <description>Type: EC45&#xA;Callsign: SQUIB08&#xA;Hex: ae5a91&#xA;Altitude: 750 ft&#xA;Speed: 96.2 kts&#xA;Heading: 226.7&#xA;Source: airplanes.live</description>
          <Point>
            <coordinates>-85.635681,31.125013,750</coordinates>
          </Point>
        </Placemark>
        <Placemark>
          <name>VV8E626 (A119)</name>
          <description>Type: A119&#xA;Callsign: VV8E626&#xA;Hex: ae6d4c&#xA;Altitude: 500 ft&#xA;Speed: 76.0 kts&#xA;Heading: 340.9&#xA;Source: airplanes.live</description>
          <Point>
            <coordinates>-87.129105,30.633049,500</coordinates>
          </Point>
        </Placemark>
        <Placemark>
          <name>BELLS50 (EC45)</name>
          <description>Type: EC45&#xA;Callsign: BELLS50&#xA;Hex: ae5a77&#xA;Altitude: 2775 ft&#xA;Speed: 130.1 kts&#xA;Heading: 268.2&#xA;Source: adsb.lol</description>
          <Point>
            <coordinates>-85.876147,31.836563,2775</coordinates>
          </Point>
        </Placemark>
        <Placemark>
          <name>PAT841 (BE20)</name>
          <description>Type: BE20&#xA;Callsign: PAT841&#xA;Hex: ae08fa&#xA;Altitude: 4800 ft&#xA;Speed: 232.4 kts&#xA;Heading: 148.9&#xA;Source: airplanes.live</description>
          <Point>
            <coordinates>-71.487845,42.955444,4800</coordinates>
          </Point>
        </Placemark>
        <Placemark>
          <name>AAC319 (AH-64 Apache)</name>
          <description>Type: AH-64 Apache&#xA;Callsign: AAC319&#xA;Hex: 43c94c&#xA;Altitude: 2900 ft&#xA;Speed: 99.8 kts&#xA;Heading: 317.8&#xA;Source: airplanes.live</description>
          <Point>
            <coordinates>1.308594,52.238983,2900</coordinates>
          </Point>
        </Placemark>
        <Placemark>
          <name>CTM1388 (CN35)</name>
          <description>Type: CN35&#xA;Callsign: CTM1388&#xA;Hex: 3b77ce&#xA;Altitude: 0 ft&#xA;Speed: 0.0 kts&#xA;Heading: 0.0&#xA;Source: adsb.lol</description>
          <Point>
            <coordinates>0,0,0</coordinates>
          </Point>
        </Placemark>
        <Placemark>
          <name>0d01e0 (B732)</name>
          <description>Type: B732&#xA;Hex: 0d01e0&#xA;Altitude: 31125 ft&#xA;Speed: 445.0 kts&#xA;Heading: 6.4&#xA;Source: airplanes.live</description>
          <Point>
            <coordinates>-98.557487,22.340977,31125</coordinates>
          </Point>
        </Placemark>
        <Placemark>
          <name>SHOOT92 (T-38 Talon)</name>
          <description>Type: T-38 Talon&#xA;Callsign: SHOOT92&#xA;Hex: ae0027&#xA;Altitude: 17425 ft&#xA;Speed: 445.3 kts&#xA;Heading: 355.6&#xA;Source: airplanes.live</description>
          <Point>
            <coordinates>-97.176258,33.805344,17425</coordinates>
          </Point>
        </Placemark>
        <Placemark>
          <name>MORPH33 (EC45)</name>
          <description>Type: EC45&#xA;Callsign: MORPH33&#xA;Hex: ae205a&#xA;Altitude: 550 ft&#xA;Speed: 65.0 kts&#xA;Heading: 29.1&#xA;Source: airplanes.live</description>
          <Point>
            <coordinates>-85.671494,31.227427,550</coordinates>
          </Point>
        </Placemark>
        <Placemark>
          <name>ae0627 (KC-135 Stratotanker)</name>
          <description>Type: KC-135 Stratotanker&#xA;Hex: ae0627&#xA;Altitude: 31825 ft&#xA;Speed: 496.2 kts&#xA;Heading: 56.8&#xA;Source: adsb.lol</description>
          <Point>
            <coordinates>-66.810072,45.772385,31825</coordinates>
          </Point>
        </Placemark>
        <Placemark>
          <name>ae07ac (KC-135 Stratotanker)</name>
          <description>Type: KC-135 Stratotanker&#xA;Hex: ae07ac&#xA;Altitude: 34000 ft&#xA;Speed: 0.0 kts&#xA;Heading: 0.0&#xA;Source: airplanes.live</description>
          <Point>
            <coordinates>0,0,34000</coordinates>
          </Point>
        </Placemark>
        <Placemark>
          <name>B0BCT71 (Unknown Type)</name>
          <description>Type: Unknown Type&#xA;Callsign: B0BCT71&#xA;Hex: ae62f0&#xA;Altitude: 0 ft&#xA;Speed: 0.0 kts&#xA;Heading: 0.0&#xA;Source: airplanes.live</description>
          <Point>
            <coordinates>0,0,0</coordinates>
          </Point>
        </Placemark>
        <Placemark>
          <name>RCH137 (C-17 Globemaster III)</name>
          <description>Type: C-17 Globemaster III&#xA;Callsign: RCH137&#xA;Hex: ae145c&#xA;Altitude: 36000 ft&#xA;Speed: 0.0 kts&#xA;Heading: 0.0&#xA;Source: adsb.lol</description>
          <Point>
            <coordinates>0,0,36000</coordinates>
          </Point>
        </Placemark>
        <Placemark>
          <name>400032 (Unknown Type)</name>
          <description>Type: Unknown Type&#xA;Hex: 400032&#xA;Altitude: 0 ft&#xA;Speed: 0.0 kts&#xA;Heading: 0.0&#xA;Source: adsb.lol</description>
          <Point>
            <coordinates>0,0,0</coordinates>
          </Point>
        </Placemark>
        <Placemark>
          <name>G08748 (CH-47 Chinook)</name>
          <description>Type: CH-47 Chinook&#xA;Callsign: G08748&#xA;Hex: ae4cf3&#xA;Altitude: 0 ft&#xA;Speed: 0.0 kts&#xA;Heading: 0.0&#xA;Source: adsb.lol</description>
          <Point>
            <coordinates>-118.833049,45.695389,0</coordinates>
          </Point>
        </Placemark>
        <Placemark>
          <name>BELLS75 (EC45)</name>
          <description>Type: EC45&#xA;Callsign: BELLS75&#xA;Hex: ae5a94&#xA;Altitude: 2775 ft&#xA;Speed: 95.3 kts&#xA;Heading: 85.8&#xA;Source: airplanes.live</description>
          <Point>
            <coordinates>-86.201315,31.076202,2775</coordinates>
          </Point>
        </Placemark>
        <Placemark>
          <name>MESSY16 (EC45)</name>
          <description>Type: EC45&#xA;Callsign: MESSY16&#xA;Hex: ae1f58&#xA;Altitude: 825 ft&#xA;Speed: 90.8 kts&#xA;Heading: 244.6&#xA;Source: adsb.lol</description>
          <Point>
            <coordinates>-85.549783,31.218887,825</coordinates>
          </Point>
        </Placemark>
        <Placemark>
          <name>BELLS37 (EC45)</name>
          <description>Type: EC45&#xA;Callsign: BELLS37&#xA;Hex: ae5a81&#xA;Altitude: 3150 ft&#xA;Speed: 93.8 kts&#xA;Heading: 215.9&#xA;Source: airplanes.live</description>
          <Point>
            <coordinates>-85.407111,31.725397,3150</coordinates>
          </Point>
        </Placemark>
        <Placemark>
          <name>C6597 (AS65)</name>
          <description>Type: AS65&#xA;Callsign: C6597&#xA;Hex: ae26b7&#xA;Altitude: 1725 ft&#xA;Speed: 109.6 kts&#xA;Heading: 128.3&#xA;Source: airplanes.live</description>
          <Point>
            <coordinates>-81.071939,29.93454,1725</coordinates>
          </Point>
        </Placemark>
        <Placemark>
          <name>BOLT56 (C172)</name>
          <description>Type: C172&#xA;Callsign: BOLT56&#xA;Hex: aa7ecf&#xA;Altitude: 7250 ft&#xA;Speed: 101.9 kts&#xA;Heading: 346.4&#xA;Source: adsb.lol</description>
          <Point>
            <coordinates>-104.801928,38.963928,7250</coordinates>
          </Point>
        </Placemark>
        <Placemark>
          <name>c28294 (Unknown Type)</name>
          <description>Type: Unknown Type&#xA;Hex: c28294&#xA;Altitude: 0 ft&#xA;Speed: 0.0 kts&#xA;Heading: 0.0&#xA;Source: adsb.lol</description>
          <Point>
            <coordinates>0,0,0</coordinates>
          </Point>
        </Placemark>
        <Placemark>
          <name>BULET56 (H-60 Black Hawk)</name>
          <description>Type: H-60 Black Hawk&#xA;Callsign: BULET56&#xA;Hex: ae2776&#xA;Altitude: 150 ft&#xA;Speed: 102.2 kts&#xA;Heading: 86.6&#xA;Source: adsb.lol</description>
          <Point>
            <coordinates>-117.513885,32.69339,150</coordinates>
          </Point>
        </Placemark>
        <Placemark>
          <name>SHARK52 (SR20)</name>
          <description>Type: SR20&#xA;Callsign: SHARK52&#xA;Hex: ae4edc&#xA;Altitude: 8600 ft&#xA;Speed: 134.8 kts&#xA;Heading: 307.5&#xA;Source: airplanes.live</description>
          <Point>
            <coordinates>-104.747892,39.284271,8600</coordinates>
          </Point>
        </Placemark>
        <Placemark>
          <name>LANCE72 (T-38 Talon)</name>
          <description>Type: T-38 Talon&#xA;Callsign: LANCE72&#xA;Hex: ae0060&#xA;Altitude: 8025 ft&#xA;Speed: 364.0 kts&#xA;Heading: 359.5&#xA;Source: airplanes.live</description>
          <Point>
            <coordinates>-98.726234,33.697443,8025</coordinates>
          </Point>
        </Placemark>
        <Placemark>
          <name>ROKT31 (HAWK)</name>
          <description>Type: HAWK&#xA;Callsign: ROKT31&#xA;Hex: ae627d&#xA;Altitude: 15875 ft&#xA;Speed: 327.1 kts&#xA;Heading: 88.4&#xA;Source: adsb.lol</description>
          <Point>
            <coordinates>-87.568905,29.50708,15875</coordinates>
          </Point>
        </Placemark>
        <Placemark>
          <name>ae685b (Unknown Type)</name>
          <description>Type: Unknown Type&#xA;Hex: ae685b&#xA;Altitude: 29275 ft&#xA;Speed: 351.6 kts&#xA;Heading: 331.8&#xA;Source: airplanes.live</description>
          <Point>
            <coordinates>-83.396873,34.49032,29275</coordinates>
          </Point>
        </Placemark>
        <Placemark>
          <name>ae5a4f (EC45)</name>
          <description>Type: EC45&#xA;Hex: ae5a4f&#xA;Altitude: 725 ft&#xA;Speed: 0.0 kts&#xA;Heading: 0.0&#xA;Source: airplanes.live</description>
          <Point>
            <coordinates>0,0,725</coordinates>
          </Point>
        </Placemark>
        <Placemark>
          <name>N453SP (C172)</name>
          <description>Type: C172&#xA;Callsign: N453SP&#xA;Hex: a57edf&#xA;Altitude: 2550 ft&#xA;Speed: 110.7 kts&#xA;Heading: 237.2&#xA;Source: adsb.lol</description>
          <Point>
            <coordinates>-149.695783,61.395309,2550</coordinates>
          </Point>
        </Placemark>
        <Placemark>
          <name>RHODY62 (C30J)</name>
          <description>Type: C30J&#xA;Callsign: RHODY62&#xA;Hex: ae143e&#xA;Altitude: 3300 ft&#xA;Speed: 249.0 kts&#xA;Heading: 168.5&#xA;Source: airplanes.live</description>
          <Point>
            <coordinates>-89.438983,31.109185,3300</coordinates>
          </Point>
        </Placemark>
        <Placemark>
          <name>N36120 (P28R)</name>
          <description>Type: P28R&#xA;Callsign: N36120&#xA;Hex: a412ba&#xA;Altitude: -200 ft&#xA;Speed: 68.4 kts&#xA;Heading: 296.9&#xA;Source: adsb.lol</description>
          <Point>
            <coordinates>-71.26039,42.467931,-200</coordinates>
          </Point>
        </Placemark>
        <Placemark>
          <name>LUZON41 (TEX2)</name>
          <description>Type: TEX2&#xA;Callsign: LUZON41&#xA;Hex: ae1408&#xA;Altitude: 10025 ft&#xA;Speed: 243.6 kts&#xA;Heading: 356.0&#xA;Source: airplanes.live</description>
          <Point>
            <coordinates>-97.971215,29.131622,10025</coordinates>
          </Point>
        </Placemark>
        <Placemark>
          <name>MESSY62 (EC45)</name>
          <description>Type: EC45&#xA;Callsign: MESSY62&#xA;Hex: ae632b&#xA;Altitude: 800 ft&#xA;Speed: 87.6 kts&#xA;Heading: 253.4&#xA;Source: airplanes.live</description>
          <Point>
            <coordinates>-85.556689,31.244605,800</coordinates>
          </Point>
        </Placemark>
        <Placemark>
          <name>COMT451 (A400M Atlas)</name>
          <description>Type: A400M Atlas&#xA;Callsign: COMT451&#xA;Hex: 43c5e1&#xA;Altitude: 725 ft&#xA;Speed: 267.0 kts&#xA;Heading: 270.9&#xA;Source: adsb.lol</description>
          <Point>
            <coordinates>-2.864304,50.840258,725</coordinates>
          </Point>
        </Placemark>
        <Placemark>
          <name>TEST1234 (TWR)</name>
          <description>Type: TWR&#xA;Callsign: TEST1234&#xA;Hex: 400008&#xA;Altitude: 0 ft&#xA;Speed: 0.0 kts&#xA;Heading: 0.0&#xA;Source: adsb.lol</description>
          <Point>
            <coordinates>0,0,0</coordinates>
          </Point>
        </Placemark>
        <Placemark>
          <name>VGBND20 (LYNX)</name>
          <description>Type: LYNX&#xA;Callsign: VGBND20&#xA;Hex: 43cf31&#xA;Altitude: 250 ft&#xA;Speed: 0.0 kts&#xA;Heading: 0.0&#xA;Source: adsb.lol</description>
          <Point>
            <coordinates>0,0,250</coordinates>
          </Point>
        </Placemark>
        <Placemark>
          <name>N7870N (C172)</name>
          <description>Type: C172&#xA;Callsign: N7870N&#xA;Hex: aaacec&#xA;Altitude: 8600 ft&#xA;Speed: 106.4 kts&#xA;Heading: 355.1&#xA;Source: adsb.lol</description>
          <Point>
            <coordinates>-104.279779,38.889084,8600</coordinates>
          </Point>
        </Placemark>
        <Placemark>
          <name>BRCAT14 (TEX2)</name>
          <description>Type: TEX2&#xA;Callsign: BRCAT14&#xA;Hex: ae58e6&#xA;Altitude: 6000 ft&#xA;Speed: 153.2 kts&#xA;Heading: 229.2&#xA;Source: airplanes.live</description>
          <Point>
            <coordinates>-103.007252,32.850285,6000</coordinates>
          </Point>
        </Placemark>
        <Placemark>
          <name>BALL24 (TEX2)</name>
          <description>Type: TEX2&#xA;Callsign: BALL24&#xA;Hex: ae13c6&#xA;Altitude: 7725 ft&#xA;Speed: 259.0 kts&#xA;Heading: 359.8&#xA;Source: airplanes.live</description>
          <Point>
            <coordinates>-97.710915,36.046555,7725</coordinates>
          </Point>
        </Placemark>
        <Placemark>
          <name>RCH409 (C-17 Globemaster III)</name>
          <description>Type: C-17 Globemaster III&#xA;Callsign: RCH409&#xA;Hex: ae2fa4&#xA;Altitude: 36000 ft&#xA;Speed: 0.0 kts&#xA;Heading: 0.0&#xA;Source: adsb.lol</description>
          <Point>
            <coordinates>0,0,36000</coordinates>
          </Point>
        </Placemark>
        <Placemark>
          <name>TEST1234 (Unknown Type)</name>
          <description>Type: Unknown Type&#xA;Callsign: TEST1234&#xA;Hex: adfbe0&#xA;Altitude: 0 ft&#xA;Speed: 0.0 kts&#xA;Heading: 0.0&#xA;Source: adsb.lol</description>
          <Point>
            <coordinates>0,0,0</coordinates>
          </Point>
        </Placemark>
        <Placemark>
          <name>adf8c3 (Unknown Type)</name>
          <description>Type: Unknown Type&#xA;Hex: adf8c3&#xA;Altitude: 83000 ft&#xA;Speed: 0.0 kts&#xA;Heading: 0.0&#xA;Source: adsb.lol</description>
          <Point>
            <coordinates>0,0,83000</coordinates>
          </Point>
        </Placemark>
        <Placemark>
          <name>ae73e0 (Unknown Type)</name>
          <description>Type: Unknown Type&#xA;Hex: ae73e0&#xA;Altitude: 0 ft&#xA;Speed: 113.7 kts&#xA;Heading: 23.9&#xA;Source: airplanes.live</description>
          <Point>
            <coordinates>0,0,0</coordinates>
          </Point>
        </Placemark>
        <Placemark>
          <name>VAPOR81 (T-38 Talon)</name>
          <description>Type: T-38 Talon&#xA;Callsign: VAPOR81&#xA;Hex: ae0017&#xA;Altitude: 14650 ft&#xA;Speed: 407.0 kts&#xA;Heading: 270.7&#xA;Source: airplanes.live</description>
          <Point>
            <coordinates>-98.321559,36.384996,14650</coordinates>
          </Point>
        </Placemark>
        <Placemark>
          <name>MNTNA57 (BE9L)</name>
          <description>Type: BE9L&#xA;Callsign: MNTNA57&#xA;Hex: ae14ae&#xA;Altitude: 14925 ft&#xA;Speed: 228.5 kts&#xA;Heading: 6.5&#xA;Source: airplanes.live</description>
          <Point>
            <coordinates>-96.586358,28.830872,14925</coordinates>
          </Point>
        </Placemark>
        <Placemark>
          <name>00972064 (EC45)</name>
          <description>Type: EC45&#xA;Callsign: 00972064&#xA;Hex: ae1f4f&#xA;Altitude: 3475 ft&#xA;Speed: 124.5 kts&#xA;Heading: 278.8&#xA;Source: adsb.lol</description>
          <Point>
            <coordinates>-97.823924,26.073578,3475</coordinates>
          </Point>
        </Placemark>
        <Placemark>
          <name>COBRA12 (T-38 Talon)</name>
          <description>Type: T-38 Talon&#xA;Callsign: COBRA12&#xA;Hex: ae00d0&#xA;Altitude: 0 ft&#xA;Speed: 10.8 kts&#xA;Heading: 0.0&#xA;Source: airplanes.live</description>
          <Point>
            <coordinates>-117.902727,34.90204,0</coordinates>
          </Point>
        </Placemark>
        <Placemark>
          <name>HAWK282 (HAWK)</name>
          <description>Type: HAWK&#xA;Callsign: HAWK282&#xA;Hex: ae62fa&#xA;Altitude: 10350 ft&#xA;Speed: 362.8 kts&#xA;Heading: 11.9&#xA;Source: adsb.lol</description>
          <Point>
            <coordinates>-98.724571,27.347112,10350</coordinates>
          </Point>
        </Placemark>
        <Placemark>
          <name>VV7E642 (A119)</name>
          <description>Type: A119&#xA;Callsign: VV7E642&#xA;Hex: ae73de&#xA;Altitude: 375 ft&#xA;Speed: 89.0 kts&#xA;Heading: 8.0&#xA;Source: airplanes.live</description>
          <Point>
            <coordinates>-87.179916,30.82056,375</coordinates>
          </Point>
        </Placemark>
        <Placemark>
          <name>MORPH21 (EC45)</name>
          <description>Type: EC45&#xA;Callsign: MORPH21&#xA;Hex: ae1fea&#xA;Altitude: 450 ft&#xA;Speed: 69.0 kts&#xA;Heading: 250.9&#xA;Source: airplanes.live</description>
          <Point>
            <coordinates>-85.72303,31.295151,450</coordinates>
          </Point>
        </Placemark>
        <Placemark>
          <name>C6513 (AS65)</name>
          <description>Type: AS65&#xA;Callsign: C6513&#xA;Hex: ae2667&#xA;Altitude: 1650 ft&#xA;Speed: 42.1 kts&#xA;Heading: 64.7&#xA;Source: airplanes.live</description>
          <Point>
            <coordinates>-80.875745,29.912187,1650</coordinates>
          </Point>
        </Placemark>
        <Placemark>
          <name>SYS43 (EC45)</name>
          <description>Type: EC45&#xA;Callsign: SYS43&#xA;Hex: 43c92c&#xA;Altitude: 700 ft&#xA;Speed: 102.6 kts&#xA;Heading: 257.1&#xA;Source: airplanes.live</description>
          <Point>
            <coordinates>-2.608468,52.813747,700</coordinates>
          </Point>
        </Placemark>
        <Placemark>
          <name>ae6306 (HAWK)</name>
          <description>Type: HAWK&#xA;Hex: ae6306&#xA;Altitude: 5425 ft&#xA;Speed: 0.0 kts&#xA;Heading: 0.0&#xA;Source: adsb.lol</description>
          <Point>
            <coordinates>0,0,5425</coordinates>
          </Point>
        </Placemark>
        <Placemark>
          <name>G21083 (H-60 Black Hawk)</name>
          <description>Type: H-60 Black Hawk&#xA;Callsign: G21083&#xA;Hex: ae64ae&#xA;Altitude: 4525 ft&#xA;Speed: 46.4 kts&#xA;Heading: 352.6&#xA;Source: adsb.lol</description>
          <Point>
            <coordinates>-111.992554,40.617828,4525</coordinates>
          </Point>
        </Placemark>
        <Placemark>
          <name>BALL52 (TEX2)</name>
          <description>Type: TEX2&#xA;Callsign: BALL52&#xA;Hex: ae141a&#xA;Altitude: 9975 ft&#xA;Speed: 247.8 kts&#xA;Heading: 144.2&#xA;Source: airplanes.live</description>
          <Point>
            <coordinates>-97.687397,35.577393,9975</coordinates>
          </Point>
        </Placemark>
        <Placemark>
          <name>DUKE81 (TEX2)</name>
          <description>Type: TEX2&#xA;Callsign: DUKE81&#xA;Hex: ae01f0&#xA;Altitude: 12925 ft&#xA;Speed: 241.5 kts&#xA;Heading: 321.9&#xA;Source: airplanes.live</description>
          <Point>
            <coordinates>-97.504597,35.778467,12925</coordinates>
          </Point>
        </Placemark>
        <Placemark>
          <name>BOBCT15 (HAWK)</name>
          <description>Type: HAWK&#xA;Callsign: BOBCT15&#xA;Hex: ae62c8&#xA;Altitude: 15825 ft&#xA;Speed: 326.3 kts&#xA;Heading: 348.7&#xA;Source: airplanes.live</description>
          <Point>
            <coordinates>-88.322,31.467911,15825</coordinates>
          </Point>
        </Placemark>
        <Placemark>
          <name>KATT25 (TEX2)</name>
          <description>Type: TEX2&#xA;Callsign: KATT25&#xA;Hex: ae114e&#xA;Altitude: 14050 ft&#xA;Speed: 271.5 kts&#xA;Heading: 142.0&#xA;Source: airplanes.live</description>
          <Point>
            <coordinates>-87.662659,30.442091,14050</coordinates>
          </Point>
        </Placemark>
        <Placemark>
          <name>KATT21 (TEX2)</name>
          <description>Type: TEX2&#xA;Callsign: KATT21&#xA;Hex: ae1145&#xA;Altitude: 1075 ft&#xA;Speed: 238.6 kts&#xA;Heading: 157.8&#xA;Source: airplanes.live</description>
          <Point>
            <coordinates>-87.311316,30.346799,1075</coordinates>
          </Point>
        </Placemark>
        <Placemark>
          <name>VV8E705 (A119)</name>
          <description>Type: A119&#xA;Callsign: VV8E705&#xA;Hex: ae73e6&#xA;Altitude: 1250 ft&#xA;Speed: 82.5 kts&#xA;Heading: 173.7&#xA;Source: airplanes.live</description>
          <Point>
            <coordinates>-86.540599,30.881378,1250</coordinates>
          </Point>
        </Placemark>
        <Placemark>
          <name>BELLS09 (EC45)</name>
          <description>Type: EC45&#xA;Callsign: BELLS09&#xA;Hex: ae1f49&#xA;Altitude: 775 ft&#xA;Speed: 98.7 kts&#xA;Heading: 97.0&#xA;Source: airplanes.live</description>
          <Point>
            <coordinates>-86.233997,30.81423,775</coordinates>
          </Point>
        </Placemark>
        <Placemark>
          <name>TACK3 (T-38 Talon)</name>
          <description>Type: T-38 Talon&#xA;Callsign: TACK3&#xA;Hex: ae00d7&#xA;Altitude: 17275 ft&#xA;Speed: 464.7 kts&#xA;Heading: 334.1&#xA;Source: airplanes.live</description>
          <Point>
            <coordinates>-99.135994,29.102225,17275</coordinates>
          </Point>
        </Placemark>
        <Placemark>
          <name>SOLID61 (T-38 Talon)</name>
          <description>Type: T-38 Talon&#xA;Callsign: SOLID61&#xA;Hex: ae001d&#xA;Altitude: 15775 ft&#xA;Speed: 375.5 kts&#xA;Heading: 289.9&#xA;Source: airplanes.live</description>
          <Point>
            <coordinates>-99.120998,36.021378,15775</coordinates>
          </Point>
        </Placemark>
        <Placemark>
          <name>STAFF1 (T-38 Talon)</name>
          <description>Type: T-38 Talon&#xA;Callsign: STAFF1&#xA;Hex: ae14d5&#xA;Altitude: 20275 ft&#xA;Speed: 458.2 kts&#xA;Heading: 358.1&#xA;Source: airplanes.live</description>
          <Point>
            <coordinates>-98.21703,34.707254,20275</coordinates>
          </Point>
        </Placemark>
        <Placemark>
          <name>ae048c (KC-135 Stratotanker)</name>
          <description>Type: KC-135 Stratotanker&#xA;Hex: ae048c&#xA;Altitude: 35000 ft&#xA;Speed: 589.0 kts&#xA;Heading: 117.0&#xA;Source: adsb.lol</description>
          <Point>
            <coordinates>-77.397874,45.669418,35000</coordinates>
          </Point>
        </Placemark>
        <Placemark>
          <name>C2309 (CN35)</name>
          <description>Type: CN35&#xA;Callsign: C2309&#xA;Hex: ae2707&#xA;Altitude: 2900 ft&#xA;Speed: 175.1 kts&#xA;Heading: 58.3&#xA;Source: airplanes.live</description>
          <Point>
            <coordinates>-69.201603,43.774246,2900</coordinates>
          </Point>
        </Placemark>
        <Placemark>
          <name>TEX02 (TEX2)</name>
          <description>Type: TEX2&#xA;Callsign: TEX02&#xA;Hex: c87f22&#xA;Altitude: 3875 ft&#xA;Speed: 182.2 kts&#xA;Heading: 272.8&#xA;Source: airplanes.live</description>
          <Point>
            <coordinates>175.423828,-39.961121,3875</coordinates>
          </Point>
        </Placemark>
        <Placemark>
          <name>7cfa35 (B350)</name>
          <description>Type: B350&#xA;Hex: 7cfa35&#xA;Altitude: 0 ft&#xA;Speed: 0.0 kts&#xA;Heading: 0.0&#xA;Source: adsb.lol</description>
          <Point>
            <coordinates>0,0,0</coordinates>
          </Point>
        </Placemark>
        <Placemark>
          <name>c3c2fe (Unknown Type)</name>
          <description>Type: Unknown Type&#xA;Hex: c3c2fe&#xA;Altitude: 0 ft&#xA;Speed: 29.5 kts&#xA;Heading: 16.9&#xA;Source: adsb.lol</description>
          <Point>
            <coordinates>0,0,0</coordinates>
          </Point>
        </Placemark>
        <Placemark>
          <name>FANGS63 (TEX2)</name>
          <description>Type: TEX2&#xA;Callsign: FANGS63&#xA;Hex: ae172c&#xA;Altitude: 8600 ft&#xA;Speed: 135.0 kts&#xA;Heading: 202.2&#xA;Source: adsb.lol</description>
          <Point>
            <coordinates>-98.49297,29.022527,8600</coordinates>
          </Point>
        </Placemark>
        <Placemark>
          <name>BONES21 (T-38 Talon)</name>
          <description>Type: T-38 Talon&#xA;Callsign: BONES21&#xA;Hex: adff7c&#xA;Altitude: 12075 ft&#xA;Speed: 385.6 kts&#xA;Heading: 186.7&#xA;Source: airplanes.live</description>
          <Point>
            <coordinates>-88.099823,34.074609,12075</coordinates>
          </Point>
        </Placemark>
        <Placemark>
          <name>GRAIL41 (TEX2)</name>
          <description>Type: TEX2&#xA;Callsign: GRAIL41&#xA;Hex: ae112d&#xA;Altitude: 9450 ft&#xA;Speed: 234.5 kts&#xA;Heading: 294.7&#xA;Source: airplanes.live</description>
          <Point>
            <coordinates>-87.998785,33.347488,9450</coordinates>
          </Point>
        </Placemark>
        <Placemark>
          <name>NUKED35 (EC45)</name>
          <description>Type: EC45&#xA;Callsign: NUKED35&#xA;Hex: ae1fc3&#xA;Altitude: 725 ft&#xA;Speed: 98.0 kts&#xA;Heading: 274.8&#xA;Source: airplanes.live</description>
          <Point>
            <coordinates>-85.745766,31.166164,725</coordinates>
          </Point>
        </Placemark>
        <Placemark>
          <name>R20063 (H-60 Black Hawk)</name>
          <description>Type: H-60 Black Hawk&#xA;Callsign: R20063&#xA;Hex: ae47fc&#xA;Altitude: 1075 ft&#xA;Speed: 104.8 kts&#xA;Heading: 221.9&#xA;Source: airplanes.live</description>
          <Point>
            <coordinates>-78.910561,35.267441,1075</coordinates>
          </Point>
        </Placemark>
        <Placemark>
          <name>RCH703 (C-17 Globemaster III)</name>
          <description>Type: C-17 Globemaster III&#xA;Callsign: RCH703&#xA;Hex: ae1453&#xA;Altitude: 29000 ft&#xA;Speed: 452.0 kts&#xA;Heading: 134.5&#xA;Source: airplanes.live</description>
          <Point>
            <coordinates>17.686733,48.520345,29000</coordinates>
          </Point>
        </Placemark>
        <Placemark>
          <name>TEST1234 (Unknown Type)</name>
          <description>Type: Unknown Type&#xA;Callsign: TEST1234&#xA;Hex: adf994&#xA;Altitude: 0 ft&#xA;Speed: 0.0 kts&#xA;Heading: 0.0&#xA;Source: airplanes.live</description>
          <Point>
            <coordinates>0,0,0</coordinates>
          </Point>
        </Placemark>
        <Placemark>
          <name>N43128 (P28A)</name>
          <description>Type: P28A&#xA;Callsign: N43128&#xA;Hex: a52994&#xA;Altitude: 400 ft&#xA;Speed: 83.0 kts&#xA;Heading: 351.0&#xA;Source: adsb.lol</description>
          <Point>
            <coordinates>-71.466626,42.755859,400</coordinates>
          </Point>
        </Placemark>
        <Placemark>
          <name>TEAL29 (C30J)</name>
          <description>Type: C30J&#xA;Callsign: TEAL29&#xA;Hex: ae0112&#xA;Altitude: 10850 ft&#xA;Speed: 270.6 kts&#xA;Heading: 86.2&#xA;Source: adsb.lol</description>
          <Point>
            <coordinates>-91.351211,30.294113,10850</coordinates>
          </Point>
        </Placemark>
        <Placemark>
          <name>KATT24 (TEX2)</name>
          <description>Type: TEX2&#xA;Callsign: KATT24&#xA;Hex: ae08b7&#xA;Altitude: 3200 ft&#xA;Speed: 266.3 kts&#xA;Heading: 108.8&#xA;Source: airplanes.live</description>
          <Point>
            <coordinates>-88.239661,30.338745,3200</coordinates>
          </Point>
        </Placemark>
        <Placemark>
          <name>KATT19 (TEX2)</name>
          <description>Type: TEX2&#xA;Callsign: KATT19&#xA;Hex: ae1148&#xA;Altitude: 6175 ft&#xA;Speed: 192.1 kts&#xA;Heading: 330.4&#xA;Source: airplanes.live</description>
          <Point>
            <coordinates>-87.797995,30.591431,6175</coordinates>
          </Point>
        </Placemark>
        <Placemark>
          <name>WEIRD35 (EC45)</name>
          <description>Type: EC45&#xA;Callsign: WEIRD35&#xA;Hex: ae5a95&#xA;Altitude: 750 ft&#xA;Speed: 76.0 kts&#xA;Heading: 0.0&#xA;Source: airplanes.live</description>
          <Point>
            <coordinates>-85.723251,31.163818,750</coordinates>
          </Point>
        </Placemark>
        <Placemark>
          <name>EVAL99 (TEX2)</name>
          <description>Type: TEX2&#xA;Callsign: EVAL99&#xA;Hex: ae54c5&#xA;Altitude: 2950 ft&#xA;Speed: 118.5 kts&#xA;Heading: 235.0&#xA;Source: adsb.lol</description>
          <Point>
            <coordinates>-85.929852,34.046817,2950</coordinates>
          </Point>
        </Placemark>
        <Placemark>
          <name>TEST1234 (Unknown Type)</name>
          <description>Type: Unknown Type&#xA;Callsign: TEST1234&#xA;Hex: adf998&#xA;Altitude: 0 ft&#xA;Speed: 0.0 kts&#xA;Heading: 0.0&#xA;Source: adsb.lol</description>
          <Point>
            <coordinates>0,0,0</coordinates>
          </Point>
        </Placemark>
        <Placemark>
          <name>ae576d (AH-64 Apache)</name>
          <description>Type: AH-64 Apache&#xA;Hex: ae576d&#xA;Altitude: 1100 ft&#xA;Speed: 0.0 kts&#xA;Heading: 0.0&#xA;Source: adsb.lol</description>
          <Point>
            <coordinates>0,0,1100</coordinates>
          </Point>
        </Placemark>
        <Placemark>
          <name>APLQ3 (TEX2)</name>
          <description>Type: TEX2&#xA;Callsign: APLQ3&#xA;Hex: c2b0ad&#xA;Altitude: 8900 ft&#xA;Speed: 262.3 kts&#xA;Heading: 125.7&#xA;Source: airplanes.live</description>
          <Point>
            <coordinates>-106.276101,50.430176,8900</coordinates>
          </Point>
        </Placemark>
        <Placemark>
          <name>BGST307 (BE20)</name>
          <description>Type: BE20&#xA;Callsign: BGST307&#xA;Hex: af20c1&#xA;Altitude: 18000 ft&#xA;Speed: 207.9 kts&#xA;Heading: 255.2&#xA;Source: airplanes.live</description>
          <Point>
            <coordinates>-94.351273,29.241943,18000</coordinates>
          </Point>
        </Placemark>
        <Placemark>
          <name>ROKT32 (HAWK)</name>
          <description>Type: HAWK&#xA;Callsign: ROKT32&#xA;Hex: ae626c&#xA;Altitude: 16025 ft&#xA;Speed: 386.3 kts&#xA;Heading: 87.8&#xA;Source: adsb.lol</description>
          <Point>
            <coordinates>-87.570595,29.487167,16025</coordinates>
          </Point>
        </Placemark>
        <Placemark>
          <name>VV1E041 (A119)</name>
          <description>Type: A119&#xA;Callsign: VV1E041&#xA;Hex: ae7417&#xA;Altitude: 375 ft&#xA;Speed: 92.4 kts&#xA;Heading: 340.4&#xA;Source: airplanes.live</description>
          <Point>
            <coordinates>-86.79754,30.739327,375</coordinates>
          </Point>
        </Placemark>
        <Placemark>
          <name>RIVER21 (Unknown Type)</name>
          <description>Type: Unknown Type&#xA;Callsign: RIVER21&#xA;Hex: ae61cb&#xA;Altitude: 42125 ft&#xA;Speed: 489.2 kts&#xA;Heading: 217.5&#xA;Source: airplanes.live</description>
          <Point>
            <coordinates>-84.324951,25.562073,42125</coordinates>
          </Point>
        </Placemark>
        <Placemark>
          <name>TEST1234 (Unknown Type)</name>
          <description>Type: Unknown Type&#xA;Callsign: TEST1234&#xA;Hex: adf993&#xA;Altitude: 0 ft&#xA;Speed: 0.0 kts&#xA;Heading: 0.0&#xA;Source: airplanes.live</description>
          <Point>
            <coordinates>0,0,0</coordinates>
          </Point>
        </Placemark>
        <Placemark>
          <name>RCH931 (C-17 Globemaster III)</name>
          <description>Type: C-17 Globemaster III&#xA;Callsign: RCH931&#xA;Hex: ae119b&#xA;Altitude: 2000 ft&#xA;Speed: 0.0 kts&#xA;Heading: 0.0&#xA;Source: airplanes.live</description>
          <Point>
            <coordinates>0,0,2000</coordinates>
          </Point>
        </Placemark>
        <Placemark>
          <name>STGN05 (G120)</name>
          <description>Type: G120&#xA;Callsign: STGN05&#xA;Hex: c02835&#xA;Altitude: 1800 ft&#xA;Speed: 111.7 kts&#xA;Heading: 199.9&#xA;Source: adsb.lol</description>
          <Point>
            <coordinates>-98.32489,49.889102,1800</coordinates>
          </Point>
        </Placemark>
        <Placemark>
          <name>VACA51 (TEX2)</name>
          <description>Type: TEX2&#xA;Callsign: VACA51&#xA;Hex: ae13a6&#xA;Altitude: 2400 ft&#xA;Speed: 158.0 kts&#xA;Heading: 148.7&#xA;Source: airplanes.live</description>
          <Point>
            <coordinates>-100.760193,29.332332,2400</coordinates>
          </Point>
        </Placemark>
        <Placemark>
          <name>GOAT03 (TEX2)</name>
          <description>Type: TEX2&#xA;Callsign: GOAT03&#xA;Hex: ae1e68&#xA;Altitude: 11300 ft&#xA;Speed: 135.9 kts&#xA;Heading: 344.6&#xA;Source: airplanes.live</description>
          <Point>
            <coordinates>-98.138228,29.02446,11300</coordinates>
          </Point>
        </Placemark>
        <Placemark>
          <name>SPOOKY1 (T-38 Talon)</name>
          <description>Type: T-38 Talon&#xA;Callsign: SPOOKY1&#xA;Hex: adffc6&#xA;Altitude: 23000 ft&#xA;Speed: 392.7 kts&#xA;Heading: 307.9&#xA;Source: adsb.lol</description>
          <Point>
            <coordinates>-89.181238,34.399384,23000</coordinates>
          </Point>
        </Placemark>
        <Placemark>
          <name>G20686 (H-60 Black Hawk)</name>
          <description>Type: H-60 Black Hawk&#xA;Callsign: G20686&#xA;Hex: ae579e&#xA;Altitude: 1475 ft&#xA;Speed: 103.1 kts&#xA;Heading: 2.8&#xA;Source: adsb.lol</description>
          <Point>
            <coordinates>-82.224265,29.061072,1475</coordinates>
          </Point>
        </Placemark>
        <Placemark>
          <name>445566 (Unknown Type)</name>
          <description>Type: Unknown Type&#xA;Hex: 445566&#xA;Altitude: 0 ft&#xA;Speed: 0.0 kts&#xA;Heading: 0.0&#xA;Source: airplanes.live</description>
          <Point>
            <coordinates>0,0,0</coordinates>
          </Point>
        </Placemark>
        <Placemark>
          <name>adf7d6 (Unknown Type)</name>
          <description>Type: Unknown Type&#xA;Hex: adf7d6&#xA;Altitude: 0 ft&#xA;Speed: 0.0 kts&#xA;Heading: 0.0&#xA;Source: airplanes.live</description>
          <Point>
            <coordinates>0,0,0</coordinates>
          </Point>
        </Placemark>
        <Placemark>
          <name>R08478 (CH-47 Chinook)</name>
          <description>Type: CH-47 Chinook&#xA;Callsign: R08478&#xA;Hex: ae6996&#xA;Altitude: 2975 ft&#xA;Speed: 123.2 kts&#xA;Heading: 302.4&#xA;Source: adsb.lol</description>
          <Point>
            <coordinates>-116.901033,32.859828,2975</coordinates>
          </Point>
        </Placemark>
        <Placemark>
          <name>TACK1 (T-38 Talon)</name>
          <description>Type: T-38 Talon&#xA;Callsign: TACK1&#xA;Hex: ae00e9&#xA;Altitude: 16600 ft&#xA;Speed: 436.1 kts&#xA;Heading: 263.1&#xA;Source: airplanes.live</description>
          <Point>
            <coordinates>-99.213885,29.696365,16600</coordinates>
          </Point>
        </Placemark>
        <Placemark>
          <name>HAWK264 (HAWK)</name>
          <description>Type: HAWK&#xA;Callsign: HAWK264&#xA;Hex: ae631e&#xA;Altitude: 0 ft&#xA;Speed: 0.0 kts&#xA;Heading: 0.0&#xA;Source: adsb.lol</description>
          <Point>
            <coordinates>0,0,0</coordinates>
          </Point>
        </Placemark>
        <Placemark>
          <name>STGRY22 (BE9L)</name>
          <description>Type: BE9L&#xA;Callsign: STGRY22&#xA;Hex: ae14a7&#xA;Altitude: 3925 ft&#xA;Speed: 175.0 kts&#xA;Heading: 315.3&#xA;Source: airplanes.live</description>
          <Point>
            <coordinates>-96.935013,28.736603,3925</coordinates>
          </Point>
        </Placemark>
        <Placemark>
          <name>GRZL44 (DH8A)</name>
          <description>Type: DH8A&#xA;Callsign: GRZL44&#xA;Hex: c2b2dd&#xA;Altitude: 11900 ft&#xA;Speed: 188.3 kts&#xA;Heading: 267.0&#xA;Source: airplanes.live</description>
          <Point>
            <coordinates>-95.57185,51.017212,11900</coordinates>
          </Point>
        </Placemark>
        <Placemark>
          <name>adf7e3 (Unknown Type)</name>
          <description>Type: Unknown Type&#xA;Hex: adf7e3&#xA;Altitude: 0 ft&#xA;Speed: 0.0 kts&#xA;Heading: 0.0&#xA;Source: adsb.lol</description>
          <Point>
            <coordinates>0,0,0</coordinates>
          </Point>
        </Placemark>
        <Placemark>
          <name>GAFTT33 (Unknown Type)</name>
          <description>Type: Unknown Type&#xA;Callsign: GAFTT33&#xA;Hex: 3ea3c3&#xA;Altitude: 62700 ft&#xA;Speed: 0.0 kts&#xA;Heading: 0.0&#xA;Source: airplanes.live</description>
          <Point>
            <coordinates>0,0,62700</coordinates>
          </Point>
        </Placemark>
        <Placemark>
          <name>CHHILI61 (C-5M Super Galaxy)</name>
          <description>Type: C-5M Super Galaxy&#xA;Callsign: CHHILI61&#xA;Hex: ae0583&#xA;Altitude: 1575 ft&#xA;Speed: 0.0 kts&#xA;Heading: 0.0&#xA;Source: adsb.lol</description>
          <Point>
            <coordinates>0,0,1575</coordinates>
          </Point>
        </Placemark>
        <Placemark>
          <name>BDIT304 (TEX2)</name>
          <description>Type: TEX2&#xA;Callsign: BDIT304&#xA;Hex: c2b017&#xA;Altitude: 2225 ft&#xA;Speed: 105.0 kts&#xA;Heading: 109.5&#xA;Source: airplanes.live</description>
          <Point>
            <coordinates>-105.595093,50.339216,2225</coordinates>
          </Point>
        </Placemark>
        <Placemark>
          <name>GOAT28 (TEX2)</name>
          <description>Type: TEX2&#xA;Callsign: GOAT28&#xA;Hex: ae0206&#xA;Altitude: 9450 ft&#xA;Speed: 129.0 kts&#xA;Heading: 228.8&#xA;Source: airplanes.live</description>
          <Point>
            <coordinates>-97.085374,30.093842,9450</coordinates>
          </Point>
        </Placemark>
        <Placemark>
          <name>SH246 (TEX2)</name>
          <description>Type: TEX2&#xA;Callsign: SH246&#xA;Hex: ae58eb&#xA;Altitude: 4400 ft&#xA;Speed: 209.3 kts&#xA;Heading: 337.2&#xA;Source: airplanes.live</description>
          <Point>
            <coordinates>-87.457688,30.926102,4400</coordinates>
          </Point>
        </Placemark>
        <Placemark>
          <name>ae77ce (H-60 Black Hawk)</name>
          <description>Type: H-60 Black Hawk&#xA;Hex: ae77ce&#xA;Altitude: 0 ft&#xA;Speed: 98.8 kts&#xA;Heading: 201.4&#xA;Source: airplanes.live</description>
          <Point>
            <coordinates>0,0,0</coordinates>
          </Point>
        </Placemark>
        <Placemark>
          <name>adfaed (Unknown Type)</name>
          <description>Type: Unknown Type&#xA;Hex: adfaed&#xA;Altitude: 80000 ft&#xA;Speed: 0.0 kts&#xA;Heading: 0.0&#xA;Source: airplanes.live</description>
          <Point>
            <coordinates>0,0,80000</coordinates>
          </Point>
        </Placemark>
        <Placemark>
          <name>RCH400 (C-17 Globemaster III)</name>
          <description>Type: C-17 Globemaster III&#xA;Callsign: RCH400&#xA;Hex: ae07fd&#xA;Altitude: 1825 ft&#xA;Speed: 0.0 kts&#xA;Heading: 0.0&#xA;Source: airplanes.live</description>
          <Point>
            <coordinates>0,0,1825</coordinates>
          </Point>
        </Placemark>
        <Placemark>
          <name>37d216 (Unknown Type)</name>
          <description>Type: Unknown Type&#xA;Hex: 37d216&#xA;Altitude: 95000 ft&#xA;Speed: 0.0 kts&#xA;Heading: 0.0&#xA;Source: adsb.lol</description>
          <Point>
            <coordinates>0,0,95000</coordinates>
          </Point>
        </Placemark>
        <Placemark>
          <name>c041f6 (B412)</name>
          <description>Type: B412&#xA;Hex: c041f6&#xA;Altitude: 0 ft&#xA;Speed: 70.3 kts&#xA;Heading: 119.8&#xA;Source: adsb.lol</description>
          <Point>
            <coordinates>0,0,0</coordinates>
          </Point>
        </Placemark>
        <Placemark>
          <name>CASH11 (TEX2)</name>
          <description>Type: TEX2&#xA;Callsign: CASH11&#xA;Hex: ae1e8f&#xA;Altitude: 8450 ft&#xA;Speed: 235.0 kts&#xA;Heading: 197.6&#xA;Source: airplanes.live</description>
          <Point>
            <coordinates>-100.814047,30.412445,8450</coordinates>
          </Point>
        </Placemark>
        <Placemark>
          <name>TEST1234 (TWR)</name>
          <description>Type: TWR&#xA;Callsign: TEST1234&#xA;Hex: adfbdd&#xA;Altitude: 0 ft&#xA;Speed: 0.0 kts&#xA;Heading: 0.0&#xA;Source: adsb.lol</description>
          <Point>
            <coordinates>0,0,0</coordinates>
          </Point>
        </Placemark>
        <Placemark>
          <name>ae749c (P-8A Poseidon)</name>
          <description>Type: P-8A Poseidon&#xA;Hex: ae749c&#xA;Altitude: 1550 ft&#xA;Speed: 0.0 kts&#xA;Heading: 0.0&#xA;Source: airplanes.live</description>
          <Point>
            <coordinates>0,0,1550</coordinates>
          </Point>
        </Placemark>
        <Placemark>
          <name>BLCKFM (G120)</name>
          <description>Type: G120&#xA;Callsign: BLCKFM&#xA;Hex: c0282d&#xA;Altitude: 3400 ft&#xA;Speed: 131.6 kts&#xA;Heading: 258.6&#xA;Source: adsb.lol</description>
          <Point>
            <coordinates>-98.616678,49.659668,3400</coordinates>
          </Point>
        </Placemark>
        <Placemark>
          <name>ORCA82 (T-38 Talon)</name>
          <description>Type: T-38 Talon&#xA;Callsign: ORCA82&#xA;Hex: ae005b&#xA;Altitude: 14650 ft&#xA;Speed: 432.8 kts&#xA;Heading: 311.5&#xA;Source: airplanes.live</description>
          <Point>
            <coordinates>-99.661355,33.959702,14650</coordinates>
          </Point>
        </Placemark>
        <Placemark>
          <name>JOKEY11 (EC45)</name>
          <description>Type: EC45&#xA;Callsign: JOKEY11&#xA;Hex: ae5a78&#xA;Altitude: 1150 ft&#xA;Speed: 98.6 kts&#xA;Heading: 30.5&#xA;Source: airplanes.live</description>
          <Point>
            <coordinates>-86.408734,30.890622,1150</coordinates>
          </Point>
        </Placemark>
        <Placemark>
          <name>RRR4946 (A400M Atlas)</name>
          <description>Type: A400M Atlas&#xA;Callsign: RRR4946&#xA;Hex: 43c5dd&#xA;Altitude: 750 ft&#xA;Speed: 129.7 kts&#xA;Heading: 71.6&#xA;Source: airplanes.live</description>
          <Point>
            <coordinates>32.896878,34.60881,750</coordinates>
          </Point>
        </Placemark>
        <Placemark>
          <name>TEST1234 (Unknown Type)</name>
          <description>Type: Unknown Type&#xA;Callsign: TEST1234&#xA;Hex: adf997&#xA;Altitude: 0 ft&#xA;Speed: 0.0 kts&#xA;Heading: 0.0&#xA;Source: airplanes.live</description>
          <Point>
            <coordinates>0,0,0</coordinates>
          </Point>
        </Placemark>
        <Placemark>
          <name>ICY49 (H-60 Black Hawk)</name>
          <description>Type: H-60 Black Hawk&#xA;Callsign: ICY49&#xA;Hex: ae0cd4&#xA;Altitude: 1600 ft&#xA;Speed: 89.9 kts&#xA;Heading: 122.3&#xA;Source: airplanes.live</description>
          <Point>
            <coordinates>-149.619173,61.23143,1600</coordinates>
          </Point>
        </Placemark>
        <Placemark>
          <name>SHARK51 (SR20)</name>
          <description>Type: SR20&#xA;Callsign: SHARK51&#xA;Hex: ae4edb&#xA;Altitude: 7375 ft&#xA;Speed: 104.1 kts&#xA;Heading: 328.8&#xA;Source: airplanes.live</description>
          <Point>
            <coordinates>-104.8076,38.989197,7375</coordinates>
          </Point>
        </Placemark>
        <Placemark>
          <name>KATT23 (TEX2)</name>
          <description>Type: TEX2&#xA;Callsign: KATT23&#xA;Hex: ae113e&#xA;Altitude: 3325 ft&#xA;Speed: 254.1 kts&#xA;Heading: 91.6&#xA;Source: airplanes.live</description>
          <Point>
            <coordinates>-89.862617,29.918015,3325</coordinates>
          </Point>
        </Placemark>
        <Placemark>
          <name>ae73da (A119)</name>
          <description>Type: A119&#xA;Hex: ae73da&#xA;Altitude: 150 ft&#xA;Speed: 0.0 kts&#xA;Heading: 0.0&#xA;Source: airplanes.live</description>
          <Point>
            <coordinates>-86.934384,30.619171,150</coordinates>
          </Point>
        </Placemark>
        <Placemark>
          <name>LS30 (H-60 Black Hawk)</name>
          <description>Type: H-60 Black Hawk&#xA;Callsign: LS30&#xA;Hex: ae2762&#xA;Altitude: 725 ft&#xA;Speed: 93.4 kts&#xA;Heading: 260.1&#xA;Source: airplanes.live</description>
          <Point>
            <coordinates>-117.017303,32.546539,725</coordinates>
          </Point>
        </Placemark>
        <Placemark>
          <name>G026022 (H-60 Black Hawk)</name>
          <description>Type: H-60 Black Hawk&#xA;Callsign: G026022&#xA;Hex: ae0bec&#xA;Altitude: 5200 ft&#xA;Speed: 94.0 kts&#xA;Heading: 141.9&#xA;Source: airplanes.live</description>
          <Point>
            <coordinates>-112.004055,40.60491,5200</coordinates>
          </Point>
        </Placemark>
        <Placemark>
          <name>RCH227 (C-17 Globemaster III)</name>
          <description>Type: C-17 Globemaster III&#xA;Callsign: RCH227&#xA;Hex: ae1468&#xA;Altitude: 34975 ft&#xA;Speed: 544.8 kts&#xA;Heading: 66.9&#xA;Source: airplanes.live</description>
          <Point>
            <coordinates>-111.03241,36.344971,34975</coordinates>
          </Point>
        </Placemark>
        <Placemark>
          <name>WEIRD13 (EC45)</name>
          <description>Type: EC45&#xA;Callsign: WEIRD13&#xA;Hex: ae1c2a&#xA;Altitude: 475 ft&#xA;Speed: 71.0 kts&#xA;Heading: 156.3&#xA;Source: airplanes.live</description>
          <Point>
            <coordinates>-85.720825,31.143772,475</coordinates>
          </Point>
        </Placemark>
        <Placemark>
          <name>ae0505 (KC-135 Stratotanker)</name>
          <description>Type: KC-135 Stratotanker&#xA;Hex: ae0505&#xA;Altitude: 6300 ft&#xA;Speed: 0.0 kts&#xA;Heading: 0.0&#xA;Source: adsb.lol</description>
          <Point>
            <coordinates>0,0,6300</coordinates>
          </Point>
        </Placemark>
        <Placemark>
          <name>BRACE32 (H-60 Black Hawk)</name>
          <description>Type: H-60 Black Hawk&#xA;Callsign: BRACE32&#xA;Hex: ae2767&#xA;Altitude: 475 ft&#xA;Speed: 98.0 kts&#xA;Heading: 297.4&#xA;Source: adsb.lol</description>
          <Point>
            <coordinates>-118.219617,32.917739,475</coordinates>
          </Point>
        </Placemark>
        <Placemark>
          <name>ae68a6 (P8 ?)</name>
          <description>Type: P8 ?&#xA;Hex: ae68a6&#xA;Altitude: 34000 ft&#xA;Speed: 372.8 kts&#xA;Heading: 283.2&#xA;Source: adsb.lol</description>
          <Point>
            <coordinates>-117.038246,47.686844,34000</coordinates>
          </Point>
        </Placemark>
        <Placemark>
          <name>WEIRD42 (EC45)</name>
          <description>Type: EC45&#xA;Callsign: WEIRD42&#xA;Hex: ae5a71&#xA;Altitude: 475 ft&#xA;Speed: 65.0 kts&#xA;Heading: 96.0&#xA;Source: airplanes.live</description>
          <Point>
            <coordinates>-85.744202,31.152466,475</coordinates>
          </Point>
        </Placemark>
        <Placemark>
          <name>PAT245 (BE20)</name>
          <description>Type: BE20&#xA;Callsign: PAT245&#xA;Hex: ae571b&#xA;Altitude: 16400 ft&#xA;Speed: 290.8 kts&#xA;Heading: 94.3&#xA;Source: airplanes.live</description>
          <Point>
            <coordinates>-77.778521,40.223787,16400</coordinates>
          </Point>
        </Placemark>
        <Placemark>
          <name>TEST1234 (Unknown Type)</name>
          <description>Type: Unknown Type&#xA;Callsign: TEST1234&#xA;Hex: adfbdf&#xA;Altitude: 0 ft&#xA;Speed: 0.0 kts&#xA;Heading: 0.0&#xA;Source: adsb.lol</description>
          <Point>
            <coordinates>0,0,0</coordinates>
          </Point>
        </Placemark>
        <Placemark>
          <name>ae1458 (C-17 Globemaster III)</name>
          <description>Type: C-17 Globemaster III&#xA;Hex: ae1458&#xA;Altitude: 32000 ft&#xA;Speed: 0.0 kts&#xA;Heading: 0.0&#xA;Source: adsb.lol</description>
          <Point>
            <coordinates>0,0,32000</coordinates>
          </Point>
        </Placemark>
        <Placemark>
          <name>adfe71 (C-130 Hercules)</name>
          <description>Type: C-130 Hercules&#xA;Hex: adfe71&#xA;Altitude: 19100 ft&#xA;Speed: 0.0 kts&#xA;Heading: 0.0&#xA;Source: airplanes.live</description>
          <Point>
            <coordinates>0,0,19100</coordinates>
          </Point>
        </Placemark>
        <Placemark>
          <name>SH224 (TEX2)</name>
          <description>Type: TEX2&#xA;Callsign: SH224&#xA;Hex: ae54f2&#xA;Altitude: 950 ft&#xA;Speed: 240.5 kts&#xA;Heading: 3.8&#xA;Source: airplanes.live</description>
          <Point>
            <coordinates>0,0,950</coordinates>
          </Point>
        </Placemark>
        <Placemark>
          <name>PISTOL3 (T-38 Talon)</name>
          <description>Type: T-38 Talon&#xA;Callsign: PISTOL3&#xA;Hex: adff86&#xA;Altitude: 12175 ft&#xA;Speed: 337.4 kts&#xA;Heading: 338.1&#xA;Source: adsb.lol</description>
          <Point>
            <coordinates>-89.128829,34.265167,12175</coordinates>
          </Point>
        </Placemark>
        <Placemark>
          <name>BASS42 (T-38 Talon)</name>
          <description>Type: T-38 Talon&#xA;Callsign: BASS42&#xA;Hex: adff6a&#xA;Altitude: 14300 ft&#xA;Speed: 449.0 kts&#xA;Heading: 279.4&#xA;Source: airplanes.live</description>
          <Point>
            <coordinates>-88.267019,34.075241,14300</coordinates>
          </Point>
        </Placemark>
        <Placemark>
          <name>BELLS17 (EC45)</name>
          <description>Type: EC45&#xA;Callsign: BELLS17&#xA;Hex: ae205b&#xA;Altitude: 800 ft&#xA;Speed: 92.8 kts&#xA;Heading: 37.1&#xA;Source: airplanes.live</description>
          <Point>
            <coordinates>-86.369988,30.947388,800</coordinates>
          </Point>
        </Placemark>
        <Placemark>
          <name>RCH1848 (C-17 Globemaster III)</name>
          <description>Type: C-17 Globemaster III&#xA;Callsign: RCH1848&#xA;Hex: ae145b&#xA;Altitude: 28000 ft&#xA;Speed: 491.0 kts&#xA;Heading: 131.0&#xA;Source: airplanes.live</description>
          <Point>
            <coordinates>-82.416604,33.881196,28000</coordinates>
          </Point>
        </Placemark>
        <Placemark>
          <name>RCH199 (C-17 Globemaster III)</name>
          <description>Type: C-17 Globemaster III&#xA;Callsign: RCH199&#xA;Hex: ae49c7&#xA;Altitude: 30000 ft&#xA;Speed: 437.0 kts&#xA;Heading: 345.0&#xA;Source: airplanes.live</description>
          <Point>
            <coordinates>24.620897,39.267221,30000</coordinates>
          </Point>
        </Placemark>
        <Placemark>
          <name>TEXSIL (TEX2)</name>
          <description>Type: TEX2&#xA;Callsign: TEXSIL&#xA;Hex: c87f25&#xA;Altitude: 11100 ft&#xA;Speed: 199.5 kts&#xA;Heading: 244.5&#xA;Source: airplanes.live</description>
          <Point>
            <coordinates>173.890963,-41.70047,11100</coordinates>
          </Point>
        </Placemark>
        <Placemark>
          <name>ae67b5 (Unknown Type)</name>
          <description>Type: Unknown Type&#xA;Hex: ae67b5&#xA;Altitude: 20000 ft&#xA;Speed: 393.2 kts&#xA;Heading: 284.3&#xA;Source: airplanes.live</description>
          <Point>
            <coordinates>-119.809289,47.967612,20000</coordinates>
          </Point>
        </Placemark>
        <Placemark>
          <name>WATTS57 (H-60 Black Hawk)</name>
          <description>Type: H-60 Black Hawk&#xA;Callsign: WATTS57&#xA;Hex: ae0ac7&#xA;Altitude: 2400 ft&#xA;Speed: 94.9 kts&#xA;Heading: 168.4&#xA;Source: adsb.lol</description>
          <Point>
            <coordinates>-111.486731,32.688034,2400</coordinates>
          </Point>
        </Placemark>
        <Placemark>
          <name>BRCAT20 (TEX2)</name>
          <description>Type: TEX2&#xA;Callsign: BRCAT20&#xA;Hex: ae4eb0&#xA;Altitude: 5850 ft&#xA;Speed: 130.9 kts&#xA;Heading: 173.4&#xA;Source: adsb.lol</description>
          <Point>
            <coordinates>-104.54573,33.488749,5850</coordinates>
          </Point>
        </Placemark>
        <Placemark>
          <name>ELDER1 (T-38 Talon)</name>
          <description>Type: T-38 Talon&#xA;Callsign: ELDER1&#xA;Hex: ae00fa&#xA;Altitude: 20500 ft&#xA;Speed: 434.3 kts&#xA;Heading: 27.3&#xA;Source: adsb.lol</description>
          <Point>
            <coordinates>-98.295126,34.451706,20500</coordinates>
          </Point>
        </Placemark>
        <Placemark>
          <name>QUESO29 (BE20)</name>
          <description>Type: BE20&#xA;Callsign: QUESO29&#xA;Hex: ae08f8&#xA;Altitude: 19975 ft&#xA;Speed: 234.3 kts&#xA;Heading: 276.1&#xA;Source: airplanes.live</description>
          <Point>
            <coordinates>-88.486414,31.269557,19975</coordinates>
          </Point>
        </Placemark>
        <Placemark>
          <name>RCH690 (C-17 Globemaster III)</name>
          <description>Type: C-17 Globemaster III&#xA;Callsign: RCH690&#xA;Hex: ae1459&#xA;Altitude: 27000 ft&#xA;Speed: 417.0 kts&#xA;Heading: 87.0&#xA;Source: airplanes.live</description>
          <Point>
            <coordinates>11.750911,49.789222,27000</coordinates>
          </Point>
        </Placemark>
        <Placemark>
          <name>TEST1234 (Unknown Type)</name>
          <description>Type: Unknown Type&#xA;Callsign: TEST1234&#xA;Hex: adfbe2&#xA;Altitude: 0 ft&#xA;Speed: 0.0 kts&#xA;Heading: 0.0&#xA;Source: adsb.lol</description>
          <Point>
            <coordinates>0,0,0</coordinates>
          </Point>
        </Placemark>
        <Placemark>
          <name>HAWK201 (HAWK)</name>
          <description>Type: HAWK&#xA;Callsign: HAWK201&#xA;Hex: ae62f7&#xA;Altitude: 15900 ft&#xA;Speed: 485.1 kts&#xA;Heading: 51.2&#xA;Source: airplanes.live</description>
          <Point>
            <coordinates>-98.783785,27.956388,15900</coordinates>
          </Point>
        </Placemark>
        <Placemark>
          <name>KATT26 (TEX2)</name>
          <description>Type: TEX2&#xA;Callsign: KATT26&#xA;Hex: ae113f&#xA;Altitude: 10375 ft&#xA;Speed: 226.4 kts&#xA;Heading: 279.9&#xA;Source: adsb.lol</description>
          <Point>
            <coordinates>-87.96209,30.429977,10375</coordinates>
          </Point>
        </Placemark>
        <Placemark>
          <name>N (C208)</name>
          <description>Type: C208&#xA;Callsign: N&#xA;Hex: ae17cb&#xA;Altitude: 3500 ft&#xA;Speed: 113.9 kts&#xA;Heading: 218.6&#xA;Source: airplanes.live</description>
          <Point>
            <coordinates>-78.554192,35.553909,3500</coordinates>
          </Point>
        </Placemark>
        <Placemark>
          <name>BOLT78 (C150)</name>
          <description>Type: C150&#xA;Callsign: BOLT78&#xA;Hex: a71b04&#xA;Altitude: 8050 ft&#xA;Speed: 96.5 kts&#xA;Heading: 236.0&#xA;Source: adsb.lol</description>
          <Point>
            <coordinates>-104.810884,39.005859,8050</coordinates>
          </Point>
        </Placemark>
        <Placemark>
          <name>TROL81 (TEX2)</name>
          <description>Type: TEX2&#xA;Callsign: TROL81&#xA;Hex: c2b03f&#xA;Altitude: 6425 ft&#xA;Speed: 227.5 kts&#xA;Heading: 339.4&#xA;Source: adsb.one</description>
          <Point>
            <coordinates>-105.595526,49.940369,6425</coordinates>
          </Point>
        </Placemark>
        <Placemark>
          <name>ae63cf (T-38 Talon)</name>
          <description>Type: T-38 Talon&#xA;Hex: ae63cf&#xA;Altitude: 3000 ft&#xA;Speed: 198.5 kts&#xA;Heading: 10.7&#xA;Source: airplanes.live</description>
          <Point>
            <coordinates>-93.579773,38.605352,3000</coordinates>
          </Point>
        </Placemark>
        <Placemark>
          <name>ae61fe (C30J)</name>
          <description>Type: C30J&#xA;Hex: ae61fe&#xA;Altitude: 5775 ft&#xA;Speed: 177.0 kts&#xA;Heading: 202.0&#xA;Source: adsb.lol</description>
          <Point>
            <coordinates>-85.626731,30.483001,5775</coordinates>
          </Point>
        </Placemark>
        <Placemark>
          <name>CFC2569 (C30J)</name>
          <description>Type: C30J&#xA;Callsign: CFC2569&#xA;Hex: c2b5c1&#xA;Altitude: 29000 ft&#xA;Speed: 340.0 kts&#xA;Heading: 156.6&#xA;Source: airplanes.live</description>
          <Point>
            <coordinates>-83.153256,28.872117,29000</coordinates>
          </Point>
        </Placemark>
        <Placemark>
          <name>RCH713 (KC-135 Stratotanker)</name>
          <description>Type: KC-135 Stratotanker&#xA;Callsign: RCH713&#xA;Hex: ae0388&#xA;Altitude: 31000 ft&#xA;Speed: 525.0 kts&#xA;Heading: 70.0&#xA;Source: adsb.lol</description>
          <Point>
            <coordinates>-72.017894,47.074954,31000</coordinates>
          </Point>
        </Placemark>
        <Placemark>
          <name>ae013a (KC-135 Stratotanker)</name>
          <description>Type: KC-135 Stratotanker&#xA;Hex: ae013a&#xA;Altitude: 7175 ft&#xA;Speed: 270.0 kts&#xA;Heading: 271.2&#xA;Source: airplanes.live</description>
          <Point>
            <coordinates>0,0,7175</coordinates>
          </Point>
        </Placemark>
        <Placemark>
          <name>e483ad (P-3C Orion)</name>
          <description>Type: P-3C Orion&#xA;Hex: e483ad&#xA;Altitude: 22000 ft&#xA;Speed: 0.0 kts&#xA;Heading: 0.0&#xA;Source: airplanes.live</description>
          <Point>
            <coordinates>0,0,22000</coordinates>
          </Point>
        </Placemark>
        <Placemark>
          <name>VGBND19 (LYNX)</name>
          <description>Type: LYNX&#xA;Callsign: VGBND19&#xA;Hex: 43c6c4&#xA;Altitude: 350 ft&#xA;Speed: 0.0 kts&#xA;Heading: 0.0&#xA;Source: adsb.lol</description>
          <Point>
            <coordinates>0,0,350</coordinates>
          </Point>
        </Placemark>
        <Placemark>
          <name>CASH51 (TEX2)</name>
          <description>Type: TEX2&#xA;Callsign: CASH51&#xA;Hex: ae11b7&#xA;Altitude: 19050 ft&#xA;Speed: 296.4 kts&#xA;Heading: 74.7&#xA;Source: airplanes.live</description>
          <Point>
            <coordinates>-99.60232,30.184387,19050</coordinates>
          </Point>
        </Placemark>
        <Placemark>
          <name>TALON35 (HAWK)</name>
          <description>Type: HAWK&#xA;Callsign: TALON35&#xA;Hex: ae62b9&#xA;Altitude: 12850 ft&#xA;Speed: 309.4 kts&#xA;Heading: 307.6&#xA;Source: airplanes.live</description>
          <Point>
            <coordinates>-89.049792,32.862076,12850</coordinates>
          </Point>
        </Placemark>
        <Placemark>
          <name>TEST1234 (Unknown Type)</name>
          <description>Type: Unknown Type&#xA;Callsign: TEST1234&#xA;Hex: adf995&#xA;Altitude: 0 ft&#xA;Speed: 0.0 kts&#xA;Heading: 0.0&#xA;Source: adsb.lol</description>
          <Point>
            <coordinates>0,0,0</coordinates>
          </Point>
        </Placemark>
        <Placemark>
          <name>ae07ff (C-17 Globemaster III)</name>
          <description>Type: C-17 Globemaster III&#xA;Hex: ae07ff&#xA;Altitude: 0 ft&#xA;Speed: 0.0 kts&#xA;Heading: 0.0&#xA;Source: adsb.lol</description>
          <Point>
            <coordinates>0,0,0</coordinates>
          </Point>
        </Placemark>
        <Placemark>
          <name>RASTA41 (TEX2)</name>
          <description>Type: TEX2&#xA;Callsign: RASTA41&#xA;Hex: ae141f&#xA;Altitude: 12275 ft&#xA;Speed: 261.9 kts&#xA;Heading: 54.8&#xA;Source: airplanes.live</description>
          <Point>
            <coordinates>-100.500975,29.441437,12275</coordinates>
          </Point>
        </Placemark>
        <Placemark>
          <name>ORCA83 (T-38 Talon)</name>
          <description>Type: T-38 Talon&#xA;Callsign: ORCA83&#xA;Hex: adff46&#xA;Altitude: 14825 ft&#xA;Speed: 438.4 kts&#xA;Heading: 315.0&#xA;Source: airplanes.live</description>
          <Point>
            <coordinates>-99.664718,33.959244,14825</coordinates>
          </Point>
        </Placemark>
        <Placemark>
          <name>RN148 (TEX2)</name>
          <description>Type: TEX2&#xA;Callsign: RN148&#xA;Hex: ae54da&#xA;Altitude: 7225 ft&#xA;Speed: 246.0 kts&#xA;Heading: 37.6&#xA;Source: airplanes.live</description>
          <Point>
            <coordinates>-87.270436,31.253632,7225</coordinates>
          </Point>
        </Placemark>
        <Placemark>
          <name>ae5a58 (EC45)</name>
          <description>Type: EC45&#xA;Hex: ae5a58&#xA;Altitude: 0 ft&#xA;Speed: 101.1 kts&#xA;Heading: 294.5&#xA;Source: airplanes.live</description>
          <Point>
            <coordinates>0,0,0</coordinates>
          </Point>
        </Placemark>
        <Placemark>
          <name>BB094 (TEX2)</name>
          <description>Type: TEX2&#xA;Callsign: BB094&#xA;Hex: ae2edb&#xA;Altitude: 4775 ft&#xA;Speed: 188.7 kts&#xA;Heading: 332.9&#xA;Source: airplanes.live</description>
          <Point>
            <coordinates>-85.307268,32.806153,4775</coordinates>
          </Point>
        </Placemark>
        <Placemark>
          <name>SHARK40 (SR20)</name>
          <description>Type: SR20&#xA;Callsign: SHARK40&#xA;Hex: ae4ed9&#xA;Altitude: 8825 ft&#xA;Speed: 106.1 kts&#xA;Heading: 293.9&#xA;Source: airplanes.live</description>
          <Point>
            <coordinates>-104.225086,38.788284,8825</coordinates>
          </Point>
        </Placemark>
        <Placemark>
          <name>R26344 (H-60 Black Hawk)</name>
          <description>Type: H-60 Black Hawk&#xA;Callsign: R26344&#xA;Hex: ae0cc7&#xA;Altitude: 5800 ft&#xA;Speed: 0.0 kts&#xA;Heading: 0.0&#xA;Source: airplanes.live</description>
          <Point>
            <coordinates>-116.532669,34.85124,5800</coordinates>
          </Point>
        </Placemark>
        <Placemark>
          <name>PAT375 (BE20)</name>
          <description>Type: BE20&#xA;Callsign: PAT375&#xA;Hex: ae03fa&#xA;Altitude: 26000 ft&#xA;Speed: 235.0 kts&#xA;Heading: 250.1&#xA;Source: airplanes.live</description>
          <Point>
            <coordinates>-89.170422,33.005905,26000</coordinates>
          </Point>
        </Placemark>
        <Placemark>
          <name>REEF52 (T-38 Talon)</name>
          <description>Type: T-38 Talon&#xA;Callsign: REEF52&#xA;Hex: adff95&#xA;Altitude: 17300 ft&#xA;Speed: 482.6 kts&#xA;Heading: 130.1&#xA;Source: adsb.lol</description>
          <Point>
            <coordinates>-87.798328,34.353038,17300</coordinates>
          </Point>
        </Placemark>
        <Placemark>
          <name>CASTL04 (C-130 Hercules)</name>
          <description>Type: C-130 Hercules&#xA;Callsign: CASTL04&#xA;Hex: adfea3&#xA;Altitude: 2500 ft&#xA;Speed: 173.6 kts&#xA;Heading: 331.8&#xA;Source: airplanes.live</description>
          <Point>
            <coordinates>-75.459657,40.826173,2500</coordinates>
          </Point>
        </Placemark>
        <Placemark>
          <name>XA405 (A332)</name>
          <description>Type: A332&#xA;Callsign: XA405&#xA;Hex: 7cf867&#xA;Altitude: 30004 ft&#xA;Speed: 473.0 kts&#xA;Heading: 208.0&#xA;Source: airplanes.live</description>
          <Point>
            <coordinates>-161.929893,16.393318,30004</coordinates>
          </Point>
        </Placemark>
        <Placemark>
          <name>CFC3823 (CL60)</name>
          <description>Type: CL60&#xA;Callsign: CFC3823&#xA;Hex: c2c1f1&#xA;Altitude: 0 ft&#xA;Speed: 0.1 kts&#xA;Heading: 39.4&#xA;Source: airplanes.live</description>
          <Point>
            <coordinates>-149.986038,61.164555,0</coordinates>
          </Point>
        </Placemark>
        <Placemark>
          <name>LOOT88 (TEX2)</name>
          <description>Type: TEX2&#xA;Callsign: LOOT88&#xA;Hex: ae13a1&#xA;Altitude: 2900 ft&#xA;Speed: 216.0 kts&#xA;Heading: 180.5&#xA;Source: airplanes.live</description>
          <Point>
            <coordinates>-97.273006,35.334732,2900</coordinates>
          </Point>
        </Placemark>
        <Placemark>
          <name>SQF900 (GL5T)</name>
          <description>Type: GL5T&#xA;Callsign: SQF900&#xA;Hex: 505fa1&#xA;Altitude: 0 ft&#xA;Speed: 0.0 kts&#xA;Heading: 0.0&#xA;Source: airplanes.live</description>
          <Point>
            <coordinates>17.199386,48.167624,0</coordinates>
          </Point>
        </Placemark>
        <Placemark>
          <name>BOLT54 (C172)</name>
          <description>Type: C172&#xA;Callsign: BOLT54&#xA;Hex: aa7e89&#xA;Altitude: 10875 ft&#xA;Speed: 68.7 kts&#xA;Heading: 222.1&#xA;Source: adsb.lol</description>
          <Point>
            <coordinates>-104.168884,39.038148,10875</coordinates>
          </Point>
        </Placemark>
        <Placemark>
          <name>KNIFE12 (H-60 Black Hawk)</name>
          <description>Type: H-60 Black Hawk&#xA;Callsign: KNIFE12&#xA;Hex: ae6017&#xA;Altitude: 0 ft&#xA;Speed: 0.0 kts&#xA;Heading: 0.0&#xA;Source: airplanes.live</description>
          <Point>
            <coordinates>-117.257949,33.883369,0</coordinates>
          </Point>
        </Placemark>
        <Placemark>
          <name>KENT05 (T-38 Talon)</name>
          <description>Type: T-38 Talon&#xA;Callsign: KENT05&#xA;Hex: ae0059&#xA;Altitude: 19225 ft&#xA;Speed: 366.3 kts&#xA;Heading: 64.6&#xA;Source: airplanes.live</description>
          <Point>
            <coordinates>-99.140457,33.68399,19225</coordinates>
          </Point>
        </Placemark>
        <Placemark>
          <name>STEEL31 (TEX2)</name>
          <description>Type: TEX2&#xA;Callsign: STEEL31&#xA;Hex: ae11c4&#xA;Altitude: 11875 ft&#xA;Speed: 265.2 kts&#xA;Heading: 92.2&#xA;Source: adsb.lol</description>
          <Point>
            <coordinates>-97.926692,33.995316,11875</coordinates>
          </Point>
        </Placemark>
        <Placemark>
          <name>C6585 (AS65)</name>
          <description>Type: AS65&#xA;Callsign: C6585&#xA;Hex: ae26ab&#xA;Altitude: 475 ft&#xA;Speed: 81.2 kts&#xA;Heading: 4.2&#xA;Source: adsb.lol</description>
          <Point>
            <coordinates>-88.075635,30.328597,475</coordinates>
          </Point>
        </Placemark>
        <Placemark>
          <name>TEST1234 (Unknown Type)</name>
          <description>Type: Unknown Type&#xA;Callsign: TEST1234&#xA;Hex: 40003e&#xA;Altitude: 0 ft&#xA;Speed: 0.0 kts&#xA;Heading: 0.0&#xA;Source: adsb.lol</description>
          <Point>
            <coordinates>0,0,0</coordinates>
          </Point>
        </Placemark>
        <Placemark>
          <name>RCH284 (C-17 Globemaster III)</name>
          <description>Type: C-17 Globemaster III&#xA;Callsign: RCH284&#xA;Hex: ae123f&#xA;Altitude: 31000 ft&#xA;Speed: 0.0 kts&#xA;Heading: 0.0&#xA;Source: airplanes.live</description>
          <Point>
            <coordinates>0,0,31000</coordinates>
          </Point>
        </Placemark>
        <Placemark>
          <name>ae6801 (Unknown Type)</name>
          <description>Type: Unknown Type&#xA;Hex: ae6801&#xA;Altitude: 0 ft&#xA;Speed: 0.0 kts&#xA;Heading: 0.0&#xA;Source: adsb.lol</description>
          <Point>
            <coordinates>0,0,0</coordinates>
          </Point>
        </Placemark>
        <Placemark>
          <name>C6547 (AS65)</name>
          <description>Type: AS65&#xA;Callsign: C6547&#xA;Hex: ae2686&#xA;Altitude: -100 ft&#xA;Speed: 0.7 kts&#xA;Heading: 0.0&#xA;Source: airplanes.live</description>
          <Point>
            <coordinates>-124.211975,40.779282,-100</coordinates>
          </Point>
        </Placemark>
        <Placemark>
          <name>ORCA84 (T-38 Talon)</name>
          <description>Type: T-38 Talon&#xA;Callsign: ORCA84&#xA;Hex: ae006a&#xA;Altitude: 17700 ft&#xA;Speed: 404.4 kts&#xA;Heading: 301.4&#xA;Source: airplanes.live</description>
          <Point>
            <coordinates>-99.660458,33.953888,17700</coordinates>
          </Point>
        </Placemark>
        <Placemark>
          <name>SOLID62 (T-38 Talon)</name>
          <description>Type: T-38 Talon&#xA;Callsign: SOLID62&#xA;Hex: ae0005&#xA;Altitude: 15650 ft&#xA;Speed: 365.0 kts&#xA;Heading: 297.4&#xA;Source: airplanes.live</description>
          <Point>
            <coordinates>-99.122568,36.020027,15650</coordinates>
          </Point>
        </Placemark>
        <Placemark>
          <name>TACK4 (T-38 Talon)</name>
          <description>Type: T-38 Talon&#xA;Callsign: TACK4&#xA;Hex: ae00d4&#xA;Altitude: 17050 ft&#xA;Speed: 472.6 kts&#xA;Heading: 336.7&#xA;Source: adsb.lol</description>
          <Point>
            <coordinates>-99.113951,29.111298,17050</coordinates>
          </Point>
        </Placemark>
        <Placemark>
          <name>POBOY11 (EC45)</name>
          <description>Type: EC45&#xA;Callsign: POBOY11&#xA;Hex: ae1fb7&#xA;Altitude: 1350 ft&#xA;Speed: 94.4 kts&#xA;Heading: 297.1&#xA;Source: airplanes.live</description>
          <Point>
            <coordinates>-85.203204,30.849004,1350</coordinates>
          </Point>
        </Placemark>
        <Placemark>
          <name>R33507 (AH-64 Apache)</name>
          <description>Type: AH-64 Apache&#xA;Callsign: R33507&#xA;Hex: af53b8&#xA;Altitude: 2500 ft&#xA;Speed: 105.1 kts&#xA;Heading: 243.4&#xA;Source: airplanes.live</description>
          <Point>
            <coordinates>-79.233742,35.226777,2500</coordinates>
          </Point>
        </Placemark>
        <Placemark>
          <name>OMEGA04 (CH-47 Chinook)</name>
          <description>Type: CH-47 Chinook&#xA;Callsign: OMEGA04&#xA;Hex: 480447&#xA;Altitude: 800 ft&#xA;Speed: 114.0 kts&#xA;Heading: 273.0&#xA;Source: adsb.lol</description>
          <Point>
            <coordinates>5.095527,51.497012,800</coordinates>
          </Point>
        </Placemark>
        <Placemark>
          <name>TXLU03 (A139)</name>
          <description>Type: A139&#xA;Callsign: TXLU03&#xA;Hex: 4ca331&#xA;Altitude: 0 ft&#xA;Speed: 0.0 kts&#xA;Heading: 0.0&#xA;Source: adsb.lol</description>
          <Point>
            <coordinates>0,0,0</coordinates>
          </Point>
        </Placemark>
        <Placemark>
          <name>GAFW19 (A400M Atlas)</name>
          <description>Type: A400M Atlas&#xA;Callsign: GAFW19&#xA;Hex: 3f64f6&#xA;Altitude: 0 ft&#xA;Speed: 20.5 kts&#xA;Heading: 216.6&#xA;Source: airplanes.live</description>
          <Point>
            <coordinates>-112.376222,33.422377,0</coordinates>
          </Point>
        </Placemark>
        <Placemark>
          <name>LEPD31 (TEX2)</name>
          <description>Type: TEX2&#xA;Callsign: LEPD31&#xA;Hex: c2b0a3&#xA;Altitude: 0 ft&#xA;Speed: 59.5 kts&#xA;Heading: 118.1&#xA;Source: airplanes.live</description>
          <Point>
            <coordinates>-105.564825,50.328835,0</coordinates>
          </Point>
        </Placemark>
        <Placemark>
          <name>SHINR81 (TEX2)</name>
          <description>Type: TEX2&#xA;Callsign: SHINR81&#xA;Hex: ae13f5&#xA;Altitude: 3900 ft&#xA;Speed: 213.6 kts&#xA;Heading: 274.3&#xA;Source: adsb.lol</description>
          <Point>
            <coordinates>-97.79829,36.104416,3900</coordinates>
          </Point>
        </Placemark>
        <Placemark>
          <name>BGST344 (BE20)</name>
          <description>Type: BE20&#xA;Callsign: BGST344&#xA;Hex: ae43dd&#xA;Altitude: 5925 ft&#xA;Speed: 177.6 kts&#xA;Heading: 170.3&#xA;Source: airplanes.live</description>
          <Point>
            <coordinates>-96.818601,28.412567,5925</coordinates>
          </Point>
        </Placemark>
        <Placemark>
          <name>CHAOS17 (AH-64 Apache)</name>
          <description>Type: AH-64 Apache&#xA;Callsign: CHAOS17&#xA;Hex: ae6dc4&#xA;Altitude: 100 ft&#xA;Speed: 67.1 kts&#xA;Heading: 100.3&#xA;Source: adsb.lol</description>
          <Point>
            <coordinates>-80.817947,33.922755,100</coordinates>
          </Point>
        </Placemark>
        <Placemark>
          <name>ae63f6 (T-38 Talon)</name>
          <description>Type: T-38 Talon&#xA;Hex: ae63f6&#xA;Altitude: 2800 ft&#xA;Speed: 0.0 kts&#xA;Heading: 0.0&#xA;Source: airplanes.live</description>
          <Point>
            <coordinates>0,0,2800</coordinates>
          </Point>
        </Placemark>
        <Placemark>
          <name>G26676 (H-60 Black Hawk)</name>
          <description>Type: H-60 Black Hawk&#xA;Callsign: G26676&#xA;Hex: ae0e43&#xA;Altitude: 1900 ft&#xA;Speed: 0.0 kts&#xA;Heading: 0.0&#xA;Source: airplanes.live</description>
          <Point>
            <coordinates>0,0,1900</coordinates>
          </Point>
        </Placemark>
        <Placemark>
          <name>BOLT55 (C172)</name>
          <description>Type: C172&#xA;Callsign: BOLT55&#xA;Hex: aa7eac&#xA;Altitude: 10950 ft&#xA;Speed: 79.5 kts&#xA;Heading: 230.1&#xA;Source: adsb.lol</description>
          <Point>
            <coordinates>-104.247178,39.226868,10950</coordinates>
          </Point>
        </Placemark>
        <Placemark>
          <name>GOAT20 (TEX2)</name>
          <description>Type: TEX2&#xA;Callsign: GOAT20&#xA;Hex: ae13b6&#xA;Altitude: 975 ft&#xA;Speed: 125.4 kts&#xA;Heading: 146.1&#xA;Source: adsb.lol</description>
          <Point>
            <coordinates>-98.299686,29.544424,975</coordinates>
          </Point>
        </Placemark>
        <Placemark>
          <name>REEF51 (Unknown Type)</name>
          <description>Type: Unknown Type&#xA;Callsign: REEF51&#xA;Hex: adff7b&#xA;Altitude: 16900 ft&#xA;Speed: 478.0 kts&#xA;Heading: 125.1&#xA;Source: airplanes.live</description>
          <Point>
            <coordinates>-87.777455,34.335388,16900</coordinates>
          </Point>
        </Placemark>
        <Placemark>
          <name>RN204 (TEX2)</name>
          <description>Type: TEX2&#xA;Callsign: RN204&#xA;Hex: ae54de&#xA;Altitude: 7800 ft&#xA;Speed: 182.9 kts&#xA;Heading: 131.0&#xA;Source: airplanes.live</description>
          <Point>
            <coordinates>-86.266681,32.179962,7800</coordinates>
          </Point>
        </Placemark>
        <Placemark>
          <name>CARGO38 (Unknown Type)</name>
          <description>Type: Unknown Type&#xA;Callsign: CARGO38&#xA;Hex: ae52fe&#xA;Altitude: 775 ft&#xA;Speed: 88.2 kts&#xA;Heading: 3.9&#xA;Source: airplanes.live</description>
          <Point>
            <coordinates>-85.438696,31.414241,775</coordinates>
          </Point>
        </Placemark>
        <Placemark>
          <name>LUNA305 (Unknown Type)</name>
          <description>Type: Unknown Type&#xA;Callsign: LUNA305&#xA;Hex: 3f7128&#xA;Altitude: 0 ft&#xA;Speed: 0.0 kts&#xA;Heading: 0.0&#xA;Source: airplanes.live</description>
          <Point>
            <coordinates>10.772648,47.93093,0</coordinates>
          </Point>
        </Placemark>
        <Placemark>
          <name>TEST1234 (Unknown Type)</name>
          <description>Type: Unknown Type&#xA;Callsign: TEST1234&#xA;Hex: adf991&#xA;Altitude: 0 ft&#xA;Speed: 0.0 kts&#xA;Heading: 0.0&#xA;Source: adsb.lol</description>
          <Point>
            <coordinates>0,0,0</coordinates>
          </Point>
        </Placemark>
        <Placemark>
          <name>MRPHY89 (Unknown Type)</name>
          <description>Type: Unknown Type&#xA;Callsign: MRPHY89&#xA;Hex: 3f7949&#xA;Altitude: 1150 ft&#xA;Speed: 0.0 kts&#xA;Heading: 0.0&#xA;Source: adsb.lol</description>
          <Point>
            <coordinates>0,0,1150</coordinates>
          </Point>
        </Placemark>
        <Placemark>
          <name>JOLLY92 (H-60 Black Hawk)</name>
          <description>Type: H-60 Black Hawk&#xA;Callsign: JOLLY92&#xA;Hex: ae7800&#xA;Altitude: -50 ft&#xA;Speed: 63.0 kts&#xA;Heading: 122.7&#xA;Source: adsb.lol</description>
          <Point>
            <coordinates>-122.220783,36.784515,-50</coordinates>
          </Point>
        </Placemark>
        <Placemark>
          <name>WATTS17 (EC45)</name>
          <description>Type: EC45&#xA;Callsign: WATTS17&#xA;Hex: ae1f67&#xA;Altitude: 1875 ft&#xA;Speed: 69.1 kts&#xA;Heading: 177.5&#xA;Source: airplanes.live</description>
          <Point>
            <coordinates>-111.488544,32.66066,1875</coordinates>
          </Point>
        </Placemark>
        <Placemark>
          <name>BRCAT22 (TEX2)</name>
          <description>Type: TEX2&#xA;Callsign: BRCAT22&#xA;Hex: ae2ef8&#xA;Altitude: 9000 ft&#xA;Speed: 255.7 kts&#xA;Heading: 39.6&#xA;Source: airplanes.live</description>
          <Point>
            <coordinates>-103.296035,34.047043,9000</coordinates>
          </Point>
        </Placemark>
        <Placemark>
          <name>GRIM25 (T-38 Talon)</name>
          <description>Type: T-38 Talon&#xA;Callsign: GRIM25&#xA;Hex: ae0025&#xA;Altitude: 20000 ft&#xA;Speed: 298.1 kts&#xA;Heading: 335.8&#xA;Source: airplanes.live</description>
          <Point>
            <coordinates>-98.331528,36.138199,20000</coordinates>
          </Point>
        </Placemark>
        <Placemark>
          <name>LYRE71 (TEX2)</name>
          <description>Type: TEX2&#xA;Callsign: LYRE71&#xA;Hex: ae1e4c&#xA;Altitude: 13925 ft&#xA;Speed: 264.8 kts&#xA;Heading: 222.2&#xA;Source: airplanes.live</description>
          <Point>
            <coordinates>-97.657578,29.660526,13925</coordinates>
          </Point>
        </Placemark>
        <Placemark>
          <name>BALL64 (TEX2)</name>
          <description>Type: TEX2&#xA;Callsign: BALL64&#xA;Hex: ae1e60&#xA;Altitude: 2750 ft&#xA;Speed: 162.3 kts&#xA;Heading: 350.4&#xA;Source: airplanes.live</description>
          <Point>
            <coordinates>-97.373543,35.257187,2750</coordinates>
          </Point>
        </Placemark>
        <Placemark>
          <name>FAST35 (T-38 Talon)</name>
          <description>Type: T-38 Talon&#xA;Callsign: FAST35&#xA;Hex: ae63dc&#xA;Altitude: 3800 ft&#xA;Speed: 296.1 kts&#xA;Heading: 181.7&#xA;Source: airplanes.live</description>
          <Point>
            <coordinates>-93.764847,38.56073,3800</coordinates>
          </Point>
        </Placemark>
        <Placemark>
          <name>MORPH35 (EC45)</name>
          <description>Type: EC45&#xA;Callsign: MORPH35&#xA;Hex: ae1c35&#xA;Altitude: 725 ft&#xA;Speed: 93.2 kts&#xA;Heading: 305.4&#xA;Source: airplanes.live</description>
          <Point>
            <coordinates>-85.665234,31.221189,725</coordinates>
          </Point>
        </Placemark>
        <Placemark>
          <name>ae07f4 (C-17 Globemaster III)</name>
          <description>Type: C-17 Globemaster III&#xA;Hex: ae07f4&#xA;Altitude: 2100 ft&#xA;Speed: 0.0 kts&#xA;Heading: 0.0&#xA;Source: adsb.lol</description>
          <Point>
            <coordinates>0,0,2100</coordinates>
          </Point>
        </Placemark>
        <Placemark>
          <name>E83173 (C30J)</name>
          <description>Type: C30J&#xA;Callsign: E83173&#xA;Hex: ae29dd&#xA;Altitude: 6925 ft&#xA;Speed: 236.0 kts&#xA;Heading: 257.0&#xA;Source: adsb.lol</description>
          <Point>
            <coordinates>-98.030477,29.87238,6925</coordinates>
          </Point>
        </Placemark>
        <Placemark>
          <name>FANGS96 (TEX2)</name>
          <description>Type: TEX2&#xA;Callsign: FANGS96&#xA;Hex: ae1e54&#xA;Altitude: 17675 ft&#xA;Speed: 212.5 kts&#xA;Heading: 25.4&#xA;Source: airplanes.live</description>
          <Point>
            <coordinates>-97.920119,29.210877,17675</coordinates>
          </Point>
        </Placemark>
        <Placemark>
          <name>MNTNA65 (BE9L)</name>
          <description>Type: BE9L&#xA;Callsign: MNTNA65&#xA;Hex: ae14ba&#xA;Altitude: 1525 ft&#xA;Speed: 183.0 kts&#xA;Heading: 13.2&#xA;Source: airplanes.live</description>
          <Point>
            <coordinates>-97.168999,27.692484,1525</coordinates>
          </Point>
        </Placemark>
        <Placemark>
          <name>DEALS97 (EC45)</name>
          <description>Type: EC45&#xA;Callsign: DEALS97&#xA;Hex: ae5a5a&#xA;Altitude: 400 ft&#xA;Speed: 90.0 kts&#xA;Heading: 275.7&#xA;Source: airplanes.live</description>
          <Point>
            <coordinates>-85.935165,31.347382,400</coordinates>
          </Point>
        </Placemark>
        <Placemark>
          <name>TEST1234 (TWR)</name>
          <description>Type: TWR&#xA;Callsign: TEST1234&#xA;Hex: 400006&#xA;Altitude: 0 ft&#xA;Speed: 0.0 kts&#xA;Heading: 0.0&#xA;Source: adsb.lol</description>
          <Point>
            <coordinates>0,0,0</coordinates>
          </Point>
        </Placemark>
        <Placemark>
          <name>ICY10 (H-60 Black Hawk)</name>
          <description>Type: H-60 Black Hawk&#xA;Callsign: ICY10&#xA;Hex: ae64ac&#xA;Altitude: 0 ft&#xA;Speed: 0.0 kts&#xA;Heading: 0.0&#xA;Source: airplanes.live</description>
          <Point>
            <coordinates>-149.662857,61.26321,0</coordinates>
          </Point>
        </Placemark>
        <Placemark>
          <name>DEVIL73 (TEX2)</name>
          <description>Type: TEX2&#xA;Callsign: DEVIL73&#xA;Hex: ae1117&#xA;Altitude: 10650 ft&#xA;Speed: 202.8 kts&#xA;Heading: 143.0&#xA;Source: airplanes.live</description>
          <Point>
            <coordinates>-100.63105,29.228707,10650</coordinates>
          </Point>
        </Placemark>
        <Placemark>
          <name>NICAD23 (EC45)</name>
          <description>Type: EC45&#xA;Callsign: NICAD23&#xA;Hex: ae5a67&#xA;Altitude: 750 ft&#xA;Speed: 60.0 kts&#xA;Heading: 147.4&#xA;Source: airplanes.live</description>
          <Point>
            <coordinates>-85.670311,31.286224,750</coordinates>
          </Point>
        </Placemark>
        <Placemark>
          <name>MESSY77 (EC45)</name>
          <description>Type: EC45&#xA;Callsign: MESSY77&#xA;Hex: ae204f&#xA;Altitude: 650 ft&#xA;Speed: 66.1 kts&#xA;Heading: 176.5&#xA;Source: airplanes.live</description>
          <Point>
            <coordinates>-85.584627,31.229095,650</coordinates>
          </Point>
        </Placemark>
        <Placemark>
          <name>ae5245 (CH-47 Chinook)</name>
          <description>Type: CH-47 Chinook&#xA;Hex: ae5245&#xA;Altitude: 725 ft&#xA;Speed: 62.3 kts&#xA;Heading: 95.5&#xA;Source: airplanes.live</description>
          <Point>
            <coordinates>-85.475033,31.434677,725</coordinates>
          </Point>
        </Placemark>
        <Placemark>
          <name>ae3a65 (Unknown Type)</name>
          <description>Type: Unknown Type&#xA;Hex: ae3a65&#xA;Altitude: 28000 ft&#xA;Speed: 353.0 kts&#xA;Heading: 170.0&#xA;Source: airplanes.live</description>
          <Point>
            <coordinates>-81.440731,29.077024,28000</coordinates>
          </Point>
        </Placemark>
        <Placemark>
          <name>adfac3 (Unknown Type)</name>
          <description>Type: Unknown Type&#xA;Hex: adfac3&#xA;Altitude: 0 ft&#xA;Speed: 0.0 kts&#xA;Heading: 0.0&#xA;Source: adsb.lol</description>
          <Point>
            <coordinates>0,0,0</coordinates>
          </Point>
        </Placemark>
        <Placemark>
          <name>e80674 (C-130 Hercules)</name>
          <description>Type: C-130 Hercules&#xA;Hex: e80674&#xA;Altitude: 0 ft&#xA;Speed: 0.0 kts&#xA;Heading: 0.0&#xA;Source: airplanes.live</description>
          <Point>
            <coordinates>0,0,0</coordinates>
          </Point>
        </Placemark>
        <Placemark>
          <name>BARKY12 (TEX2)</name>
          <description>Type: TEX2&#xA;Callsign: BARKY12&#xA;Hex: ae10f8&#xA;Altitude: 4950 ft&#xA;Speed: 227.6 kts&#xA;Heading: 149.9&#xA;Source: adsb.lol</description>
          <Point>
            <coordinates>-97.47724,33.098236,4950</coordinates>
          </Point>
        </Placemark>
        <Placemark>
          <name>CODY06 (C-17 Globemaster III)</name>
          <description>Type: C-17 Globemaster III&#xA;Callsign: CODY06&#xA;Hex: ae07fa&#xA;Altitude: 37025 ft&#xA;Speed: 489.0 kts&#xA;Heading: 111.0&#xA;Source: adsb.lol</description>
          <Point>
            <coordinates>-93.3007,36.006625,37025</coordinates>
          </Point>
        </Placemark>
        <Placemark>
          <name>RN223 (TEX2)</name>
          <description>Type: TEX2&#xA;Callsign: RN223&#xA;Hex: ae54f1&#xA;Altitude: 2350 ft&#xA;Speed: 209.6 kts&#xA;Heading: 350.9&#xA;Source: airplanes.live</description>
          <Point>
            <coordinates>-87.851239,31.024599,2350</coordinates>
          </Point>
        </Placemark>
        <Placemark>
          <name>ae05a0 (KC-135 Stratotanker)</name>
          <description>Type: KC-135 Stratotanker&#xA;Hex: ae05a0&#xA;Altitude: 31000 ft&#xA;Speed: 539.1 kts&#xA;Heading: 80.1&#xA;Source: airplanes.live</description>
          <Point>
            <coordinates>-83.409864,43.260681,31000</coordinates>
          </Point>
        </Placemark>
        <Placemark>
          <name>c87f12 (NH90)</name>
          <description>Type: NH90&#xA;Hex: c87f12&#xA;Altitude: 3500 ft&#xA;Speed: 175.3 kts&#xA;Heading: 353.1&#xA;Source: adsb.lol</description>
          <Point>
            <coordinates>175.348206,-39.14587,3500</coordinates>
          </Point>
        </Placemark>
        <Placemark>
          <name>VFR (Unknown Type)</name>
          <description>Type: Unknown Type&#xA;Callsign: VFR&#xA;Hex: c239fc&#xA;Altitude: 0 ft&#xA;Speed: 0.0 kts&#xA;Heading: 0.0&#xA;Source: adsb.lol</description>
          <Point>
            <coordinates>0,0,0</coordinates>
          </Point>
        </Placemark>
        <Placemark>
          <name>TEST1234 (TWR)</name>
          <description>Type: TWR&#xA;Callsign: TEST1234&#xA;Hex: adfbde&#xA;Altitude: 0 ft&#xA;Speed: 0.0 kts&#xA;Heading: 0.0&#xA;Source: adsb.lol</description>
          <Point>
            <coordinates>0,0,0</coordinates>
          </Point>
        </Placemark>
        <Placemark>
          <name>KING81 (C30J)</name>
          <description>Type: C30J&#xA;Callsign: KING81&#xA;Hex: ae29d9&#xA;Altitude: 10200 ft&#xA;Speed: 0.0 kts&#xA;Heading: 0.0&#xA;Source: airplanes.live</description>
          <Point>
            <coordinates>0,0,10200</coordinates>
          </Point>
        </Placemark>
        <Placemark>
          <name>HOBBY05 (C30J)</name>
          <description>Type: C30J&#xA;Callsign: HOBBY05&#xA;Hex: ae1443&#xA;Altitude: 1575 ft&#xA;Speed: 244.1 kts&#xA;Heading: 317.2&#xA;Source: airplanes.live</description>
          <Point>
            <coordinates>-158.198191,21.19286,1575</coordinates>
          </Point>
        </Placemark>
        <Placemark>
          <name>RANDY78 (T-38 Talon)</name>
          <description>Type: T-38 Talon&#xA;Callsign: RANDY78&#xA;Hex: adff5c&#xA;Altitude: 2050 ft&#xA;Speed: 203.8 kts&#xA;Heading: 290.4&#xA;Source: airplanes.live</description>
          <Point>
            <coordinates>-98.274967,29.565047,2050</coordinates>
          </Point>
        </Placemark>
        <Placemark>
          <name>KATT22 (TEX2)</name>
          <description>Type: TEX2&#xA;Callsign: KATT22&#xA;Hex: ae114d&#xA;Altitude: 3725 ft&#xA;Speed: 142.3 kts&#xA;Heading: 245.1&#xA;Source: airplanes.live</description>
          <Point>
            <coordinates>-88.532556,30.48748,3725</coordinates>
          </Point>
        </Placemark>
        <Placemark>
          <name>RN203 (TEX2)</name>
          <description>Type: TEX2&#xA;Callsign: RN203&#xA;Hex: ae54dd&#xA;Altitude: 6850 ft&#xA;Speed: 235.2 kts&#xA;Heading: 23.3&#xA;Source: airplanes.live</description>
          <Point>
            <coordinates>-86.591656,31.698815,6850</coordinates>
          </Point>
        </Placemark>
        <Placemark>
          <name>ae7426 (A119)</name>
          <description>Type: A119&#xA;Hex: ae7426&#xA;Altitude: 0 ft&#xA;Speed: 0.0 kts&#xA;Heading: 0.0&#xA;Source: airplanes.live</description>
          <Point>
            <coordinates>0,0,0</coordinates>
          </Point>
        </Placemark>
        <Placemark>
          <name>SKULL82 (H-60 Black Hawk)</name>
          <description>Type: H-60 Black Hawk&#xA;Callsign: SKULL82&#xA;Hex: ae6da4&#xA;Altitude: 5175 ft&#xA;Speed: 1.2 kts&#xA;Heading: 0.0&#xA;Source: adsb.lol</description>
          <Point>
            <coordinates>-106.565813,34.951172,5175</coordinates>
          </Point>
        </Placemark>
        <Placemark>
          <name>BB158 (TEX2)</name>
          <description>Type: TEX2&#xA;Callsign: BB158&#xA;Hex: ae4a27&#xA;Altitude: 1325 ft&#xA;Speed: 218.0 kts&#xA;Heading: 270.8&#xA;Source: airplanes.live</description>
          <Point>
            <coordinates>-89.494252,30.210251,1325</coordinates>
          </Point>
        </Placemark>