<?xml version="1.0" encoding="UTF-8"?>
<kml xmlns="http://www.opengis.net/kml/2.2">
  <Document>
    <name>US Military Tracker</name>
    <description>Generated: 2026-03-02T22:50:11Z | Chairman: groq | Score: 0.00</description>
    <Folder>
      <name>Aircraft (342 tracked)</name>
      <Folder>
        <name>USAF</name>
        <Placemark>
          <name>PAT189 (BE20)</name>
          <description>Type: BE20&#xA;Callsign: PAT189&#xA;Hex: adfe8f&#xA;Branch: USAF&#xA;Mission: ISR&#xA;Altitude: 12550 ft&#xA;Speed: 175.6 kts&#xA;Heading: 290.0&#xA;Source: adsb.lol</description>
          <Point>
            <coordinates>-108.850797,45.888519,12550</coordinates>
          </Point>
        </Placemark>
        <Placemark>
          <name>SHOOT77 (T-38 Talon)</name>
          <description>Type: T-38 Talon&#xA;Callsign: SHOOT77&#xA;Hex: ae0019&#xA;Branch: USAF&#xA;Mission: training&#xA;Altitude: 6000 ft&#xA;Speed: 339.2 kts&#xA;Heading: 10.0&#xA;Source: airplanes.live</description>
          <Point>
            <coordinates>-98.240261,36.344788,6000</coordinates>
          </Point>
        </Placemark>
        <Placemark>
          <name>GOONY61 (C30J)</name>
          <description>Type: C30J&#xA;Callsign: GOONY61&#xA;Hex: ae0253&#xA;Branch: USAF&#xA;Mission: transport&#xA;Altitude: 28000 ft&#xA;Speed: 287.8 kts&#xA;Heading: 252.8&#xA;Source: airplanes.live</description>
          <Point>
            <coordinates>-94.105568,34.239869,28000</coordinates>
          </Point>
        </Placemark>
        <Placemark>
          <name>FORGE78 (GLF5)</name>
          <description>Type: GLF5&#xA;Callsign: FORGE78&#xA;Hex: ae13d1&#xA;Branch: USAF&#xA;Mission: training&#xA;Altitude: 4825 ft&#xA;Speed: 204.6 kts&#xA;Heading: 184.2&#xA;Source: airplanes.live</description>
          <Point>
            <coordinates>-76.773715,38.928955,4825</coordinates>
          </Point>
        </Placemark>
        <Placemark>
          <name>COBRA34 (TEX2)</name>
          <description>Type: TEX2&#xA;Callsign: COBRA34&#xA;Hex: ae13fb&#xA;Branch: USAF&#xA;Mission: training&#xA;Altitude: 11375 ft&#xA;Speed: 228.5 kts&#xA;Heading: 206.8&#xA;Source: adsb.lol</description>
          <Point>
            <coordinates>-98.164387,34.35085,11375</coordinates>
          </Point>
        </Placemark>
        <Placemark>
          <name>SH070 (TEX2)</name>
          <description>Type: TEX2&#xA;Callsign: SH070&#xA;Hex: ae1ecb&#xA;Branch: USAF&#xA;Mission: training&#xA;Altitude: 1800 ft&#xA;Speed: 202.2 kts&#xA;Heading: 152.3&#xA;Source: adsb.lol</description>
          <Point>
            <coordinates>-88.212799,30.653438,1800</coordinates>
          </Point>
        </Placemark>
        <Placemark>
          <name>TACO19 (C30J)</name>
          <description>Type: C30J&#xA;Callsign: TACO19&#xA;Hex: ae596d&#xA;Branch: USAF&#xA;Mission: transport&#xA;Altitude: 20000 ft&#xA;Speed: 278.2 kts&#xA;Heading: 296.9&#xA;Source: airplanes.live</description>
          <Point>
            <coordinates>-84.878394,30.265332,20000</coordinates>
          </Point>
        </Placemark>
        <Placemark>
          <name>RCH724 (KC-135 Stratotanker)</name>
          <description>Type: KC-135 Stratotanker&#xA;Callsign: RCH724&#xA;Hex: ae0693&#xA;Branch: USAF&#xA;Mission: transport&#xA;Altitude: 31000 ft&#xA;Speed: 0.0 kts&#xA;Heading: 0.0&#xA;Source: adsb.lol</description>
          <Point>
            <coordinates>0,0,31000</coordinates>
          </Point>
        </Placemark>
        <Placemark>
          <name>ROVE76 (TEX2)</name>
          <description>Type: TEX2&#xA;Callsign: ROVE76&#xA;Hex: ae111c&#xA;Branch: USAF&#xA;Mission: training&#xA;Altitude: 14925 ft&#xA;Speed: 280.5 kts&#xA;Heading: 144.7&#xA;Source: airplanes.live</description>
          <Point>
            <coordinates>-99.889124,30.686164,14925</coordinates>
          </Point>
        </Placemark>
        <Placemark>
          <name>CHEVY1 (T-38 Talon)</name>
          <description>Type: T-38 Talon&#xA;Callsign: CHEVY1&#xA;Hex: ae00f5&#xA;Branch: USAF&#xA;Mission: training&#xA;Altitude: 17825 ft&#xA;Speed: 533.5 kts&#xA;Heading: 169.7&#xA;Source: adsb.lol</description>
          <Point>
            <coordinates>-98.273106,34.926003,17825</coordinates>
          </Point>
        </Placemark>
        <Placemark>
          <name>GHOST41 (TEX2)</name>
          <description>Type: TEX2&#xA;Callsign: GHOST41&#xA;Hex: ae0899&#xA;Branch: USAF&#xA;Mission: training&#xA;Altitude: 11350 ft&#xA;Speed: 228.6 kts&#xA;Heading: 186.8&#xA;Source: adsb.lol</description>
          <Point>
            <coordinates>-97.907522,34.702789,11350</coordinates>
          </Point>
        </Placemark>
      </Folder>
      <Folder>
        <name>USMC</name>
        <Placemark>
          <name>RUDY24 (V-22 Osprey)</name>
          <description>Type: V-22 Osprey&#xA;Callsign: RUDY24&#xA;Hex: ae6ba7&#xA;Branch: USMC&#xA;Mission: transport&#xA;Altitude: 75 ft&#xA;Speed: 39.1 kts&#xA;Heading: 302.5&#xA;Source: airplanes.live</description>
          <Point>
            <coordinates>-117.212695,32.69783,75</coordinates>
          </Point>
        </Placemark>
      </Folder>
      <Folder>
        <name>USN</name>
        <Placemark>
          <name>G20686 (H-60 Black Hawk)</name>
          <description>Type: H-60 Black Hawk&#xA;Callsign: G20686&#xA;Hex: ae579e&#xA;Branch: USN&#xA;Mission: search and rescue&#xA;Altitude: 0 ft&#xA;Speed: 0.0 kts&#xA;Heading: 0.0&#xA;Source: airplanes.live</description>
          <Point>
            <coordinates>-82.016588,27.992768,0</coordinates>
          </Point>
        </Placemark>
        <Placemark>
          <name>MAKO10 (H-60 Black Hawk)</name>
          <description>Type: H-60 Black Hawk&#xA;Callsign: MAKO10&#xA;Hex: ae6031&#xA;Branch: USN&#xA;Mission: search and rescue&#xA;Altitude: 2900 ft&#xA;Speed: 124.5 kts&#xA;Heading: 47.0&#xA;Source: airplanes.live</description>
          <Point>
            <coordinates>-119.761677,36.482391,2900</coordinates>
          </Point>
        </Placemark>
        <Placemark>
          <name>C2302 (CN35)</name>
          <description>Type: CN35&#xA;Callsign: C2302&#xA;Hex: ae2238&#xA;Branch: USN&#xA;Mission: transport&#xA;Altitude: 4075 ft&#xA;Speed: 180.6 kts&#xA;Heading: 97.6&#xA;Source: airplanes.live</description>
          <Point>
            <coordinates>-70.716311,41.790828,4075</coordinates>
          </Point>
        </Placemark>
        <Placemark>
          <name>OR11 (SW4)</name>
          <description>Type: SW4&#xA;Callsign: OR11&#xA;Hex: adfd83&#xA;Branch: USN&#xA;Mission: ISR&#xA;Altitude: 12400 ft&#xA;Speed: 207.4 kts&#xA;Heading: 13.1&#xA;Source: airplanes.live</description>
          <Point>
            <coordinates>-159.574069,21.995728,12400</coordinates>
          </Point>
        </Placemark>
        <Placemark>
          <name>FFAB123 (H-60 Black Hawk)</name>
          <description>Type: H-60 Black Hawk&#xA;Callsign: FFAB123&#xA;Hex: af4f2f&#xA;Branch: USN&#xA;Mission: search and rescue&#xA;Altitude: 875 ft&#xA;Speed: 81.0 kts&#xA;Heading: 347.2&#xA;Source: airplanes.live</description>
          <Point>
            <coordinates>-117.445221,32.843033,875</coordinates>
          </Point>
        </Placemark>
        <Placemark>
          <name>COBRA33 (TEX2)</name>
          <description>Type: TEX2&#xA;Callsign: COBRA33&#xA;Hex: ae110a&#xA;Branch: USN&#xA;Mission: patrol&#xA;Altitude: 11600 ft&#xA;Speed: 209.1 kts&#xA;Heading: 197.0&#xA;Source: airplanes.live</description>
          <Point>
            <coordinates>-98.09864,34.375336,11600</coordinates>
          </Point>
        </Placemark>
        <Placemark>
          <name>SH131 (TEX2)</name>
          <description>Type: TEX2&#xA;Callsign: SH131&#xA;Hex: ae4a0c&#xA;Branch: USN&#xA;Mission: ISR&#xA;Altitude: 1875 ft&#xA;Speed: 117.4 kts&#xA;Heading: 136.4&#xA;Source: airplanes.live</description>
          <Point>
            <coordinates>-88.318823,30.776917,1875</coordinates>
          </Point>
        </Placemark>
      </Folder>
      <Folder>
        <name>Unknown</name>
        <Placemark>
          <name>ae67c2 (Unknown Type)</name>
          <description>Type: Unknown Type&#xA;Hex: ae67c2&#xA;Altitude: 2825 ft&#xA;Speed: 235.0 kts&#xA;Heading: 317.8&#xA;Source: adsb.lol</description>
          <Point>
            <coordinates>-122.581329,48.477545,2825</coordinates>
          </Point>
        </Placemark>
        <Placemark>
          <name>SHOOT88 (T-38 Talon)</name>
          <description>Type: T-38 Talon&#xA;Callsign: SHOOT88&#xA;Hex: adffa5&#xA;Altitude: 1875 ft&#xA;Speed: 201.4 kts&#xA;Heading: 3.4&#xA;Source: adsb.lol</description>
          <Point>
            <coordinates>-97.381644,35.400975,1875</coordinates>
          </Point>
        </Placemark>
        <Placemark>
          <name>ae6057 (AH-64 Apache)</name>
          <description>Type: AH-64 Apache&#xA;Hex: ae6057&#xA;Altitude: 1500 ft&#xA;Speed: 0.0 kts&#xA;Heading: 0.0&#xA;Source: adsb.lol</description>
          <Point>
            <coordinates>0,0,1500</coordinates>
          </Point>
        </Placemark>
        <Placemark>
          <name>SNORT33 (T-38 Talon)</name>
          <description>Type: T-38 Talon&#xA;Callsign: SNORT33&#xA;Hex: ae0047&#xA;Altitude: 11400 ft&#xA;Speed: 392.7 kts&#xA;Heading: 54.3&#xA;Source: adsb.lol</description>
          <Point>
            <coordinates>-98.996682,33.586441,11400</coordinates>
          </Point>
        </Placemark>
        <Placemark>
          <name>R20430 (H-60 Black Hawk)</name>
          <description>Type: H-60 Black Hawk&#xA;Callsign: R20430&#xA;Hex: ae5383&#xA;Altitude: 475 ft&#xA;Speed: 40.5 kts&#xA;Heading: 69.8&#xA;Source: adsb.lol</description>
          <Point>
            <coordinates>-87.511304,36.66133,475</coordinates>
          </Point>
        </Placemark>
        <Placemark>
          <name>R20873 (H-60 Black Hawk)</name>
          <description>Type: H-60 Black Hawk&#xA;Callsign: R20873&#xA;Hex: ae5d72&#xA;Altitude: 1400 ft&#xA;Speed: 111.0 kts&#xA;Heading: 187.8&#xA;Source: airplanes.live</description>
          <Point>
            <coordinates>-75.699071,44.20697,1400</coordinates>
          </Point>
        </Placemark>
        <Placemark>
          <name>TEST1234 (Unknown Type)</name>
          <description>Type: Unknown Type&#xA;Callsign: TEST1234&#xA;Hex: adfbe2&#xA;Altitude: 0 ft&#xA;Speed: 0.0 kts&#xA;Heading: 0.0&#xA;Source: adsb.lol</description>
          <Point>
            <coordinates>0,0,0</coordinates>
          </Point>
        </Placemark>
        <Placemark>
          <name>ae685b (Unknown Type)</name>
          <description>Type: Unknown Type&#xA;Hex: ae685b&#xA;Altitude: 3725 ft&#xA;Speed: 168.4 kts&#xA;Heading: 230.5&#xA;Source: airplanes.live</description>
          <Point>
            <coordinates>-84.223061,35.81515,3725</coordinates>
          </Point>
        </Placemark>
        <Placemark>
          <name>TEST1234 (Unknown Type)</name>
          <description>Type: Unknown Type&#xA;Callsign: TEST1234&#xA;Hex: adfbe3&#xA;Altitude: 0 ft&#xA;Speed: 0.0 kts&#xA;Heading: 0.0&#xA;Source: adsb.lol</description>
          <Point>
            <coordinates>0,0,0</coordinates>
          </Point>
        </Placemark>
        <Placemark>
          <name>ae6801 (Unknown Type)</name>
          <description>Type: Unknown Type&#xA;Hex: ae6801&#xA;Altitude: -50 ft&#xA;Speed: 0.0 kts&#xA;Heading: 0.0&#xA;Source: adsb.lol</description>
          <Point>
            <coordinates>0,0,-50</coordinates>
          </Point>
        </Placemark>
        <Placemark>
          <name>TXLU03 (A139)</name>
          <description>Type: A139&#xA;Callsign: TXLU03&#xA;Hex: 4ca331&#xA;Altitude: 0 ft&#xA;Speed: 0.0 kts&#xA;Heading: 0.0&#xA;Source: adsb.lol</description>
          <Point>
            <coordinates>0,0,0</coordinates>
          </Point>
        </Placemark>
        <Placemark>
          <name>MAK010 (H-60 Black Hawk)</name>
          <description>Type: H-60 Black Hawk&#xA;Callsign: MAK010&#xA;Hex: ae0ddb&#xA;Altitude: 0 ft&#xA;Speed: 0.0 kts&#xA;Heading: 0.0&#xA;Source: adsb.lol</description>
          <Point>
            <coordinates>0,0,0</coordinates>
          </Point>
        </Placemark>
        <Placemark>
          <name>CBRA41 (TEX2)</name>
          <description>Type: TEX2&#xA;Callsign: CBRA41&#xA;Hex: c2b0a3&#xA;Altitude: 12625 ft&#xA;Speed: 152.0 kts&#xA;Heading: 149.6&#xA;Source: airplanes.live</description>
          <Point>
            <coordinates>-106.221819,49.981247,12625</coordinates>
          </Point>
        </Placemark>
        <Placemark>
          <name>GOAT50 (TEX2)</name>
          <description>Type: TEX2&#xA;Callsign: GOAT50&#xA;Hex: ae13ce&#xA;Altitude: 1675 ft&#xA;Speed: 136.0 kts&#xA;Heading: 340.2&#xA;Source: airplanes.live</description>
          <Point>
            <coordinates>-98.451286,29.286013,1675</coordinates>
          </Point>
        </Placemark>
        <Placemark>
          <name>PAT175 (BE20)</name>
          <description>Type: BE20&#xA;Callsign: PAT175&#xA;Hex: adfedb&#xA;Altitude: 19550 ft&#xA;Speed: 297.9 kts&#xA;Heading: 42.7&#xA;Source: airplanes.live</description>
          <Point>
            <coordinates>-90.488525,39.174034,19550</coordinates>
          </Point>
        </Placemark>
        <Placemark>
          <name>BERT10 (C30J)</name>
          <description>Type: C30J&#xA;Callsign: BERT10&#xA;Hex: ae1480&#xA;Altitude: 22025 ft&#xA;Speed: 272.2 kts&#xA;Heading: 239.3&#xA;Source: airplanes.live</description>
          <Point>
            <coordinates>-78.141117,36.182373,22025</coordinates>
          </Point>
        </Placemark>
        <Placemark>
          <name>TEST1234 (Unknown Type)</name>
          <description>Type: Unknown Type&#xA;Callsign: TEST1234&#xA;Hex: adf998&#xA;Altitude: 0 ft&#xA;Speed: 0.0 kts&#xA;Heading: 0.0&#xA;Source: airplanes.live</description>
          <Point>
            <coordinates>0,0,0</coordinates>
          </Point>
        </Placemark>
        <Placemark>
          <name>ae6834 (Unknown Type)</name>
          <description>Type: Unknown Type&#xA;Hex: ae6834&#xA;Altitude: 34975 ft&#xA;Speed: 448.9 kts&#xA;Heading: 96.5&#xA;Source: airplanes.live</description>
          <Point>
            <coordinates>-88.55309,31.582443,34975</coordinates>
          </Point>
        </Placemark>
        <Placemark>
          <name>TEST1234 (Unknown Type)</name>
          <description>Type: Unknown Type&#xA;Callsign: TEST1234&#xA;Hex: adf997&#xA;Altitude: 0 ft&#xA;Speed: 0.0 kts&#xA;Heading: 0.0&#xA;Source: airplanes.live</description>
          <Point>
            <coordinates>0,0,0</coordinates>
          </Point>
        </Placemark>
        <Placemark>
          <name>TEST1234 (Unknown Type)</name>
          <description>Type: Unknown Type&#xA;Callsign: TEST1234&#xA;Hex: adfbdf&#xA;Altitude: 0 ft&#xA;Speed: 0.0 kts&#xA;Heading: 0.0&#xA;Source: airplanes.live</description>
          <Point>
            <coordinates>0,0,0</coordinates>
          </Point>
        </Placemark>
        <Placemark>
          <name>GUNN42 (T-38 Talon)</name>
          <description>Type: T-38 Talon&#xA;Callsign: GUNN42&#xA;Hex: ae0018&#xA;Altitude: 18625 ft&#xA;Speed: 389.8 kts&#xA;Heading: 144.9&#xA;Source: airplanes.live</description>
          <Point>
            <coordinates>-99.049637,35.98623,18625</coordinates>
          </Point>
        </Placemark>
        <Placemark>
          <name>PAT841 (BE20)</name>
          <description>Type: BE20&#xA;Callsign: PAT841&#xA;Hex: ae08fa&#xA;Altitude: 16225 ft&#xA;Speed: 169.0 kts&#xA;Heading: 316.2&#xA;Source: airplanes.live</description>
          <Point>
            <coordinates>-72.261723,43.812313,16225</coordinates>
          </Point>
        </Placemark>
        <Placemark>
          <name>RCH409 (C-17 Globemaster III)</name>
          <description>Type: C-17 Globemaster III&#xA;Callsign: RCH409&#xA;Hex: ae2fa4&#xA;Altitude: 36000 ft&#xA;Speed: 440.0 kts&#xA;Heading: 292.0&#xA;Source: airplanes.live</description>
          <Point>
            <coordinates>16.939022,49.162261,36000</coordinates>
          </Point>
        </Placemark>
        <Placemark>
          <name>7cf840 (HAWK)</name>
          <description>Type: HAWK&#xA;Hex: 7cf840&#xA;Altitude: 0 ft&#xA;Speed: 0.0 kts&#xA;Heading: 0.0&#xA;Source: airplanes.live</description>
          <Point>
            <coordinates>0,0,0</coordinates>
          </Point>
        </Placemark>
        <Placemark>
          <name>ae05a0 (KC-135 Stratotanker)</name>
          <description>Type: KC-135 Stratotanker&#xA;Hex: ae05a0&#xA;Altitude: 19000 ft&#xA;Speed: 0.0 kts&#xA;Heading: 0.0&#xA;Source: adsb.lol</description>
          <Point>
            <coordinates>0,0,19000</coordinates>
          </Point>
        </Placemark>
        <Placemark>
          <name>RN208 (TEX2)</name>
          <description>Type: TEX2&#xA;Callsign: RN208&#xA;Hex: ae54e2&#xA;Altitude: 0 ft&#xA;Speed: 0.0 kts&#xA;Heading: 0.0&#xA;Source: airplanes.live</description>
          <Point>
            <coordinates>0,0,0</coordinates>
          </Point>
        </Placemark>
        <Placemark>
          <name>ae6793 (Unknown Type)</name>
          <description>Type: Unknown Type&#xA;Hex: ae6793&#xA;Altitude: 1650 ft&#xA;Speed: 140.0 kts&#xA;Heading: 186.8&#xA;Source: airplanes.live</description>
          <Point>
            <coordinates>-119.337341,47.254944,1650</coordinates>
          </Point>
        </Placemark>
        <Placemark>
          <name>MMF35 (A332)</name>
          <description>Type: A332&#xA;Callsign: MMF35&#xA;Hex: 480c40&#xA;Altitude: 16925 ft&#xA;Speed: 393.0 kts&#xA;Heading: 90.6&#xA;Source: airplanes.live</description>
          <Point>
            <coordinates>-112.87561,40.722794,16925</coordinates>
          </Point>
        </Placemark>
        <Placemark>
          <name>RAIDR71 (C30J)</name>
          <description>Type: C30J&#xA;Callsign: RAIDR71&#xA;Hex: ae6c1f&#xA;Altitude: 21000 ft&#xA;Speed: 347.6 kts&#xA;Heading: 75.2&#xA;Source: airplanes.live</description>
          <Point>
            <coordinates>-80.456692,34.611099,21000</coordinates>
          </Point>
        </Placemark>
        <Placemark>
          <name>DEVIL73 (TEX2)</name>
          <description>Type: TEX2&#xA;Callsign: DEVIL73&#xA;Hex: ae1117&#xA;Altitude: 2150 ft&#xA;Speed: 198.9 kts&#xA;Heading: 137.7&#xA;Source: airplanes.live</description>
          <Point>
            <coordinates>-100.783451,29.360504,2150</coordinates>
          </Point>
        </Placemark>
        <Placemark>
          <name>MAUL4 (T-38 Talon)</name>
          <description>Type: T-38 Talon&#xA;Callsign: MAUL4&#xA;Hex: ae00cc&#xA;Altitude: 6375 ft&#xA;Speed: 343.1 kts&#xA;Heading: 209.7&#xA;Source: airplanes.live</description>
          <Point>
            <coordinates>-98.747063,34.693195,6375</coordinates>
          </Point>
        </Placemark>
        <Placemark>
          <name>FANNY67 (TEX2)</name>
          <description>Type: TEX2&#xA;Callsign: FANNY67&#xA;Hex: ae1e44&#xA;Altitude: 1750 ft&#xA;Speed: 232.2 kts&#xA;Heading: 347.8&#xA;Source: airplanes.live</description>
          <Point>
            <coordinates>-98.335137,29.490509,1750</coordinates>
          </Point>
        </Placemark>
        <Placemark>
          <name>MNTNA23 (BE9L)</name>
          <description>Type: BE9L&#xA;Callsign: MNTNA23&#xA;Hex: ae14a1&#xA;Altitude: 2925 ft&#xA;Speed: 158.0 kts&#xA;Heading: 188.0&#xA;Source: airplanes.live</description>
          <Point>
            <coordinates>-98.094643,27.621918,2925</coordinates>
          </Point>
        </Placemark>
        <Placemark>
          <name>PAT375 (BE20)</name>
          <description>Type: BE20&#xA;Callsign: PAT375&#xA;Hex: ae03fa&#xA;Altitude: 26000 ft&#xA;Speed: 249.2 kts&#xA;Heading: 238.3&#xA;Source: adsb.lol</description>
          <Point>
            <coordinates>-93.602223,31.192154,26000</coordinates>
          </Point>
        </Placemark>
        <Placemark>
          <name>TUNDRA2 (TEX2)</name>
          <description>Type: TEX2&#xA;Callsign: TUNDRA2&#xA;Hex: ae11ac&#xA;Altitude: 23225 ft&#xA;Speed: 165.0 kts&#xA;Heading: 268.6&#xA;Source: adsb.lol</description>
          <Point>
            <coordinates>-82.104761,30.153763,23225</coordinates>
          </Point>
        </Placemark>
        <Placemark>
          <name>RAIDR72 (C30J)</name>
          <description>Type: C30J&#xA;Callsign: RAIDR72&#xA;Hex: ae2f99&#xA;Altitude: 21000 ft&#xA;Speed: 298.2 kts&#xA;Heading: 74.2&#xA;Source: airplanes.live</description>
          <Point>
            <coordinates>-82.091581,34.242142,21000</coordinates>
          </Point>
        </Placemark>
        <Placemark>
          <name>WGTL14 (E737)</name>
          <description>Type: E737&#xA;Callsign: WGTL14&#xA;Hex: 7cf8f0&#xA;Altitude: 21175 ft&#xA;Speed: 414.8 kts&#xA;Heading: 28.7&#xA;Source: airplanes.live</description>
          <Point>
            <coordinates>152.190426,-28.633211,21175</coordinates>
          </Point>
        </Placemark>
        <Placemark>
          <name>G72251 (EC45)</name>
          <description>Type: EC45&#xA;Callsign: G72251&#xA;Hex: ae200a&#xA;Altitude: 2500 ft&#xA;Speed: 100.0 kts&#xA;Heading: 206.2&#xA;Source: airplanes.live</description>
          <Point>
            <coordinates>-98.172874,26.328968,2500</coordinates>
          </Point>
        </Placemark>
        <Placemark>
          <name>MNTNA65 (BE9L)</name>
          <description>Type: BE9L&#xA;Callsign: MNTNA65&#xA;Hex: ae14ba&#xA;Altitude: 6925 ft&#xA;Speed: 197.6 kts&#xA;Heading: 39.2&#xA;Source: airplanes.live</description>
          <Point>
            <coordinates>-97.04155,28.344223,6925</coordinates>
          </Point>
        </Placemark>
        <Placemark>
          <name>CORVT75 (HAWK)</name>
          <description>Type: HAWK&#xA;Callsign: CORVT75&#xA;Hex: ae62ea&#xA;Altitude: 24050 ft&#xA;Speed: 427.1 kts&#xA;Heading: 135.8&#xA;Source: airplanes.live</description>
          <Point>
            <coordinates>-89.388556,33.129913,24050</coordinates>
          </Point>
        </Placemark>
        <Placemark>
          <name>ae04a3 (KC-135 Stratotanker)</name>
          <description>Type: KC-135 Stratotanker&#xA;Hex: ae04a3&#xA;Altitude: 0 ft&#xA;Speed: 0.0 kts&#xA;Heading: 0.0&#xA;Source: airplanes.live</description>
          <Point>
            <coordinates>0,0,0</coordinates>
          </Point>
        </Placemark>
        <Placemark>
          <name>7cfa35 (B350)</name>
          <description>Type: B350&#xA;Hex: 7cfa35&#xA;Altitude: 0 ft&#xA;Speed: 0.0 kts&#xA;Heading: 0.0&#xA;Source: adsb.lol</description>
          <Point>
            <coordinates>0,0,0</coordinates>
          </Point>
        </Placemark>
        <Placemark>
          <name>SNAK503 (C-295)</name>
          <description>Type: C-295&#xA;Callsign: SNAK503&#xA;Hex: c2bcc9&#xA;Altitude: 2975 ft&#xA;Speed: 147.5 kts&#xA;Heading: 329.4&#xA;Source: airplanes.live</description>
          <Point>
            <coordinates>-124.877472,49.717758,2975</coordinates>
          </Point>
        </Placemark>
        <Placemark>
          <name>ARCAS32 (T-38 Talon)</name>
          <description>Type: T-38 Talon&#xA;Callsign: ARCAS32&#xA;Hex: ae007b&#xA;Altitude: 12450 ft&#xA;Speed: 446.9 kts&#xA;Heading: 44.8&#xA;Source: adsb.lol</description>
          <Point>
            <coordinates>-99.654908,32.601137,12450</coordinates>
          </Point>
        </Placemark>
        <Placemark>
          <name>RNGR732 (TEX2)</name>
          <description>Type: TEX2&#xA;Callsign: RNGR732&#xA;Hex: ae4a1a&#xA;Altitude: 2925 ft&#xA;Speed: 210.4 kts&#xA;Heading: 41.7&#xA;Source: airplanes.live</description>
          <Point>
            <coordinates>-97.322926,29.064843,2925</coordinates>
          </Point>
        </Placemark>
        <Placemark>
          <name>TETON37 (C-130 Hercules)</name>
          <description>Type: C-130 Hercules&#xA;Callsign: TETON37&#xA;Hex: adfe74&#xA;Altitude: 2800 ft&#xA;Speed: 150.6 kts&#xA;Heading: 81.6&#xA;Source: airplanes.live</description>
          <Point>
            <coordinates>-95.039202,39.622833,2800</coordinates>
          </Point>
        </Placemark>
        <Placemark>
          <name>JDGMT88 (A400M Atlas)</name>
          <description>Type: A400M Atlas&#xA;Callsign: JDGMT88&#xA;Hex: 43c5de&#xA;Altitude: 2050 ft&#xA;Speed: 281.3 kts&#xA;Heading: 153.2&#xA;Source: airplanes.live</description>
          <Point>
            <coordinates>-3.579178,52.242142,2050</coordinates>
          </Point>
        </Placemark>
        <Placemark>
          <name>SCRCH54 (V-22 Osprey)</name>
          <description>Type: V-22 Osprey&#xA;Callsign: SCRCH54&#xA;Hex: ae6ba8&#xA;Altitude: 0 ft&#xA;Speed: 3.8 kts&#xA;Heading: 0.0&#xA;Source: airplanes.live</description>
          <Point>
            <coordinates>-117.21619,32.704832,0</coordinates>
          </Point>
        </Placemark>
        <Placemark>
          <name>TIGER24 (TEX2)</name>
          <description>Type: TEX2&#xA;Callsign: TIGER24&#xA;Hex: ae172d&#xA;Altitude: 15925 ft&#xA;Speed: 114.1 kts&#xA;Heading: 318.9&#xA;Source: airplanes.live</description>
          <Point>
            <coordinates>-100.470393,28.988022,15925</coordinates>
          </Point>
        </Placemark>
        <Placemark>
          <name>SWOOP11 (TEX2)</name>
          <description>Type: TEX2&#xA;Callsign: SWOOP11&#xA;Hex: ae13f8&#xA;Altitude: 9525 ft&#xA;Speed: 200.8 kts&#xA;Heading: 239.5&#xA;Source: adsb.lol</description>
          <Point>
            <coordinates>-100.209098,29.261124,9525</coordinates>
          </Point>
        </Placemark>
        <Placemark>
          <name>KENT34 (T-38 Talon)</name>
          <description>Type: T-38 Talon&#xA;Callsign: KENT34&#xA;Hex: ae0090&#xA;Altitude: 16250 ft&#xA;Speed: 375.8 kts&#xA;Heading: 306.0&#xA;Source: airplanes.live</description>
          <Point>
            <coordinates>-99.22901,33.39679,16250</coordinates>
          </Point>
        </Placemark>
        <Placemark>
          <name>STACK71 (Unknown Type)</name>
          <description>Type: Unknown Type&#xA;Callsign: STACK71&#xA;Hex: ae00f7&#xA;Altitude: 17700 ft&#xA;Speed: 421.4 kts&#xA;Heading: 263.9&#xA;Source: airplanes.live</description>
          <Point>
            <coordinates>-99.064188,36.178491,17700</coordinates>
          </Point>
        </Placemark>
        <Placemark>
          <name>TEST1234 (Unknown Type)</name>
          <description>Type: Unknown Type&#xA;Callsign: TEST1234&#xA;Hex: adfbe1&#xA;Altitude: 0 ft&#xA;Speed: 0.0 kts&#xA;Heading: 0.0&#xA;Source: adsb.lol</description>
          <Point>
            <coordinates>0,0,0</coordinates>
          </Point>
        </Placemark>
        <Placemark>
          <name>ae59da (CH-47 Chinook)</name>
          <description>Type: CH-47 Chinook&#xA;Hex: ae59da&#xA;Altitude: 1300 ft&#xA;Speed: 0.0 kts&#xA;Heading: 0.0&#xA;Source: adsb.lol</description>
          <Point>
            <coordinates>-86.95919,36.827408,1300</coordinates>
          </Point>
        </Placemark>
        <Placemark>
          <name>KNIFE12 (H-60 Black Hawk)</name>
          <description>Type: H-60 Black Hawk&#xA;Callsign: KNIFE12&#xA;Hex: ae6017&#xA;Altitude: 1075 ft&#xA;Speed: 94.2 kts&#xA;Heading: 312.0&#xA;Source: adsb.lol</description>
          <Point>
            <coordinates>-118.082886,33.60741,1075</coordinates>
          </Point>
        </Placemark>
        <Placemark>
          <name>VV8E705 (A119)</name>
          <description>Type: A119&#xA;Callsign: VV8E705&#xA;Hex: ae73e6&#xA;Altitude: 1975 ft&#xA;Speed: 131.6 kts&#xA;Heading: 317.5&#xA;Source: airplanes.live</description>
          <Point>
            <coordinates>-87.129547,30.685559,1975</coordinates>
          </Point>
        </Placemark>
        <Placemark>
          <name>ZEUS41 (AH-64 Apache)</name>
          <description>Type: AH-64 Apache&#xA;Callsign: ZEUS41&#xA;Hex: ae74d4&#xA;Altitude: 0 ft&#xA;Speed: 24.1 kts&#xA;Heading: 315.0&#xA;Source: airplanes.live</description>
          <Point>
            <coordinates>-78.772966,35.867103,0</coordinates>
          </Point>
        </Placemark>
        <Placemark>
          <name>KIW501 (C30J)</name>
          <description>Type: C30J&#xA;Callsign: KIW501&#xA;Hex: c87f42&#xA;Altitude: 14475 ft&#xA;Speed: 220.2 kts&#xA;Heading: 281.3&#xA;Source: adsb.lol</description>
          <Point>
            <coordinates>174.874004,-40.121,14475</coordinates>
          </Point>
        </Placemark>
        <Placemark>
          <name>GAFTT07 (Unknown Type)</name>
          <description>Type: Unknown Type&#xA;Callsign: GAFTT07&#xA;Hex: 3ea3b0&#xA;Altitude: 62700 ft&#xA;Speed: 0.0 kts&#xA;Heading: 0.0&#xA;Source: airplanes.live</description>
          <Point>
            <coordinates>0,0,62700</coordinates>
          </Point>
        </Placemark>
        <Placemark>
          <name>C6507 (AS65)</name>
          <description>Type: AS65&#xA;Callsign: C6507&#xA;Hex: ae2661&#xA;Altitude: 425 ft&#xA;Speed: 80.1 kts&#xA;Heading: 290.5&#xA;Source: airplanes.live</description>
          <Point>
            <coordinates>-157.994285,21.211258,425</coordinates>
          </Point>
        </Placemark>
        <Placemark>
          <name>R20403 (H-60 Black Hawk)</name>
          <description>Type: H-60 Black Hawk&#xA;Callsign: R20403&#xA;Hex: ae51e5&#xA;Altitude: 0 ft&#xA;Speed: 0.0 kts&#xA;Heading: 0.0&#xA;Source: adsb.lol</description>
          <Point>
            <coordinates>-97.711595,31.140667,0</coordinates>
          </Point>
        </Placemark>
        <Placemark>
          <name>VV1E018 (A119)</name>
          <description>Type: A119&#xA;Callsign: VV1E018&#xA;Hex: ae73ea&#xA;Altitude: 3775 ft&#xA;Speed: 118.3 kts&#xA;Heading: 266.1&#xA;Source: adsb.lol</description>
          <Point>
            <coordinates>-87.70144,30.767724,3775</coordinates>
          </Point>
        </Placemark>
        <Placemark>
          <name>COMT451 (A400M Atlas)</name>
          <description>Type: A400M Atlas&#xA;Callsign: COMT451&#xA;Hex: 43c5e1&#xA;Altitude: 1200 ft&#xA;Speed: 272.6 kts&#xA;Heading: 170.7&#xA;Source: adsb.lol</description>
          <Point>
            <coordinates>-1.932629,51.892914,1200</coordinates>
          </Point>
        </Placemark>
        <Placemark>
          <name>TEST1234 (Unknown Type)</name>
          <description>Type: Unknown Type&#xA;Callsign: TEST1234&#xA;Hex: adf992&#xA;Altitude: 0 ft&#xA;Speed: 0.0 kts&#xA;Heading: 0.0&#xA;Source: adsb.lol</description>
          <Point>
            <coordinates>0,0,0</coordinates>
          </Point>
        </Placemark>
        <Placemark>
          <name>CFC3360 (A310)</name>
          <description>Type: A310&#xA;Callsign: CFC3360&#xA;Hex: c2b37d&#xA;Altitude: 0 ft&#xA;Speed: 0.0 kts&#xA;Heading: 0.0&#xA;Source: airplanes.live</description>
          <Point>
            <coordinates>-147.857437,64.821476,0</coordinates>
          </Point>
        </Placemark>
        <Placemark>
          <name>KENT37 (T-38 Talon)</name>
          <description>Type: T-38 Talon&#xA;Callsign: KENT37&#xA;Hex: ae007e&#xA;Altitude: 14375 ft&#xA;Speed: 0.0 kts&#xA;Heading: 0.0&#xA;Source: airplanes.live</description>
          <Point>
            <coordinates>0,0,14375</coordinates>
          </Point>
        </Placemark>
        <Placemark>
          <name>TIDE33 (H-60 Black Hawk)</name>
          <description>Type: H-60 Black Hawk&#xA;Callsign: TIDE33&#xA;Hex: ae77ef&#xA;Altitude: 50 ft&#xA;Speed: 93.6 kts&#xA;Heading: 103.6&#xA;Source: airplanes.live</description>
          <Point>
            <coordinates>-87.294836,30.32045,50</coordinates>
          </Point>
        </Placemark>
        <Placemark>
          <name>TEXGLD (TEX2)</name>
          <description>Type: TEX2&#xA;Callsign: TEXGLD&#xA;Hex: c87f24&#xA;Altitude: 3875 ft&#xA;Speed: 190.0 kts&#xA;Heading: 265.4&#xA;Source: airplanes.live</description>
          <Point>
            <coordinates>173.888123,-40.728333,3875</coordinates>
          </Point>
        </Placemark>
        <Placemark>
          <name>MAK01 (A109)</name>
          <description>Type: A109&#xA;Callsign: MAK01&#xA;Hex: c87f16&#xA;Altitude: 2000 ft&#xA;Speed: 62.4 kts&#xA;Heading: 211.9&#xA;Source: adsb.lol</description>
          <Point>
            <coordinates>175.303528,-40.095932,2000</coordinates>
          </Point>
        </Placemark>
        <Placemark>
          <name>TEST1234 (TWR)</name>
          <description>Type: TWR&#xA;Callsign: TEST1234&#xA;Hex: adfbdd&#xA;Altitude: 0 ft&#xA;Speed: 0.0 kts&#xA;Heading: 0.0&#xA;Source: adsb.lol</description>
          <Point>
            <coordinates>0,0,0</coordinates>
          </Point>
        </Placemark>
        <Placemark>
          <name>CASH12 (TEX2)</name>
          <description>Type: TEX2&#xA;Callsign: CASH12&#xA;Hex: ae01f8&#xA;Altitude: 1950 ft&#xA;Speed: 189.0 kts&#xA;Heading: 317.4&#xA;Source: airplanes.live</description>
          <Point>
            <coordinates>-100.795144,29.34937,1950</coordinates>
          </Point>
        </Placemark>
        <Placemark>
          <name>TEST1234 (TWR)</name>
          <description>Type: TWR&#xA;Callsign: TEST1234&#xA;Hex: 400025&#xA;Altitude: 0 ft&#xA;Speed: 0.0 kts&#xA;Heading: 0.0&#xA;Source: adsb.lol</description>
          <Point>
            <coordinates>0,0,0</coordinates>
          </Point>
        </Placemark>
        <Placemark>
          <name>ae4af3 (C30J)</name>
          <description>Type: C30J&#xA;Hex: ae4af3&#xA;Altitude: 1400 ft&#xA;Speed: 0.0 kts&#xA;Heading: 0.0&#xA;Source: adsb.lol</description>
          <Point>
            <coordinates>0,0,1400</coordinates>
          </Point>
        </Placemark>
        <Placemark>
          <name>POSSE89 (C-130 Hercules)</name>
          <description>Type: C-130 Hercules&#xA;Callsign: POSSE89&#xA;Hex: adfdd5&#xA;Altitude: 26000 ft&#xA;Speed: 0.0 kts&#xA;Heading: 0.0&#xA;Source: airplanes.live</description>
          <Point>
            <coordinates>0,0,26000</coordinates>
          </Point>
        </Placemark>
        <Placemark>
          <name>WING14 (BE20)</name>
          <description>Type: BE20&#xA;Callsign: WING14&#xA;Hex: adfe97&#xA;Altitude: 1275 ft&#xA;Speed: 0.0 kts&#xA;Heading: 0.0&#xA;Source: adsb.lol</description>
          <Point>
            <coordinates>0,0,1275</coordinates>
          </Point>
        </Placemark>
        <Placemark>
          <name>BOMR744 (TEX2)</name>
          <description>Type: TEX2&#xA;Callsign: BOMR744&#xA;Hex: ae54e0&#xA;Altitude: 12900 ft&#xA;Speed: 202.1 kts&#xA;Heading: 340.9&#xA;Source: adsb.lol</description>
          <Point>
            <coordinates>-97.401446,28.299804,12900</coordinates>
          </Point>
        </Placemark>
        <Placemark>
          <name>BOMR776 (TEX2)</name>
          <description>Type: TEX2&#xA;Callsign: BOMR776&#xA;Hex: ae54e3&#xA;Altitude: 13525 ft&#xA;Speed: 311.5 kts&#xA;Heading: 3.1&#xA;Source: adsb.lol</description>
          <Point>
            <coordinates>-97.183335,28.349521,13525</coordinates>
          </Point>
        </Placemark>
        <Placemark>
          <name>BDIT31 (TEX2)</name>
          <description>Type: TEX2&#xA;Callsign: BDIT31&#xA;Hex: c2b017&#xA;Altitude: 3525 ft&#xA;Speed: 215.2 kts&#xA;Heading: 129.5&#xA;Source: airplanes.live</description>
          <Point>
            <coordinates>-104.722942,50.474404,3525</coordinates>
          </Point>
        </Placemark>
        <Placemark>
          <name>COOL12 (T-38 Talon)</name>
          <description>Type: T-38 Talon&#xA;Callsign: COOL12&#xA;Hex: adffd6&#xA;Altitude: 13250 ft&#xA;Speed: 464.3 kts&#xA;Heading: 300.3&#xA;Source: adsb.lol</description>
          <Point>
            <coordinates>-100.89736,29.556342,13250</coordinates>
          </Point>
        </Placemark>
        <Placemark>
          <name>SLASH71 (TEX2)</name>
          <description>Type: TEX2&#xA;Callsign: SLASH71&#xA;Hex: ae1721&#xA;Altitude: 13100 ft&#xA;Speed: 220.0 kts&#xA;Heading: 317.0&#xA;Source: airplanes.live</description>
          <Point>
            <coordinates>-88.715889,33.784836,13100</coordinates>
          </Point>
        </Placemark>
        <Placemark>
          <name>WASP92 (TEX2)</name>
          <description>Type: TEX2&#xA;Callsign: WASP92&#xA;Hex: ae140a&#xA;Altitude: 10600 ft&#xA;Speed: 250.6 kts&#xA;Heading: 106.7&#xA;Source: adsb.lol</description>
          <Point>
            <coordinates>-87.885244,33.242534,10600</coordinates>
          </Point>
        </Placemark>
        <Placemark>
          <name>SH115 (TEX2)</name>
          <description>Type: TEX2&#xA;Callsign: SH115&#xA;Hex: ae2ef0&#xA;Altitude: 2275 ft&#xA;Speed: 212.9 kts&#xA;Heading: 296.8&#xA;Source: airplanes.live</description>
          <Point>
            <coordinates>-87.729223,30.838257,2275</coordinates>
          </Point>
        </Placemark>
        <Placemark>
          <name>DEALS97 (EC45)</name>
          <description>Type: EC45&#xA;Callsign: DEALS97&#xA;Hex: ae5a5a&#xA;Altitude: 800 ft&#xA;Speed: 99.0 kts&#xA;Heading: 296.4&#xA;Source: airplanes.live</description>
          <Point>
            <coordinates>-85.989563,31.3759,800</coordinates>
          </Point>
        </Placemark>
        <Placemark>
          <name>MCUE12 (B762)</name>
          <description>Type: B762&#xA;Callsign: MCUE12&#xA;Hex: ae5faa&#xA;Altitude: 32008 ft&#xA;Speed: 0.0 kts&#xA;Heading: 298.2&#xA;Source: airplanes.live</description>
          <Point>
            <coordinates>-13.814278,37.5214,32008</coordinates>
          </Point>
        </Placemark>
        <Placemark>
          <name>GOAT47 (TEX2)</name>
          <description>Type: TEX2&#xA;Callsign: GOAT47&#xA;Hex: ae13f6&#xA;Altitude: 800 ft&#xA;Speed: 96.9 kts&#xA;Heading: 148.9&#xA;Source: adsb.lol</description>
          <Point>
            <coordinates>-98.294839,29.537395,800</coordinates>
          </Point>
        </Placemark>
        <Placemark>
          <name>TALON22 (HAWK)</name>
          <description>Type: HAWK&#xA;Callsign: TALON22&#xA;Hex: ae62ce&#xA;Altitude: 24975 ft&#xA;Speed: 333.1 kts&#xA;Heading: 51.6&#xA;Source: adsb.lol</description>
          <Point>
            <coordinates>-85.048641,34.190231,24975</coordinates>
          </Point>
        </Placemark>
        <Placemark>
          <name>ae07f4 (C-17 Globemaster III)</name>
          <description>Type: C-17 Globemaster III&#xA;Hex: ae07f4&#xA;Altitude: 34975 ft&#xA;Speed: 0.0 kts&#xA;Heading: 0.0&#xA;Source: airplanes.live</description>
          <Point>
            <coordinates>0,0,34975</coordinates>
          </Point>
        </Placemark>
        <Placemark>
          <name>TEST1234 (Unknown Type)</name>
          <description>Type: Unknown Type&#xA;Callsign: TEST1234&#xA;Hex: 40003e&#xA;Altitude: 0 ft&#xA;Speed: 0.0 kts&#xA;Heading: 0.0&#xA;Source: adsb.lol</description>
          <Point>
            <coordinates>0,0,0</coordinates>
          </Point>
        </Placemark>
        <Placemark>
          <name>HAWK271 (Unknown Type)</name>
          <description>Type: Unknown Type&#xA;Callsign: HAWK271&#xA;Hex: ae629c&#xA;Altitude: 250 ft&#xA;Speed: 115.0 kts&#xA;Heading: 173.1&#xA;Source: airplanes.live</description>
          <Point>
            <coordinates>-97.822838,27.522675,250</coordinates>
          </Point>
        </Placemark>
        <Placemark>
          <name>TOPCT26 (RC-135 Rivet Joint)</name>
          <description>Type: RC-135 Rivet Joint&#xA;Callsign: TOPCT26&#xA;Hex: ae1253&#xA;Altitude: 2800 ft&#xA;Speed: 204.4 kts&#xA;Heading: 323.4&#xA;Source: airplanes.live</description>
          <Point>
            <coordinates>-95.912205,41.074157,2800</coordinates>
          </Point>
        </Placemark>
        <Placemark>
          <name>BOMR713 (TEX2)</name>
          <description>Type: TEX2&#xA;Callsign: BOMR713&#xA;Hex: ae1eca&#xA;Altitude: 3925 ft&#xA;Speed: 229.0 kts&#xA;Heading: 348.5&#xA;Source: airplanes.live</description>
          <Point>
            <coordinates>-97.501793,27.55751,3925</coordinates>
          </Point>
        </Placemark>
        <Placemark>
          <name>ae0583 (C-5M Super Galaxy)</name>
          <description>Type: C-5M Super Galaxy&#xA;Hex: ae0583&#xA;Altitude: 1850 ft&#xA;Speed: 0.0 kts&#xA;Heading: 0.0&#xA;Source: adsb.lol</description>
          <Point>
            <coordinates>0,0,1850</coordinates>
          </Point>
        </Placemark>
        <Placemark>
          <name>87c81a (P1)</name>
          <description>Type: P1&#xA;Hex: 87c81a&#xA;Altitude: 0 ft&#xA;Speed: 0.0 kts&#xA;Heading: 0.0&#xA;Source: airplanes.live</description>
          <Point>
            <coordinates>0,0,0</coordinates>
          </Point>
        </Placemark>
        <Placemark>
          <name>BDIT23 (TEX2)</name>
          <description>Type: TEX2&#xA;Callsign: BDIT23&#xA;Hex: c2b085&#xA;Altitude: 11650 ft&#xA;Speed: 177.6 kts&#xA;Heading: 94.5&#xA;Source: airplanes.live</description>
          <Point>
            <coordinates>-106.06075,50.305465,11650</coordinates>
          </Point>
        </Placemark>
        <Placemark>
          <name>RAVEN46 (TEX2)</name>
          <description>Type: TEX2&#xA;Callsign: RAVEN46&#xA;Hex: ae174e&#xA;Altitude: 17575 ft&#xA;Speed: 288.0 kts&#xA;Heading: 96.8&#xA;Source: airplanes.live</description>
          <Point>
            <coordinates>-97.941399,34.472072,17575</coordinates>
          </Point>
        </Placemark>
        <Placemark>
          <name>SH224 (TEX2)</name>
          <description>Type: TEX2&#xA;Callsign: SH224&#xA;Hex: ae54f2&#xA;Altitude: 4800 ft&#xA;Speed: 224.4 kts&#xA;Heading: 66.6&#xA;Source: adsb.lol</description>
          <Point>
            <coordinates>-87.921107,30.737183,4800</coordinates>
          </Point>
        </Placemark>
        <Placemark>
          <name>RRR4219 (A400M Atlas)</name>
          <description>Type: A400M Atlas&#xA;Callsign: RRR4219&#xA;Hex: 43c5ed&#xA;Altitude: 30975 ft&#xA;Speed: 420.0 kts&#xA;Heading: 105.3&#xA;Source: airplanes.live</description>
          <Point>
            <coordinates>-29.362215,39.089218,30975</coordinates>
          </Point>
        </Placemark>
        <Placemark>
          <name>e483ad (P-3C Orion)</name>
          <description>Type: P-3C Orion&#xA;Hex: e483ad&#xA;Altitude: 0 ft&#xA;Speed: 0.0 kts&#xA;Heading: 0.0&#xA;Source: adsb.lol</description>
          <Point>
            <coordinates>0,0,0</coordinates>
          </Point>
        </Placemark>
        <Placemark>
          <name>APLO17 (TEX2)</name>
          <description>Type: TEX2&#xA;Callsign: APLO17&#xA;Hex: c2b0c1&#xA;Altitude: 16475 ft&#xA;Speed: 175.8 kts&#xA;Heading: 296.7&#xA;Source: airplanes.live</description>
          <Point>
            <coordinates>-105.240711,49.725586,16475</coordinates>
          </Point>
        </Placemark>
        <Placemark>
          <name>PREY21 (TEX2)</name>
          <description>Type: TEX2&#xA;Callsign: PREY21&#xA;Hex: ae01eb&#xA;Altitude: 1800 ft&#xA;Speed: 234.8 kts&#xA;Heading: 324.0&#xA;Source: adsb.lol</description>
          <Point>
            <coordinates>-98.295628,29.428619,1800</coordinates>
          </Point>
        </Placemark>
        <Placemark>
          <name>JAVET31 (T-38 Talon)</name>
          <description>Type: T-38 Talon&#xA;Callsign: JAVET31&#xA;Hex: ae0083&#xA;Altitude: 19075 ft&#xA;Speed: 416.7 kts&#xA;Heading: 208.8&#xA;Source: adsb.lol</description>
          <Point>
            <coordinates>-98.144569,34.681091,19075</coordinates>
          </Point>
        </Placemark>
        <Placemark>
          <name>TALON41 (Unknown Type)</name>
          <description>Type: Unknown Type&#xA;Callsign: TALON41&#xA;Hex: ae62c9&#xA;Altitude: 3850 ft&#xA;Speed: 363.3 kts&#xA;Heading: 278.9&#xA;Source: airplanes.live</description>
          <Point>
            <coordinates>-87.927539,32.102234,3850</coordinates>
          </Point>
        </Placemark>
        <Placemark>
          <name>VV8E030 (A119)</name>
          <description>Type: A119&#xA;Callsign: VV8E030&#xA;Hex: ae73f6&#xA;Altitude: 700 ft&#xA;Speed: 101.1 kts&#xA;Heading: 27.1&#xA;Source: adsb.lol</description>
          <Point>
            <coordinates>-87.481061,31.051758,700</coordinates>
          </Point>
        </Placemark>
        <Placemark>
          <name>TOTES50 (EC45)</name>
          <description>Type: EC45&#xA;Callsign: TOTES50&#xA;Hex: ae1f65&#xA;Altitude: 225 ft&#xA;Speed: 23.0 kts&#xA;Heading: 57.3&#xA;Source: airplanes.live</description>
          <Point>
            <coordinates>-85.852715,31.360657,225</coordinates>
          </Point>
        </Placemark>
        <Placemark>
          <name>SQF961 (GL5T)</name>
          <description>Type: GL5T&#xA;Callsign: SQF961&#xA;Hex: 505fa1&#xA;Altitude: 45000 ft&#xA;Speed: 501.1 kts&#xA;Heading: 142.2&#xA;Source: airplanes.live</description>
          <Point>
            <coordinates>22.35672,45.140213,45000</coordinates>
          </Point>
        </Placemark>
        <Placemark>
          <name>0 (HAWK)</name>
          <description>Type: HAWK&#xA;Callsign: 0&#xA;Hex: 7cf848&#xA;Altitude: 4000 ft&#xA;Speed: 0.0 kts&#xA;Heading: 0.0&#xA;Source: adsb.lol</description>
          <Point>
            <coordinates>0,0,4000</coordinates>
          </Point>
        </Placemark>
        <Placemark>
          <name>BOLT55 (C172)</name>
          <description>Type: C172&#xA;Callsign: BOLT55&#xA;Hex: aa7eac&#xA;Altitude: 7525 ft&#xA;Speed: 94.0 kts&#xA;Heading: 196.7&#xA;Source: adsb.lol</description>
          <Point>
            <coordinates>-104.797867,39.001419,7525</coordinates>
          </Point>
        </Placemark>
        <Placemark>
          <name>BDIT30 (TEX2)</name>
          <description>Type: TEX2&#xA;Callsign: BDIT30&#xA;Hex: c2b003&#xA;Altitude: 15700 ft&#xA;Speed: 245.0 kts&#xA;Heading: 143.1&#xA;Source: airplanes.live</description>
          <Point>
            <coordinates>-105.014747,49.839571,15700</coordinates>
          </Point>
        </Placemark>
        <Placemark>
          <name>KENT43 (T-38 Talon)</name>
          <description>Type: T-38 Talon&#xA;Callsign: KENT43&#xA;Hex: ae0056&#xA;Altitude: 17900 ft&#xA;Speed: 431.1 kts&#xA;Heading: 296.7&#xA;Source: airplanes.live</description>
          <Point>
            <coordinates>-98.93138,34.144135,17900</coordinates>
          </Point>
        </Placemark>
        <Placemark>
          <name>CUJO22 (TEX2)</name>
          <description>Type: TEX2&#xA;Callsign: CUJO22&#xA;Hex: ae0200&#xA;Altitude: 12625 ft&#xA;Speed: 145.2 kts&#xA;Heading: 267.2&#xA;Source: airplanes.live</description>
          <Point>
            <coordinates>-88.171617,33.082115,12625</coordinates>
          </Point>
        </Placemark>
        <Placemark>
          <name>FOXX373 (BE20)</name>
          <description>Type: BE20&#xA;Callsign: FOXX373&#xA;Hex: ae06e4&#xA;Altitude: 22000 ft&#xA;Speed: 242.4 kts&#xA;Heading: 214.4&#xA;Source: adsb.lol</description>
          <Point>
            <coordinates>-76.206904,37.558904,22000</coordinates>
          </Point>
        </Placemark>
        <Placemark>
          <name>G9526652 (H-60 Black Hawk)</name>
          <description>Type: H-60 Black Hawk&#xA;Callsign: G9526652&#xA;Hex: ae0e3d&#xA;Altitude: 3900 ft&#xA;Speed: 0.0 kts&#xA;Heading: 0.0&#xA;Source: airplanes.live</description>
          <Point>
            <coordinates>0,0,3900</coordinates>
          </Point>
        </Placemark>
        <Placemark>
          <name>LUNA305 (Unknown Type)</name>
          <description>Type: Unknown Type&#xA;Callsign: LUNA305&#xA;Hex: 3f7128&#xA;Altitude: 0 ft&#xA;Speed: 0.0 kts&#xA;Heading: 0.0&#xA;Source: adsb.lol</description>
          <Point>
            <coordinates>0,0,0</coordinates>
          </Point>
        </Placemark>
        <Placemark>
          <name>CFC3823 (CL60)</name>
          <description>Type: CL60&#xA;Callsign: CFC3823&#xA;Hex: c2c1f1&#xA;Altitude: 36975 ft&#xA;Speed: 526.3 kts&#xA;Heading: 98.8&#xA;Source: airplanes.live</description>
          <Point>
            <coordinates>-135.689582,60.661606,36975</coordinates>
          </Point>
        </Placemark>
        <Placemark>
          <name>ASPEN21 (T-38 Talon)</name>
          <description>Type: T-38 Talon&#xA;Callsign: ASPEN21&#xA;Hex: ae63dd&#xA;Altitude: 0 ft&#xA;Speed: 0.0 kts&#xA;Heading: 0.0&#xA;Source: airplanes.live</description>
          <Point>
            <coordinates>-120.455232,34.892427,0</coordinates>
          </Point>
        </Placemark>
        <Placemark>
          <name>PLF120 (B738)</name>
          <description>Type: B738&#xA;Callsign: PLF120&#xA;Hex: 48d982&#xA;Altitude: 0 ft&#xA;Speed: 0.0 kts&#xA;Heading: 0.0&#xA;Source: airplanes.live</description>
          <Point>
            <coordinates>-77.439522,38.956604,0</coordinates>
          </Point>
        </Placemark>
        <Placemark>
          <name>RCH415 (C-17 Globemaster III)</name>
          <description>Type: C-17 Globemaster III&#xA;Callsign: RCH415&#xA;Hex: ae4f12&#xA;Altitude: 6850 ft&#xA;Speed: 282.3 kts&#xA;Heading: 291.8&#xA;Source: airplanes.live</description>
          <Point>
            <coordinates>6.409221,49.909424,6850</coordinates>
          </Point>
        </Placemark>
        <Placemark>
          <name>BRCAT15Z (TEX2)</name>
          <description>Type: TEX2&#xA;Callsign: BRCAT15Z&#xA;Hex: ae4e8f&#xA;Altitude: 5325 ft&#xA;Speed: 231.3 kts&#xA;Heading: 326.1&#xA;Source: airplanes.live</description>
          <Point>
            <coordinates>-104.489229,33.370134,5325</coordinates>
          </Point>
        </Placemark>
        <Placemark>
          <name>TIGER50 (TEX2)</name>
          <description>Type: TEX2&#xA;Callsign: TIGER50&#xA;Hex: ae1412&#xA;Altitude: 2025 ft&#xA;Speed: 205.5 kts&#xA;Heading: 128.9&#xA;Source: airplanes.live</description>
          <Point>
            <coordinates>-100.473148,29.11917,2025</coordinates>
          </Point>
        </Placemark>
        <Placemark>
          <name>BARKY12 (TEX2)</name>
          <description>Type: TEX2&#xA;Callsign: BARKY12&#xA;Hex: ae10f8&#xA;Altitude: 5950 ft&#xA;Speed: 219.3 kts&#xA;Heading: 167.4&#xA;Source: airplanes.live</description>
          <Point>
            <coordinates>-98.114076,34.06485,5950</coordinates>
          </Point>
        </Placemark>
        <Placemark>
          <name>GEARS96 (CH-47 Chinook)</name>
          <description>Type: CH-47 Chinook&#xA;Callsign: GEARS96&#xA;Hex: ae5243&#xA;Altitude: 1275 ft&#xA;Speed: 141.9 kts&#xA;Heading: 203.7&#xA;Source: airplanes.live</description>
          <Point>
            <coordinates>-85.643262,31.395621,1275</coordinates>
          </Point>
        </Placemark>
        <Placemark>
          <name>TEST1234 (Unknown Type)</name>
          <description>Type: Unknown Type&#xA;Callsign: TEST1234&#xA;Hex: adf991&#xA;Altitude: 0 ft&#xA;Speed: 0.0 kts&#xA;Heading: 0.0&#xA;Source: adsb.lol</description>
          <Point>
            <coordinates>0,0,0</coordinates>
          </Point>
        </Placemark>
        <Placemark>
          <name>FLEDGE91 (TEX2)</name>
          <description>Type: TEX2&#xA;Callsign: FLEDGE91&#xA;Hex: ae1414&#xA;Altitude: 2050 ft&#xA;Speed: 221.9 kts&#xA;Heading: 5.2&#xA;Source: adsb.lol</description>
          <Point>
            <coordinates>-100.830354,29.31752,2050</coordinates>
          </Point>
        </Placemark>
        <Placemark>
          <name>ae5975 (AH-64 Apache)</name>
          <description>Type: AH-64 Apache&#xA;Hex: ae5975&#xA;Altitude: 0 ft&#xA;Speed: 0.0 kts&#xA;Heading: 0.0&#xA;Source: airplanes.live</description>
          <Point>
            <coordinates>0,0,0</coordinates>
          </Point>
        </Placemark>
        <Placemark>
          <name>ICY10 (H-60 Black Hawk)</name>
          <description>Type: H-60 Black Hawk&#xA;Callsign: ICY10&#xA;Hex: ae64ac&#xA;Altitude: 700 ft&#xA;Speed: 131.2 kts&#xA;Heading: 122.2&#xA;Source: airplanes.live</description>
          <Point>
            <coordinates>-150.555758,61.597733,700</coordinates>
          </Point>
        </Placemark>
        <Placemark>
          <name>BGST360 (BE20)</name>
          <description>Type: BE20&#xA;Callsign: BGST360&#xA;Hex: af3be2&#xA;Altitude: 2125 ft&#xA;Speed: 171.2 kts&#xA;Heading: 258.9&#xA;Source: airplanes.live</description>
          <Point>
            <coordinates>-91.980176,29.994957,2125</coordinates>
          </Point>
        </Placemark>
        <Placemark>
          <name>ae05af (KC-135 Stratotanker)</name>
          <description>Type: KC-135 Stratotanker&#xA;Hex: ae05af&#xA;Altitude: 33000 ft&#xA;Speed: 494.0 kts&#xA;Heading: 53.0&#xA;Source: airplanes.live</description>
          <Point>
            <coordinates>-91.934031,40.382077,33000</coordinates>
          </Point>
        </Placemark>
        <Placemark>
          <name>TALON21 (HAWK)</name>
          <description>Type: HAWK&#xA;Callsign: TALON21&#xA;Hex: ae62d5&#xA;Altitude: 12775 ft&#xA;Speed: 335.2 kts&#xA;Heading: 109.0&#xA;Source: airplanes.live</description>
          <Point>
            <coordinates>-89.048506,32.911175,12775</coordinates>
          </Point>
        </Placemark>
        <Placemark>
          <name>ae3a65 (Unknown Type)</name>
          <description>Type: Unknown Type&#xA;Hex: ae3a65&#xA;Altitude: 28000 ft&#xA;Speed: 313.0 kts&#xA;Heading: 304.0&#xA;Source: adsb.lol</description>
          <Point>
            <coordinates>-85.056937,30.748787,28000</coordinates>
          </Point>
        </Placemark>
        <Placemark>
          <name>CODY06 (C-17 Globemaster III)</name>
          <description>Type: C-17 Globemaster III&#xA;Callsign: CODY06&#xA;Hex: ae07fa&#xA;Altitude: 33675 ft&#xA;Speed: 498.0 kts&#xA;Heading: 111.0&#xA;Source: airplanes.live</description>
          <Point>
            <coordinates>-83.574129,32.906587,33675</coordinates>
          </Point>
        </Placemark>
        <Placemark>
          <name>RCH646 (C30J)</name>
          <description>Type: C30J&#xA;Callsign: RCH646&#xA;Hex: ae5dfc&#xA;Altitude: 19000 ft&#xA;Speed: 306.0 kts&#xA;Heading: 163.0&#xA;Source: adsb.lol</description>
          <Point>
            <coordinates>-121.865711,45.770494,19000</coordinates>
          </Point>
        </Placemark>
        <Placemark>
          <name>GOAT28 (TEX2)</name>
          <description>Type: TEX2&#xA;Callsign: GOAT28&#xA;Hex: ae0206&#xA;Altitude: 1900 ft&#xA;Speed: 174.6 kts&#xA;Heading: 39.9&#xA;Source: adsb.lol</description>
          <Point>
            <coordinates>-98.343847,29.559274,1900</coordinates>
          </Point>
        </Placemark>
        <Placemark>
          <name>QUESO29 (BE20)</name>
          <description>Type: BE20&#xA;Callsign: QUESO29&#xA;Hex: ae08f8&#xA;Altitude: 19975 ft&#xA;Speed: 234.6 kts&#xA;Heading: 282.6&#xA;Source: airplanes.live</description>
          <Point>
            <coordinates>-93.204987,31.595795,19975</coordinates>
          </Point>
        </Placemark>
        <Placemark>
          <name>RN116 (TEX2)</name>
          <description>Type: TEX2&#xA;Callsign: RN116&#xA;Hex: ae2ef1&#xA;Altitude: 2275 ft&#xA;Speed: 188.3 kts&#xA;Heading: 62.5&#xA;Source: airplanes.live</description>
          <Point>
            <coordinates>-87.339908,31.432755,2275</coordinates>
          </Point>
        </Placemark>
        <Placemark>
          <name>ae6dc4 (AH-64 Apache)</name>
          <description>Type: AH-64 Apache&#xA;Hex: ae6dc4&#xA;Altitude: 600 ft&#xA;Speed: 0.0 kts&#xA;Heading: 0.0&#xA;Source: airplanes.live</description>
          <Point>
            <coordinates>-81.057129,33.844268,600</coordinates>
          </Point>
        </Placemark>
        <Placemark>
          <name>ae740b (A119)</name>
          <description>Type: A119&#xA;Hex: ae740b&#xA;Altitude: 1200 ft&#xA;Speed: 106.1 kts&#xA;Heading: 336.1&#xA;Source: adsb.lol</description>
          <Point>
            <coordinates>-86.737994,30.903936,1200</coordinates>
          </Point>
        </Placemark>
        <Placemark>
          <name>HATED11 (EC45)</name>
          <description>Type: EC45&#xA;Callsign: HATED11&#xA;Hex: ae632e&#xA;Altitude: 1775 ft&#xA;Speed: 104.0 kts&#xA;Heading: 262.2&#xA;Source: airplanes.live</description>
          <Point>
            <coordinates>-86.153908,31.191954,1775</coordinates>
          </Point>
        </Placemark>
        <Placemark>
          <name>ae6383 (AH-64 Apache)</name>
          <description>Type: AH-64 Apache&#xA;Hex: ae6383&#xA;Altitude: 5700 ft&#xA;Speed: 0.0 kts&#xA;Heading: 0.0&#xA;Source: adsb.lol</description>
          <Point>
            <coordinates>0,0,5700</coordinates>
          </Point>
        </Placemark>
        <Placemark>
          <name>N (C208)</name>
          <description>Type: C208&#xA;Callsign: N&#xA;Hex: ae17cb&#xA;Altitude: 350 ft&#xA;Speed: 98.4 kts&#xA;Heading: 37.6&#xA;Source: airplanes.live</description>
          <Point>
            <coordinates>-78.859583,35.017227,350</coordinates>
          </Point>
        </Placemark>
        <Placemark>
          <name>BDIT142 (TEX2)</name>
          <description>Type: TEX2&#xA;Callsign: BDIT142&#xA;Hex: c2b035&#xA;Altitude: 12550 ft&#xA;Speed: 190.1 kts&#xA;Heading: 171.5&#xA;Source: airplanes.live</description>
          <Point>
            <coordinates>-105.006963,50.192047,12550</coordinates>
          </Point>
        </Placemark>
        <Placemark>
          <name>BRCAT12 (TEX2)</name>
          <description>Type: TEX2&#xA;Callsign: BRCAT12&#xA;Hex: ae4a1f&#xA;Altitude: 15000 ft&#xA;Speed: 230.8 kts&#xA;Heading: 265.3&#xA;Source: airplanes.live</description>
          <Point>
            <coordinates>-104.227183,32.594992,15000</coordinates>
          </Point>
        </Placemark>
        <Placemark>
          <name>GUNN41 (T-38 Talon)</name>
          <description>Type: T-38 Talon&#xA;Callsign: GUNN41&#xA;Hex: ae003f&#xA;Altitude: 18825 ft&#xA;Speed: 385.8 kts&#xA;Heading: 145.8&#xA;Source: airplanes.live</description>
          <Point>
            <coordinates>-99.047767,35.984088,18825</coordinates>
          </Point>
        </Placemark>
        <Placemark>
          <name>BLADE32 (TEX2)</name>
          <description>Type: TEX2&#xA;Callsign: BLADE32&#xA;Hex: ae1e8c&#xA;Altitude: 9975 ft&#xA;Speed: 87.4 kts&#xA;Heading: 275.2&#xA;Source: airplanes.live</description>
          <Point>
            <coordinates>-98.912771,34.634262,9975</coordinates>
          </Point>
        </Placemark>
        <Placemark>
          <name>VOID01 (T-38 Talon)</name>
          <description>Type: T-38 Talon&#xA;Callsign: VOID01&#xA;Hex: ae0081&#xA;Altitude: 15400 ft&#xA;Speed: 411.3 kts&#xA;Heading: 33.0&#xA;Source: airplanes.live</description>
          <Point>
            <coordinates>-98.864173,33.41906,15400</coordinates>
          </Point>
        </Placemark>
        <Placemark>
          <name>HAWK245 (HAWK)</name>
          <description>Type: HAWK&#xA;Callsign: HAWK245&#xA;Hex: ae6313&#xA;Altitude: 18875 ft&#xA;Speed: 137.4 kts&#xA;Heading: 299.2&#xA;Source: adsb.lol</description>
          <Point>
            <coordinates>-98.502626,27.436353,18875</coordinates>
          </Point>
        </Placemark>
        <Placemark>
          <name>VIKING1 (TEX2)</name>
          <description>Type: TEX2&#xA;Callsign: VIKING1&#xA;Hex: ae1e66&#xA;Altitude: 19000 ft&#xA;Speed: 225.0 kts&#xA;Heading: 333.9&#xA;Source: airplanes.live</description>
          <Point>
            <coordinates>-97.944202,34.232374,19000</coordinates>
          </Point>
        </Placemark>
        <Placemark>
          <name>SKULL43 (TEX2)</name>
          <description>Type: TEX2&#xA;Callsign: SKULL43&#xA;Hex: ae172f&#xA;Altitude: 10400 ft&#xA;Speed: 240.3 kts&#xA;Heading: 2.6&#xA;Source: adsb.lol</description>
          <Point>
            <coordinates>-97.882233,34.211891,10400</coordinates>
          </Point>
        </Placemark>
        <Placemark>
          <name>OKIE11 (KC-135 Stratotanker)</name>
          <description>Type: KC-135 Stratotanker&#xA;Callsign: OKIE11&#xA;Hex: ae0486&#xA;Altitude: 27000 ft&#xA;Speed: 471.0 kts&#xA;Heading: 59.0&#xA;Source: adsb.lol</description>
          <Point>
            <coordinates>-95.541425,36.316484,27000</coordinates>
          </Point>
        </Placemark>
        <Placemark>
          <name>ae5a78 (EC45)</name>
          <description>Type: EC45&#xA;Hex: ae5a78&#xA;Altitude: 850 ft&#xA;Speed: 92.2 kts&#xA;Heading: 36.6&#xA;Source: airplanes.live</description>
          <Point>
            <coordinates>-85.753623,31.281647,850</coordinates>
          </Point>
        </Placemark>
        <Placemark>
          <name>GAFTT33 (Unknown Type)</name>
          <description>Type: Unknown Type&#xA;Callsign: GAFTT33&#xA;Hex: 3ea3c3&#xA;Altitude: 62700 ft&#xA;Speed: 0.0 kts&#xA;Heading: 0.0&#xA;Source: airplanes.live</description>
          <Point>
            <coordinates>0,0,62700</coordinates>
          </Point>
        </Placemark>
        <Placemark>
          <name>RNGR46 (B06)</name>
          <description>Type: B06&#xA;Callsign: RNGR46&#xA;Hex: c032e5&#xA;Altitude: 850 ft&#xA;Speed: 55.2 kts&#xA;Heading: 354.8&#xA;Source: adsb.lol</description>
          <Point>
            <coordinates>-98.160392,49.912518,850</coordinates>
          </Point>
        </Placemark>
        <Placemark>
          <name>TRCH22 (B350)</name>
          <description>Type: B350&#xA;Callsign: TRCH22&#xA;Hex: 7cfa31&#xA;Altitude: 7350 ft&#xA;Speed: 186.9 kts&#xA;Heading: 47.6&#xA;Source: adsb.lol</description>
          <Point>
            <coordinates>147.143808,-37.988342,7350</coordinates>
          </Point>
        </Placemark>
        <Placemark>
          <name>FAM3206 (C-295)</name>
          <description>Type: C-295&#xA;Callsign: FAM3206&#xA;Hex: 0d06bc&#xA;Altitude: 7175 ft&#xA;Speed: 163.0 kts&#xA;Heading: 91.0&#xA;Source: airplanes.live</description>
          <Point>
            <coordinates>-103.391934,20.745027,7175</coordinates>
          </Point>
        </Placemark>
        <Placemark>
          <name>00972064 (EC45)</name>
          <description>Type: EC45&#xA;Callsign: 00972064&#xA;Hex: ae1f4f&#xA;Altitude: 9175 ft&#xA;Speed: 89.1 kts&#xA;Heading: 124.9&#xA;Source: airplanes.live</description>
          <Point>
            <coordinates>-98.652096,26.41008,9175</coordinates>
          </Point>
        </Placemark>
        <Placemark>
          <name>LTHL236 (HAWK)</name>
          <description>Type: HAWK&#xA;Callsign: LTHL236&#xA;Hex: ae627c&#xA;Altitude: 10675 ft&#xA;Speed: 302.9 kts&#xA;Heading: 75.3&#xA;Source: adsb.lol</description>
          <Point>
            <coordinates>-98.303657,27.10504,10675</coordinates>
          </Point>
        </Placemark>
        <Placemark>
          <name>C6586 (AS65)</name>
          <description>Type: AS65&#xA;Callsign: C6586&#xA;Hex: ae26ac&#xA;Altitude: 1000 ft&#xA;Speed: 130.1 kts&#xA;Heading: 325.3&#xA;Source: adsb.lol</description>
          <Point>
            <coordinates>-88.105902,30.595015,1000</coordinates>
          </Point>
        </Placemark>
        <Placemark>
          <name>VV1E041 (A119)</name>
          <description>Type: A119&#xA;Callsign: VV1E041&#xA;Hex: ae7417&#xA;Altitude: 500 ft&#xA;Speed: 101.1 kts&#xA;Heading: 208.3&#xA;Source: airplanes.live</description>
          <Point>
            <coordinates>-87.483054,30.35051,500</coordinates>
          </Point>
        </Placemark>
        <Placemark>
          <name>ae1458 (C-17 Globemaster III)</name>
          <description>Type: C-17 Globemaster III&#xA;Hex: ae1458&#xA;Altitude: 32000 ft&#xA;Speed: 0.0 kts&#xA;Heading: 0.0&#xA;Source: adsb.lol</description>
          <Point>
            <coordinates>0,0,32000</coordinates>
          </Point>
        </Placemark>
        <Placemark>
          <name>N5215F (C172)</name>
          <description>Type: C172&#xA;Callsign: N5215F&#xA;Hex: a68fb2&#xA;Altitude: 400 ft&#xA;Speed: 61.4 kts&#xA;Heading: 263.4&#xA;Source: adsb.lol</description>
          <Point>
            <coordinates>-121.718962,38.192527,400</coordinates>
          </Point>
        </Placemark>
        <Placemark>
          <name>FANGS96 (TEX2)</name>
          <description>Type: TEX2&#xA;Callsign: FANGS96&#xA;Hex: ae1e54&#xA;Altitude: 0 ft&#xA;Speed: 10.2 kts&#xA;Heading: 326.2&#xA;Source: adsb.lol</description>
          <Point>
            <coordinates>-98.286372,29.528858,0</coordinates>
          </Point>
        </Placemark>
        <Placemark>
          <name>JEDDA63 (TEX2)</name>
          <description>Type: TEX2&#xA;Callsign: JEDDA63&#xA;Hex: ae0892&#xA;Altitude: 14050 ft&#xA;Speed: 302.8 kts&#xA;Heading: 229.4&#xA;Source: adsb.lol</description>
          <Point>
            <coordinates>-100.212115,29.813263,14050</coordinates>
          </Point>
        </Placemark>
        <Placemark>
          <name>BLADE44 (TEX2)</name>
          <description>Type: TEX2&#xA;Callsign: BLADE44&#xA;Hex: ae1133&#xA;Altitude: 16975 ft&#xA;Speed: 104.4 kts&#xA;Heading: 323.6&#xA;Source: airplanes.live</description>
          <Point>
            <coordinates>-99.077454,34.617129,16975</coordinates>
          </Point>
        </Placemark>
        <Placemark>
          <name>LYRE71 (TEX2)</name>
          <description>Type: TEX2&#xA;Callsign: LYRE71&#xA;Hex: ae1ea3&#xA;Altitude: 1850 ft&#xA;Speed: 207.2 kts&#xA;Heading: 289.8&#xA;Source: airplanes.live</description>
          <Point>
            <coordinates>-98.200449,29.416397,1850</coordinates>
          </Point>
        </Placemark>
        <Placemark>
          <name>TREK01 (C-130 Hercules)</name>
          <description>Type: C-130 Hercules&#xA;Callsign: TREK01&#xA;Hex: adfde6&#xA;Altitude: 25100 ft&#xA;Speed: 317.0 kts&#xA;Heading: 43.0&#xA;Source: adsb.lol</description>
          <Point>
            <coordinates>-92.504704,37.172474,25100</coordinates>
          </Point>
        </Placemark>
        <Placemark>
          <name>TEXN086 (TEX2)</name>
          <description>Type: TEX2&#xA;Callsign: TEXN086&#xA;Hex: ae2ed3&#xA;Altitude: 1750 ft&#xA;Speed: 125.9 kts&#xA;Heading: 224.4&#xA;Source: airplanes.live</description>
          <Point>
            <coordinates>-89.921448,29.926665,1750</coordinates>
          </Point>
        </Placemark>
        <Placemark>
          <name>ALDN77 (PC21)</name>
          <description>Type: PC21&#xA;Callsign: ALDN77&#xA;Hex: 7cf9f7&#xA;Altitude: 1250 ft&#xA;Speed: 240.4 kts&#xA;Heading: 289.2&#xA;Source: airplanes.live</description>
          <Point>
            <coordinates>144.947594,-37.999374,1250</coordinates>
          </Point>
        </Placemark>
        <Placemark>
          <name>SWEEP21 (T-38 Talon)</name>
          <description>Type: T-38 Talon&#xA;Callsign: SWEEP21&#xA;Hex: adffbb&#xA;Altitude: 0 ft&#xA;Speed: 0.0 kts&#xA;Heading: 0.0&#xA;Source: airplanes.live</description>
          <Point>
            <coordinates>0,0,0</coordinates>
          </Point>
        </Placemark>
        <Placemark>
          <name>STGN05 (G120)</name>
          <description>Type: G120&#xA;Callsign: STGN05&#xA;Hex: c02835&#xA;Altitude: 1800 ft&#xA;Speed: 121.3 kts&#xA;Heading: 301.9&#xA;Source: adsb.lol</description>
          <Point>
            <coordinates>-98.259117,49.940964,1800</coordinates>
          </Point>
        </Placemark>
        <Placemark>
          <name>JOLLY91 (H-60 Black Hawk)</name>
          <description>Type: H-60 Black Hawk&#xA;Callsign: JOLLY91&#xA;Hex: afb23c&#xA;Altitude: 0 ft&#xA;Speed: 0.0 kts&#xA;Heading: 333.4&#xA;Source: airplanes.live</description>
          <Point>
            <coordinates>-122.04148,37.409775,0</coordinates>
          </Point>
        </Placemark>
        <Placemark>
          <name>BRCAT03 (TEX2)</name>
          <description>Type: TEX2&#xA;Callsign: BRCAT03&#xA;Hex: ae58fa&#xA;Altitude: 14800 ft&#xA;Speed: 124.8 kts&#xA;Heading: 260.3&#xA;Source: airplanes.live</description>
          <Point>
            <coordinates>-104.081109,33.294626,14800</coordinates>
          </Point>
        </Placemark>
        <Placemark>
          <name>BLADE33 (TEX2)</name>
          <description>Type: TEX2&#xA;Callsign: BLADE33&#xA;Hex: ae173c&#xA;Altitude: 9475 ft&#xA;Speed: 101.2 kts&#xA;Heading: 133.0&#xA;Source: adsb.lol</description>
          <Point>
            <coordinates>-98.871236,34.407578,9475</coordinates>
          </Point>
        </Placemark>
        <Placemark>
          <name>ABLE42 (T-38 Talon)</name>
          <description>Type: T-38 Talon&#xA;Callsign: ABLE42&#xA;Hex: ae0054&#xA;Altitude: 11400 ft&#xA;Speed: 403.0 kts&#xA;Heading: 270.4&#xA;Source: airplanes.live</description>
          <Point>
            <coordinates>-98.709412,34.076843,11400</coordinates>
          </Point>
        </Placemark>
        <Placemark>
          <name>SH190 (TEX2)</name>
          <description>Type: TEX2&#xA;Callsign: SH190&#xA;Hex: ae4ea8&#xA;Altitude: 125 ft&#xA;Speed: 100.3 kts&#xA;Heading: 170.8&#xA;Source: airplanes.live</description>
          <Point>
            <coordinates>-86.524712,30.792847,125</coordinates>
          </Point>
        </Placemark>
        <Placemark>
          <name>GAF903 (A359)</name>
          <description>Type: A359&#xA;Callsign: GAF903&#xA;Hex: 3f5d91&#xA;Altitude: 43000 ft&#xA;Speed: 449.7 kts&#xA;Heading: 220.5&#xA;Source: adsb.lol</description>
          <Point>
            <coordinates>-69.787099,45.946289,43000</coordinates>
          </Point>
        </Placemark>
        <Placemark>
          <name>FFAB123 (H-60 Black Hawk)</name>
          <description>Type: H-60 Black Hawk&#xA;Callsign: FFAB123&#xA;Hex: ae4fc2&#xA;Altitude: 0 ft&#xA;Speed: 71.3 kts&#xA;Heading: 235.9&#xA;Source: airplanes.live</description>
          <Point>
            <coordinates>0,0,0</coordinates>
          </Point>
        </Placemark>
        <Placemark>
          <name>JANET74 (B736)</name>
          <description>Type: B736&#xA;Callsign: JANET74&#xA;Hex: a3685d&#xA;Altitude: 18975 ft&#xA;Speed: 409.4 kts&#xA;Heading: 155.0&#xA;Source: adsb.lol</description>
          <Point>
            <coordinates>-116.252357,36.922256,18975</coordinates>
          </Point>
        </Placemark>
        <Placemark>
          <name>ICY14 (Unknown Type)</name>
          <description>Type: Unknown Type&#xA;Callsign: ICY14&#xA;Hex: ae0cce&#xA;Altitude: 600 ft&#xA;Speed: 121.5 kts&#xA;Heading: 147.1&#xA;Source: airplanes.live</description>
          <Point>
            <coordinates>-149.986267,61.394767,600</coordinates>
          </Point>
        </Placemark>
        <Placemark>
          <name>BRCAT04 (TEX2)</name>
          <description>Type: TEX2&#xA;Callsign: BRCAT04&#xA;Hex: ae2ed7&#xA;Altitude: 11950 ft&#xA;Speed: 159.8 kts&#xA;Heading: 171.4&#xA;Source: airplanes.live</description>
          <Point>
            <coordinates>-103.849668,33.266881,11950</coordinates>
          </Point>
        </Placemark>
        <Placemark>
          <name>BLADE10 (TEX2)</name>
          <description>Type: TEX2&#xA;Callsign: BLADE10&#xA;Hex: ae10f2&#xA;Altitude: 7900 ft&#xA;Speed: 286.5 kts&#xA;Heading: 146.5&#xA;Source: adsb.lol</description>
          <Point>
            <coordinates>-98.580952,34.34261,7900</coordinates>
          </Point>
        </Placemark>
        <Placemark>
          <name>GOAT20 (TEX2)</name>
          <description>Type: TEX2&#xA;Callsign: GOAT20&#xA;Hex: ae13b6&#xA;Altitude: 1700 ft&#xA;Speed: 103.4 kts&#xA;Heading: 150.5&#xA;Source: airplanes.live</description>
          <Point>
            <coordinates>-98.322359,29.579013,1700</coordinates>
          </Point>
        </Placemark>
        <Placemark>
          <name>HAWG62 (C30J)</name>
          <description>Type: C30J&#xA;Callsign: HAWG62&#xA;Hex: ae0245&#xA;Altitude: 14900 ft&#xA;Speed: 266.9 kts&#xA;Heading: 215.2&#xA;Source: airplanes.live</description>
          <Point>
            <coordinates>-93.069763,34.497815,14900</coordinates>
          </Point>
        </Placemark>
        <Placemark>
          <name>VV4E631 (A119)</name>
          <description>Type: A119&#xA;Callsign: VV4E631&#xA;Hex: ae6d51&#xA;Altitude: 500 ft&#xA;Speed: 72.0 kts&#xA;Heading: 53.7&#xA;Source: airplanes.live</description>
          <Point>
            <coordinates>-87.156242,30.807432,500</coordinates>
          </Point>
        </Placemark>
        <Placemark>
          <name>VV8E734 (A119)</name>
          <description>Type: A119&#xA;Callsign: VV8E734&#xA;Hex: ae7421&#xA;Altitude: 1750 ft&#xA;Speed: 76.7 kts&#xA;Heading: 129.7&#xA;Source: airplanes.live</description>
          <Point>
            <coordinates>-85.563062,31.415498,1750</coordinates>
          </Point>
        </Placemark>
        <Placemark>
          <name>JANET34 (B736)</name>
          <description>Type: B736&#xA;Callsign: JANET34&#xA;Hex: a2ec0c&#xA;Altitude: 16975 ft&#xA;Speed: 373.8 kts&#xA;Heading: 183.8&#xA;Source: adsb.lol</description>
          <Point>
            <coordinates>-116.036339,36.682022,16975</coordinates>
          </Point>
        </Placemark>
        <Placemark>
          <name>ae05ad (KC-135 Stratotanker)</name>
          <description>Type: KC-135 Stratotanker&#xA;Hex: ae05ad&#xA;Altitude: 36000 ft&#xA;Speed: 421.0 kts&#xA;Heading: 349.0&#xA;Source: adsb.lol</description>
          <Point>
            <coordinates>-123.526215,44.397146,36000</coordinates>
          </Point>
        </Placemark>
        <Placemark>
          <name>BRCAT16 (TEX2)</name>
          <description>Type: TEX2&#xA;Callsign: BRCAT16&#xA;Hex: ae4e95&#xA;Altitude: 8025 ft&#xA;Speed: 215.2 kts&#xA;Heading: 298.6&#xA;Source: adsb.lol</description>
          <Point>
            <coordinates>-103.588182,32.849726,8025</coordinates>
          </Point>
        </Placemark>
        <Placemark>
          <name>ZOOM91 (T-38 Talon)</name>
          <description>Type: T-38 Talon&#xA;Callsign: ZOOM91&#xA;Hex: ae009a&#xA;Altitude: 17150 ft&#xA;Speed: 415.8 kts&#xA;Heading: 233.2&#xA;Source: adsb.lol</description>
          <Point>
            <coordinates>-98.988419,33.855208,17150</coordinates>
          </Point>
        </Placemark>
        <Placemark>
          <name>BLADE31 (TEX2)</name>
          <description>Type: TEX2&#xA;Callsign: BLADE31&#xA;Hex: ae1e92&#xA;Altitude: 8925 ft&#xA;Speed: 223.2 kts&#xA;Heading: 177.7&#xA;Source: airplanes.live</description>
          <Point>
            <coordinates>-98.630562,34.508755,8925</coordinates>
          </Point>
        </Placemark>
        <Placemark>
          <name>ae6890 (Unknown Type)</name>
          <description>Type: Unknown Type&#xA;Hex: ae6890&#xA;Altitude: 28000 ft&#xA;Speed: 0.0 kts&#xA;Heading: 0.0&#xA;Source: airplanes.live</description>
          <Point>
            <coordinates>0,0,28000</coordinates>
          </Point>
        </Placemark>
        <Placemark>
          <name>ae2776 (H-60 Black Hawk)</name>
          <description>Type: H-60 Black Hawk&#xA;Hex: ae2776&#xA;Altitude: -25 ft&#xA;Speed: 55.5 kts&#xA;Heading: 256.5&#xA;Source: airplanes.live</description>
          <Point>
            <coordinates>0,0,-25</coordinates>
          </Point>
        </Placemark>
        <Placemark>
          <name>TEST1234 (Unknown Type)</name>
          <description>Type: Unknown Type&#xA;Callsign: TEST1234&#xA;Hex: adfbde&#xA;Altitude: 0 ft&#xA;Speed: 0.0 kts&#xA;Heading: 0.0&#xA;Source: airplanes.live</description>
          <Point>
            <coordinates>0,0,0</coordinates>
          </Point>
        </Placemark>
        <Placemark>
          <name>4573d7 (Unknown Type)</name>
          <description>Type: Unknown Type&#xA;Hex: 4573d7&#xA;Altitude: 9725 ft&#xA;Speed: 0.0 kts&#xA;Heading: 0.0&#xA;Source: adsb.lol</description>
          <Point>
            <coordinates>0,0,9725</coordinates>
          </Point>
        </Placemark>
        <Placemark>
          <name>BLADE37 (TEX2)</name>
          <description>Type: TEX2&#xA;Callsign: BLADE37&#xA;Hex: ae1e8a&#xA;Altitude: 10300 ft&#xA;Speed: 250.5 kts&#xA;Heading: 176.3&#xA;Source: airplanes.live</description>
          <Point>
            <coordinates>-98.443666,34.5336,10300</coordinates>
          </Point>
        </Placemark>
        <Placemark>
          <name>R20298 (H-60 Black Hawk)</name>
          <description>Type: H-60 Black Hawk&#xA;Callsign: R20298&#xA;Hex: ae5114&#xA;Altitude: 1775 ft&#xA;Speed: 118.8 kts&#xA;Heading: 45.7&#xA;Source: airplanes.live</description>
          <Point>
            <coordinates>-97.54574,31.113374,1775</coordinates>
          </Point>
        </Placemark>
        <Placemark>
          <name>SPAR320 (LJ35)</name>
          <description>Type: LJ35&#xA;Callsign: SPAR320&#xA;Hex: ae0175&#xA;Altitude: 2650 ft&#xA;Speed: 263.1 kts&#xA;Heading: 43.8&#xA;Source: airplanes.live</description>
          <Point>
            <coordinates>-83.983134,39.87529,2650</coordinates>
          </Point>
        </Placemark>
        <Placemark>
          <name>ae57c0 (P-8A Poseidon)</name>
          <description>Type: P-8A Poseidon&#xA;Hex: ae57c0&#xA;Altitude: 14850 ft&#xA;Speed: 380.1 kts&#xA;Heading: 258.9&#xA;Source: airplanes.live</description>
          <Point>
            <coordinates>-80.838572,24.719696,14850</coordinates>
          </Point>
        </Placemark>
        <Placemark>
          <name>ae68a4 (Unknown Type)</name>
          <description>Type: Unknown Type&#xA;Hex: ae68a4&#xA;Altitude: 34000 ft&#xA;Speed: 426.7 kts&#xA;Heading: 218.1&#xA;Source: airplanes.live</description>
          <Point>
            <coordinates>-77.454373,35.725025,34000</coordinates>
          </Point>
        </Placemark>
        <Placemark>
          <name>ae5a38 (Unknown Type)</name>
          <description>Type: Unknown Type&#xA;Hex: ae5a38&#xA;Altitude: 0 ft&#xA;Speed: 0.0 kts&#xA;Heading: 0.0&#xA;Source: airplanes.live</description>
          <Point>
            <coordinates>0,0,0</coordinates>
          </Point>
        </Placemark>
        <Placemark>
          <name>ae5f47 (P-8A Poseidon)</name>
          <description>Type: P-8A Poseidon&#xA;Hex: ae5f47&#xA;Altitude: 33000 ft&#xA;Speed: 500.9 kts&#xA;Heading: 117.3&#xA;Source: airplanes.live</description>
          <Point>
            <coordinates>-102.22896,43.817247,33000</coordinates>
          </Point>
        </Placemark>
        <Placemark>
          <name>VV8E626 (A119)</name>
          <description>Type: A119&#xA;Callsign: VV8E626&#xA;Hex: ae6d4c&#xA;Altitude: 2650 ft&#xA;Speed: 123.0 kts&#xA;Heading: 317.6&#xA;Source: airplanes.live</description>
          <Point>
            <coordinates>-87.28286,30.807293,2650</coordinates>
          </Point>
        </Placemark>
        <Placemark>
          <name>VV7E642 (A119)</name>
          <description>Type: A119&#xA;Callsign: VV7E642&#xA;Hex: ae73de&#xA;Altitude: 425 ft&#xA;Speed: 110.0 kts&#xA;Heading: 72.8&#xA;Source: airplanes.live</description>
          <Point>
            <coordinates>-87.127937,30.652222,425</coordinates>
          </Point>
        </Placemark>
        <Placemark>
          <name>RCH690 (C-17 Globemaster III)</name>
          <description>Type: C-17 Globemaster III&#xA;Callsign: RCH690&#xA;Hex: ae1459&#xA;Altitude: 29000 ft&#xA;Speed: 0.0 kts&#xA;Heading: 0.0&#xA;Source: adsb.lol</description>
          <Point>
            <coordinates>0,0,29000</coordinates>
          </Point>
        </Placemark>
        <Placemark>
          <name>RCH199 (C-17 Globemaster III)</name>
          <description>Type: C-17 Globemaster III&#xA;Callsign: RCH199&#xA;Hex: ae49c7&#xA;Altitude: 36000 ft&#xA;Speed: 0.0 kts&#xA;Heading: 0.0&#xA;Source: adsb.lol</description>
          <Point>
            <coordinates>0,0,36000</coordinates>
          </Point>
        </Placemark>
        <Placemark>
          <name>SAM218 (GLF5)</name>
          <description>Type: GLF5&#xA;Callsign: SAM218&#xA;Hex: ae6cf2&#xA;Altitude: 41000 ft&#xA;Speed: 548.5 kts&#xA;Heading: 101.2&#xA;Source: airplanes.live</description>
          <Point>
            <coordinates>-98.126621,33.868056,41000</coordinates>
          </Point>
        </Placemark>
        <Placemark>
          <name>WEIRD99 (EC45)</name>
          <description>Type: EC45&#xA;Callsign: WEIRD99&#xA;Hex: ae5a4f&#xA;Altitude: 775 ft&#xA;Speed: 95.6 kts&#xA;Heading: 344.2&#xA;Source: airplanes.live</description>
          <Point>
            <coordinates>-85.700468,31.19632,775</coordinates>
          </Point>
        </Placemark>
        <Placemark>
          <name>CASTL04 (C-130 Hercules)</name>
          <description>Type: C-130 Hercules&#xA;Callsign: CASTL04&#xA;Hex: adfea3&#xA;Altitude: -200 ft&#xA;Speed: 103.1 kts&#xA;Heading: 230.9&#xA;Source: adsb.lol</description>
          <Point>
            <coordinates>-75.438871,40.654162,-200</coordinates>
          </Point>
        </Placemark>
        <Placemark>
          <name>BLADE40 (TEX2)</name>
          <description>Type: TEX2&#xA;Callsign: BLADE40&#xA;Hex: ae174c&#xA;Altitude: 9900 ft&#xA;Speed: 125.2 kts&#xA;Heading: 167.1&#xA;Source: airplanes.live</description>
          <Point>
            <coordinates>-98.748493,34.275389,9900</coordinates>
          </Point>
        </Placemark>
        <Placemark>
          <name>MAUL2 (T-38 Talon)</name>
          <description>Type: T-38 Talon&#xA;Callsign: MAUL2&#xA;Hex: ae00bd&#xA;Altitude: 6625 ft&#xA;Speed: 332.2 kts&#xA;Heading: 248.4&#xA;Source: airplanes.live</description>
          <Point>
            <coordinates>-98.740857,34.704575,6625</coordinates>
          </Point>
        </Placemark>
        <Placemark>
          <name>STGRY22 (BE9L)</name>
          <description>Type: BE9L&#xA;Callsign: STGRY22&#xA;Hex: ae14a7&#xA;Altitude: 875 ft&#xA;Speed: 107.0 kts&#xA;Heading: 135.1&#xA;Source: airplanes.live</description>
          <Point>
            <coordinates>-97.33744,27.732798,875</coordinates>
          </Point>
        </Placemark>
        <Placemark>
          <name>RUSTY11 (TEX2)</name>
          <description>Type: TEX2&#xA;Callsign: RUSTY11&#xA;Hex: ae01ec&#xA;Altitude: 11075 ft&#xA;Speed: 231.7 kts&#xA;Heading: 355.5&#xA;Source: airplanes.live</description>
          <Point>
            <coordinates>-88.306424,33.325397,11075</coordinates>
          </Point>
        </Placemark>
        <Placemark>
          <name>G20906 (H-60 Black Hawk)</name>
          <description>Type: H-60 Black Hawk&#xA;Callsign: G20906&#xA;Hex: ae5d94&#xA;Altitude: 1925 ft&#xA;Speed: 99.2 kts&#xA;Heading: 257.8&#xA;Source: airplanes.live</description>
          <Point>
            <coordinates>-76.641052,40.547379,1925</coordinates>
          </Point>
        </Placemark>
        <Placemark>
          <name>TEST1234 (Unknown Type)</name>
          <description>Type: Unknown Type&#xA;Callsign: TEST1234&#xA;Hex: adf994&#xA;Altitude: 0 ft&#xA;Speed: 0.0 kts&#xA;Heading: 0.0&#xA;Source: adsb.lol</description>
          <Point>
            <coordinates>0,0,0</coordinates>
          </Point>
        </Placemark>
        <Placemark>
          <name>TEST1234 (Unknown Type)</name>
          <description>Type: Unknown Type&#xA;Callsign: TEST1234&#xA;Hex: adfbe0&#xA;Altitude: 0 ft&#xA;Speed: 0.0 kts&#xA;Heading: 0.0&#xA;Source: adsb.lol</description>
          <Point>
            <coordinates>0,0,0</coordinates>
          </Point>
        </Placemark>
        <Placemark>
          <name>87c837 (P1)</name>
          <description>Type: P1&#xA;Hex: 87c837&#xA;Altitude: 800 ft&#xA;Speed: 0.0 kts&#xA;Heading: 0.0&#xA;Source: adsb.lol</description>
          <Point>
            <coordinates>0,0,800</coordinates>
          </Point>
        </Placemark>
        <Placemark>
          <name>RNGR755 (TEX2)</name>
          <description>Type: TEX2&#xA;Callsign: RNGR755&#xA;Hex: ae1e70&#xA;Altitude: 16075 ft&#xA;Speed: 164.3 kts&#xA;Heading: 281.6&#xA;Source: adsb.lol</description>
          <Point>
            <coordinates>-97.713264,28.451471,16075</coordinates>
          </Point>
        </Placemark>
        <Placemark>
          <name>MAUL1 (T-38 Talon)</name>
          <description>Type: T-38 Talon&#xA;Callsign: MAUL1&#xA;Hex: ae00fb&#xA;Altitude: 7450 ft&#xA;Speed: 319.2 kts&#xA;Heading: 166.2&#xA;Source: adsb.lol</description>
          <Point>
            <coordinates>-98.752956,34.644827,7450</coordinates>
          </Point>
        </Placemark>
        <Placemark>
          <name>ae04e6 (KC-135 Stratotanker)</name>
          <description>Type: KC-135 Stratotanker&#xA;Hex: ae04e6&#xA;Altitude: 33000 ft&#xA;Speed: 463.0 kts&#xA;Heading: 116.0&#xA;Source: adsb.lol</description>
          <Point>
            <coordinates>-2.410898,54.208744,33000</coordinates>
          </Point>
        </Placemark>
        <Placemark>
          <name>MDSA43 (EC35)</name>
          <description>Type: EC35&#xA;Callsign: MDSA43&#xA;Hex: 7cfa0b&#xA;Altitude: 4575 ft&#xA;Speed: 103.0 kts&#xA;Heading: 244.6&#xA;Source: airplanes.live</description>
          <Point>
            <coordinates>150.34343,-35.019993,4575</coordinates>
          </Point>
        </Placemark>
        <Placemark>
          <name>TEST1234 (Unknown Type)</name>
          <description>Type: Unknown Type&#xA;Callsign: TEST1234&#xA;Hex: adf995&#xA;Altitude: 0 ft&#xA;Speed: 0.0 kts&#xA;Heading: 0.0&#xA;Source: adsb.lol</description>
          <Point>
            <coordinates>0,0,0</coordinates>
          </Point>
        </Placemark>
        <Placemark>
          <name>ae29d9 (C30J)</name>
          <description>Type: C30J&#xA;Hex: ae29d9&#xA;Altitude: 7500 ft&#xA;Speed: 0.0 kts&#xA;Heading: 0.0&#xA;Source: airplanes.live</description>
          <Point>
            <coordinates>0,0,7500</coordinates>
          </Point>
        </Placemark>
        <Placemark>
          <name>BGST413 (BE20)</name>
          <description>Type: BE20&#xA;Callsign: BGST413&#xA;Hex: afa195&#xA;Altitude: 27000 ft&#xA;Speed: 303.2 kts&#xA;Heading: 177.7&#xA;Source: airplanes.live</description>
          <Point>
            <coordinates>-97.099973,35.526713,27000</coordinates>
          </Point>
        </Placemark>
        <Placemark>
          <name>ae5f3a (P-8A Poseidon)</name>
          <description>Type: P-8A Poseidon&#xA;Hex: ae5f3a&#xA;Altitude: 1775 ft&#xA;Speed: 174.5 kts&#xA;Heading: 242.0&#xA;Source: adsb.lol</description>
          <Point>
            <coordinates>-88.164098,30.773026,1775</coordinates>
          </Point>
        </Placemark>
        <Placemark>
          <name>R20385 (H-60 Black Hawk)</name>
          <description>Type: H-60 Black Hawk&#xA;Callsign: R20385&#xA;Hex: ae536d&#xA;Altitude: 1525 ft&#xA;Speed: 91.7 kts&#xA;Heading: 50.8&#xA;Source: airplanes.live</description>
          <Point>
            <coordinates>-78.517549,34.873352,1525</coordinates>
          </Point>
        </Placemark>
        <Placemark>
          <name>R08461 (CH-47 Chinook)</name>
          <description>Type: CH-47 Chinook&#xA;Callsign: R08461&#xA;Hex: ae59d6&#xA;Altitude: 875 ft&#xA;Speed: 117.4 kts&#xA;Heading: 249.6&#xA;Source: adsb.lol</description>
          <Point>
            <coordinates>-75.609153,44.013605,875</coordinates>
          </Point>
        </Placemark>
        <Placemark>
          <name>00000000 (Unknown Type)</name>
          <description>Type: Unknown Type&#xA;Callsign: 00000000&#xA;Hex: adf8ce&#xA;Altitude: 70000 ft&#xA;Speed: 0.7 kts&#xA;Heading: 0.0&#xA;Source: adsb.lol</description>
          <Point>
            <coordinates>0,0,70000</coordinates>
          </Point>
        </Placemark>
        <Placemark>
          <name>ae0422 (KC-135 Stratotanker)</name>
          <description>Type: KC-135 Stratotanker&#xA;Hex: ae0422&#xA;Altitude: 2875 ft&#xA;Speed: 0.0 kts&#xA;Heading: 0.0&#xA;Source: airplanes.live</description>
          <Point>
            <coordinates>0,0,2875</coordinates>
          </Point>
        </Placemark>
        <Placemark>
          <name>TEST1234 (Unknown Type)</name>
          <description>Type: Unknown Type&#xA;Callsign: TEST1234&#xA;Hex: adf996&#xA;Altitude: 0 ft&#xA;Speed: 0.0 kts&#xA;Heading: 0.0&#xA;Source: adsb.lol</description>
          <Point>
            <coordinates>0,0,0</coordinates>
          </Point>
        </Placemark>
        <Placemark>
          <name>WATTS74 (EC45)</name>
          <description>Type: EC45&#xA;Callsign: WATTS74&#xA;Hex: ae1f4b&#xA;Altitude: 2050 ft&#xA;Speed: 14.4 kts&#xA;Heading: 326.3&#xA;Source: airplanes.live</description>
          <Point>
            <coordinates>-111.322046,32.507172,2050</coordinates>
          </Point>
        </Placemark>
        <Placemark>
          <name>ROVE04 (TEX2)</name>
          <description>Type: TEX2&#xA;Callsign: ROVE04&#xA;Hex: ae088e&#xA;Altitude: 8475 ft&#xA;Speed: 245.2 kts&#xA;Heading: 259.4&#xA;Source: airplanes.live</description>
          <Point>
            <coordinates>-97.758987,30.536316,8475</coordinates>
          </Point>
        </Placemark>
        <Placemark>
          <name>RNGR715 (TEX2)</name>
          <description>Type: TEX2&#xA;Callsign: RNGR715&#xA;Hex: ae4a13&#xA;Altitude: 675 ft&#xA;Speed: 138.0 kts&#xA;Heading: 328.5&#xA;Source: airplanes.live</description>
          <Point>
            <coordinates>-97.336388,27.633595,675</coordinates>
          </Point>
        </Placemark>
        <Placemark>
          <name>BFLO02 (P-8A Poseidon)</name>
          <description>Type: P-8A Poseidon&#xA;Callsign: BFLO02&#xA;Hex: 7cf9d2&#xA;Altitude: 0 ft&#xA;Speed: 0.0 kts&#xA;Heading: 0.0&#xA;Source: airplanes.live</description>
          <Point>
            <coordinates>138.628979,-34.710128,0</coordinates>
          </Point>
        </Placemark>
        <Placemark>
          <name>RASTA42 (TEX2)</name>
          <description>Type: TEX2&#xA;Callsign: RASTA42&#xA;Hex: ae141f&#xA;Altitude: 2200 ft&#xA;Speed: 220.8 kts&#xA;Heading: 38.0&#xA;Source: adsb.lol</description>
          <Point>
            <coordinates>-100.847653,29.379024,2200</coordinates>
          </Point>
        </Placemark>
        <Placemark>
          <name>SH246 (TEX2)</name>
          <description>Type: TEX2&#xA;Callsign: SH246&#xA;Hex: ae58eb&#xA;Altitude: 2275 ft&#xA;Speed: 213.1 kts&#xA;Heading: 246.2&#xA;Source: airplanes.live</description>
          <Point>
            <coordinates>-89.282927,30.526199,2275</coordinates>
          </Point>
        </Placemark>
        <Placemark>
          <name>VV1E628 (A119)</name>
          <description>Type: A119&#xA;Callsign: VV1E628&#xA;Hex: ae6d4e&#xA;Altitude: 375 ft&#xA;Speed: 94.6 kts&#xA;Heading: 236.7&#xA;Source: adsb.lol</description>
          <Point>
            <coordinates>-86.97063,30.616383,375</coordinates>
          </Point>
        </Placemark>
        <Placemark>
          <name>VV7E012 (Unknown Type)</name>
          <description>Type: Unknown Type&#xA;Callsign: VV7E012&#xA;Hex: ae6d55&#xA;Altitude: 1950 ft&#xA;Speed: 75.8 kts&#xA;Heading: 278.3&#xA;Source: airplanes.live</description>
          <Point>
            <coordinates>-86.82899,30.883438,1950</coordinates>
          </Point>
        </Placemark>
        <Placemark>
          <name>AXEL21 (GLEX)</name>
          <description>Type: GLEX&#xA;Callsign: AXEL21&#xA;Hex: a1bbe5&#xA;Altitude: 43000 ft&#xA;Speed: 466.9 kts&#xA;Heading: 5.2&#xA;Source: adsb.lol</description>
          <Point>
            <coordinates>-108.238964,35.509094,43000</coordinates>
          </Point>
        </Placemark>
        <Placemark>
          <name>3bccd4 (Unknown Type)</name>
          <description>Type: Unknown Type&#xA;Hex: 3bccd4&#xA;Altitude: 0 ft&#xA;Speed: 0.0 kts&#xA;Heading: 0.0&#xA;Source: adsb.lol</description>
          <Point>
            <coordinates>0,0,0</coordinates>
          </Point>
        </Placemark>
        <Placemark>
          <name>RUDY36 (V-22 Osprey)</name>
          <description>Type: V-22 Osprey&#xA;Callsign: RUDY36&#xA;Hex: ae6b9c&#xA;Altitude: 1450 ft&#xA;Speed: 253.3 kts&#xA;Heading: 87.3&#xA;Source: adsb.lol</description>
          <Point>
            <coordinates>-117.514866,32.59341,1450</coordinates>
          </Point>
        </Placemark>
        <Placemark>
          <name>TIGER20 (TEX2)</name>
          <description>Type: TEX2&#xA;Callsign: TIGER20&#xA;Hex: ae1e94&#xA;Altitude: 1550 ft&#xA;Speed: 103.9 kts&#xA;Heading: 135.4&#xA;Source: adsb.lol</description>
          <Point>
            <coordinates>-100.806562,29.384005,1550</coordinates>
          </Point>
        </Placemark>
        <Placemark>
          <name>HAWK252 (HAWK)</name>
          <description>Type: HAWK&#xA;Callsign: HAWK252&#xA;Hex: ae6317&#xA;Altitude: 6975 ft&#xA;Speed: 300.0 kts&#xA;Heading: 14.9&#xA;Source: adsb.lol</description>
          <Point>
            <coordinates>-98.03225,26.709961,6975</coordinates>
          </Point>
        </Placemark>
        <Placemark>
          <name>C2309 (CN35)</name>
          <description>Type: CN35&#xA;Callsign: C2309&#xA;Hex: ae2707&#xA;Altitude: 3900 ft&#xA;Speed: 197.6 kts&#xA;Heading: 187.3&#xA;Source: adsb.lol</description>
          <Point>
            <coordinates>-70.244155,42.863708,3900</coordinates>
          </Point>
        </Placemark>
        <Placemark>
          <name>RCH931 (C-17 Globemaster III)</name>
          <description>Type: C-17 Globemaster III&#xA;Callsign: RCH931&#xA;Hex: ae119b&#xA;Altitude: 32000 ft&#xA;Speed: 438.0 kts&#xA;Heading: 295.0&#xA;Source: adsb.lol</description>
          <Point>
            <coordinates>-0.927589,54.194598,32000</coordinates>
          </Point>
        </Placemark>
        <Placemark>
          <name>RAVN32 (PC21)</name>
          <description>Type: PC21&#xA;Callsign: RAVN32&#xA;Hex: 7cfa05&#xA;Altitude: 3075 ft&#xA;Speed: 208.5 kts&#xA;Heading: 310.7&#xA;Source: airplanes.live</description>
          <Point>
            <coordinates>151.981897,-32.751572,3075</coordinates>
          </Point>
        </Placemark>
        <Placemark>
          <name>WGTL15 (E737)</name>
          <description>Type: E737&#xA;Callsign: WGTL15&#xA;Hex: 7cf8f1&#xA;Altitude: 30000 ft&#xA;Speed: 417.4 kts&#xA;Heading: 194.6&#xA;Source: adsb.lol</description>
          <Point>
            <coordinates>149.844399,-37.196777,30000</coordinates>
          </Point>
        </Placemark>
        <Placemark>
          <name>PAIN81 (TEX2)</name>
          <description>Type: TEX2&#xA;Callsign: PAIN81&#xA;Hex: ae08b1&#xA;Altitude: 9275 ft&#xA;Speed: 189.4 kts&#xA;Heading: 165.0&#xA;Source: adsb.lol</description>
          <Point>
            <coordinates>-100.458456,29.118713,9275</coordinates>
          </Point>
        </Placemark>
        <Placemark>
          <name>JINX31 (TEX2)</name>
          <description>Type: TEX2&#xA;Callsign: JINX31&#xA;Hex: ae1424&#xA;Altitude: 1825 ft&#xA;Speed: 188.9 kts&#xA;Heading: 129.8&#xA;Source: adsb.lol</description>
          <Point>
            <coordinates>-98.315358,29.56514,1825</coordinates>
          </Point>
        </Placemark>
        <Placemark>
          <name>ae013a (KC-135 Stratotanker)</name>
          <description>Type: KC-135 Stratotanker&#xA;Hex: ae013a&#xA;Altitude: 0 ft&#xA;Speed: 0.0 kts&#xA;Heading: 0.0&#xA;Source: adsb.lol</description>
          <Point>
            <coordinates>0,0,0</coordinates>
          </Point>
        </Placemark>
        <Placemark>
          <name>BRCAT22 (TEX2)</name>
          <description>Type: TEX2&#xA;Callsign: BRCAT22&#xA;Hex: ae2ef8&#xA;Altitude: 4325 ft&#xA;Speed: 128.0 kts&#xA;Heading: 224.7&#xA;Source: adsb.lol</description>
          <Point>
            <coordinates>-104.474542,33.33815,4325</coordinates>
          </Point>
        </Placemark>
        <Placemark>
          <name>BLUFF71 (TEX2)</name>
          <description>Type: TEX2&#xA;Callsign: BLUFF71&#xA;Hex: ae01ef&#xA;Altitude: 9200 ft&#xA;Speed: 176.2 kts&#xA;Heading: 162.5&#xA;Source: airplanes.live</description>
          <Point>
            <coordinates>-100.234195,29.406257,9200</coordinates>
          </Point>
        </Placemark>
        <Placemark>
          <name>C6585 (AS65)</name>
          <description>Type: AS65&#xA;Callsign: C6585&#xA;Hex: ae26ab&#xA;Altitude: 650 ft&#xA;Speed: 67.2 kts&#xA;Heading: 274.3&#xA;Source: airplanes.live</description>
          <Point>
            <coordinates>-88.241364,30.715585,650</coordinates>
          </Point>
        </Placemark>
        <Placemark>
          <name>R20846 (H-60 Black Hawk)</name>
          <description>Type: H-60 Black Hawk&#xA;Callsign: R20846&#xA;Hex: ae5d57&#xA;Altitude: 425 ft&#xA;Speed: 69.9 kts&#xA;Heading: 193.2&#xA;Source: airplanes.live</description>
          <Point>
            <coordinates>-75.712673,44.078638,425</coordinates>
          </Point>
        </Placemark>
        <Placemark>
          <name>ROLR11 (PC21)</name>
          <description>Type: PC21&#xA;Callsign: ROLR11&#xA;Hex: 7cf9f4&#xA;Altitude: 24025 ft&#xA;Speed: 283.7 kts&#xA;Heading: 316.9&#xA;Source: airplanes.live</description>
          <Point>
            <coordinates>144.959282,-36.627301,24025</coordinates>
          </Point>
        </Placemark>
        <Placemark>
          <name>PNC0610 (H-60 Black Hawk)</name>
          <description>Type: H-60 Black Hawk&#xA;Callsign: PNC0610&#xA;Hex: 0ac405&#xA;Altitude: 9600 ft&#xA;Speed: 150.7 kts&#xA;Heading: 223.1&#xA;Source: adsb.lol</description>
          <Point>
            <coordinates>-74.052972,4.927963,9600</coordinates>
          </Point>
        </Placemark>
        <Placemark>
          <name>JINX31 (TEX2)</name>
          <description>Type: TEX2&#xA;Callsign: JINX31&#xA;Hex: ae1425&#xA;Altitude: 1725 ft&#xA;Speed: 194.1 kts&#xA;Heading: 91.8&#xA;Source: adsb.lol</description>
          <Point>
            <coordinates>-98.327109,29.566498,1725</coordinates>
          </Point>
        </Placemark>
        <Placemark>
          <name>BOBCT21 (Unknown Type)</name>
          <description>Type: Unknown Type&#xA;Callsign: BOBCT21&#xA;Hex: ae6314&#xA;Altitude: 21075 ft&#xA;Speed: 182.6 kts&#xA;Heading: 345.7&#xA;Source: airplanes.live</description>
          <Point>
            <coordinates>-88.625006,33.175507,21075</coordinates>
          </Point>
        </Placemark>
        <Placemark>
          <name>VV8E730 (A119)</name>
          <description>Type: A119&#xA;Callsign: VV8E730&#xA;Hex: ae741d&#xA;Altitude: 825 ft&#xA;Speed: 78.0 kts&#xA;Heading: 88.5&#xA;Source: airplanes.live</description>
          <Point>
            <coordinates>-87.273743,30.473607,825</coordinates>
          </Point>
        </Placemark>
        <Placemark>
          <name>RCH718 (KC-135 Stratotanker)</name>
          <description>Type: KC-135 Stratotanker&#xA;Callsign: RCH718&#xA;Hex: ae0145&#xA;Altitude: 29000 ft&#xA;Speed: 491.0 kts&#xA;Heading: 79.0&#xA;Source: airplanes.live</description>
          <Point>
            <coordinates>-83.125594,40.11358,29000</coordinates>
          </Point>
        </Placemark>
        <Placemark>
          <name>MOOSE50 (C-17 Globemaster III)</name>
          <description>Type: C-17 Globemaster III&#xA;Callsign: MOOSE50&#xA;Hex: ae07e9&#xA;Altitude: 30300 ft&#xA;Speed: 376.0 kts&#xA;Heading: 82.8&#xA;Source: airplanes.live</description>
          <Point>
            <coordinates>9.159777,49.588421,30300</coordinates>
          </Point>
        </Placemark>
        <Placemark>
          <name>adfaed (Unknown Type)</name>
          <description>Type: Unknown Type&#xA;Hex: adfaed&#xA;Altitude: 80000 ft&#xA;Speed: 0.0 kts&#xA;Heading: 0.0&#xA;Source: airplanes.live</description>
          <Point>
            <coordinates>0,0,80000</coordinates>
          </Point>
        </Placemark>
        <Placemark>
          <name>ae01d8 (RC-135 Rivet Joint)</name>
          <description>Type: RC-135 Rivet Joint&#xA;Hex: ae01d8&#xA;Altitude: 33450 ft&#xA;Speed: 0.0 kts&#xA;Heading: 0.0&#xA;Source: airplanes.live</description>
          <Point>
            <coordinates>0,0,33450</coordinates>
          </Point>
        </Placemark>
        <Placemark>
          <name>MC4006 (B737)</name>
          <description>Type: B737&#xA;Callsign: MC4006&#xA;Hex: ae04d8&#xA;Altitude: 38000 ft&#xA;Speed: 408.0 kts&#xA;Heading: 243.0&#xA;Source: airplanes.live</description>
          <Point>
            <coordinates>-176.702213,13.410187,38000</coordinates>
          </Point>
        </Placemark>