<?xml version="1.0" encoding="UTF-8"?>
<kml xmlns="http://www.opengis.net/kml/2.2">
  <Document>
    <name>US Military Tracker</name>
    <description>Generated: 2026-03-02T20:31:22Z | Chairman: none | Score: 0.00</description>
    <Folder>
      <name>Aircraft (421 tracked)</name>
      <Folder>
        <name>Unknown</name>
        <Placemark>
          <name>DRAG972 ()</name>
          <description>Branch: &#xA;Altitude: 675 ft&#xA;Speed: 94.9 kts&#xA;Heading: 172.1&#xA;Mission: </description>
          <Point>
            <coordinates>-60.971856,14.570664,675</coordinates>
          </Point>
        </Placemark>
        <Placemark>
          <name>APACHE2 (H64)</name>
          <description>Branch: &#xA;Altitude: 400 ft&#xA;Speed: 96.0 kts&#xA;Heading: 301.4&#xA;Mission: </description>
          <Point>
            <coordinates>4.89916,51.562363,400</coordinates>
          </Point>
        </Placemark>
        <Placemark>
          <name>NATO29 (E3TF)</name>
          <description>Branch: &#xA;Altitude: 25000 ft&#xA;Speed: 355.0 kts&#xA;Heading: 104.4&#xA;Mission: </description>
          <Point>
            <coordinates>34.733334,37.850464,25000</coordinates>
          </Point>
        </Placemark>
        <Placemark>
          <name> (K35R)</name>
          <description>Branch: &#xA;Altitude: 34975 ft&#xA;Speed: 586.0 kts&#xA;Heading: 99.3&#xA;Mission: </description>
          <Point>
            <coordinates>0,0,34975</coordinates>
          </Point>
        </Placemark>
        <Placemark>
          <name>SWOOP71 (TEX2)</name>
          <description>Branch: &#xA;Altitude: 9825 ft&#xA;Speed: 231.0 kts&#xA;Heading: 31.0&#xA;Mission: </description>
          <Point>
            <coordinates>-100.320916,29.507126,9825</coordinates>
          </Point>
        </Placemark>
        <Placemark>
          <name>AVLON43 (B737)</name>
          <description>Branch: &#xA;Altitude: 35000 ft&#xA;Speed: 450.3 kts&#xA;Heading: 17.7&#xA;Mission: </description>
          <Point>
            <coordinates>-91.942348,35.293945,35000</coordinates>
          </Point>
        </Placemark>
        <Placemark>
          <name>G24541 (H60)</name>
          <description>Branch: &#xA;Altitude: 2400 ft&#xA;Speed: 107.9 kts&#xA;Heading: 129.7&#xA;Mission: </description>
          <Point>
            <coordinates>-88.040857,43.882416,2400</coordinates>
          </Point>
        </Placemark>
        <Placemark>
          <name>VV1E638 (A119)</name>
          <description>Branch: &#xA;Altitude: 475 ft&#xA;Speed: 83.9 kts&#xA;Heading: 74.8&#xA;Mission: </description>
          <Point>
            <coordinates>-86.943657,30.611355,475</coordinates>
          </Point>
        </Placemark>
        <Placemark>
          <name>OLIVE27 (C135)</name>
          <description>Branch: &#xA;Altitude: 36000 ft&#xA;Speed: 368.6 kts&#xA;Heading: 230.4&#xA;Mission: </description>
          <Point>
            <coordinates>-68.013938,45.01799,36000</coordinates>
          </Point>
        </Placemark>
        <Placemark>
          <name>KIW501 (C30J)</name>
          <description>Branch: &#xA;Altitude: 15375 ft&#xA;Speed: 254.5 kts&#xA;Heading: 183.6&#xA;Mission: </description>
          <Point>
            <coordinates>175.431763,-39.38701,15375</coordinates>
          </Point>
        </Placemark>
        <Placemark>
          <name>G26676 (H60)</name>
          <description>Branch: &#xA;Altitude: 600 ft&#xA;Speed: 0.0 kts&#xA;Heading: 0.0&#xA;Mission: </description>
          <Point>
            <coordinates>0,0,600</coordinates>
          </Point>
        </Placemark>
        <Placemark>
          <name>GRZL44 (DH8A)</name>
          <description>Branch: &#xA;Altitude: 6900 ft&#xA;Speed: 260.0 kts&#xA;Heading: 91.1&#xA;Mission: </description>
          <Point>
            <coordinates>-95.573393,49.933182,6900</coordinates>
          </Point>
        </Placemark>
        <Placemark>
          <name>SH046 (TEX2)</name>
          <description>Branch: &#xA;Altitude: 3350 ft&#xA;Speed: 211.8 kts&#xA;Heading: 219.2&#xA;Mission: </description>
          <Point>
            <coordinates>-87.460565,31.324954,3350</coordinates>
          </Point>
        </Placemark>
        <Placemark>
          <name>SH252 (TEX2)</name>
          <description>Branch: &#xA;Altitude: 2000 ft&#xA;Speed: 237.0 kts&#xA;Heading: 156.7&#xA;Mission: </description>
          <Point>
            <coordinates>-87.15229,30.894159,2000</coordinates>
          </Point>
        </Placemark>
        <Placemark>
          <name>CAPE32 (H60)</name>
          <description>Branch: &#xA;Altitude: 550 ft&#xA;Speed: 89.0 kts&#xA;Heading: 270.0&#xA;Mission: </description>
          <Point>
            <coordinates>-86.004044,31.360519,550</coordinates>
          </Point>
        </Placemark>
        <Placemark>
          <name>I2067 (A139)</name>
          <description>Branch: &#xA;Altitude: 1150 ft&#xA;Speed: 132.0 kts&#xA;Heading: 0.9&#xA;Mission: </description>
          <Point>
            <coordinates>18.777893,39.795599,1150</coordinates>
          </Point>
        </Placemark>
        <Placemark>
          <name> (R135)</name>
          <description>Branch: &#xA;Altitude: 33500 ft&#xA;Speed: 0.0 kts&#xA;Heading: 0.0&#xA;Mission: </description>
          <Point>
            <coordinates>0,0,33500</coordinates>
          </Point>
        </Placemark>
        <Placemark>
          <name>10630 (MI8)</name>
          <description>Branch: &#xA;Altitude: 1500 ft&#xA;Speed: 96.4 kts&#xA;Heading: 143.0&#xA;Mission: </description>
          <Point>
            <coordinates>19.669016,50.364866,1500</coordinates>
          </Point>
        </Placemark>
        <Placemark>
          <name>STRKE22 (TEX2)</name>
          <description>Branch: &#xA;Altitude: 6050 ft&#xA;Speed: 199.6 kts&#xA;Heading: 19.6&#xA;Mission: </description>
          <Point>
            <coordinates>-100.027394,28.782457,6050</coordinates>
          </Point>
        </Placemark>
        <Placemark>
          <name>LOOT77 (BE40)</name>
          <description>Branch: &#xA;Altitude: 2975 ft&#xA;Speed: 205.0 kts&#xA;Heading: 165.0&#xA;Mission: </description>
          <Point>
            <coordinates>-97.805786,31.019106,2975</coordinates>
          </Point>
        </Placemark>
        <Placemark>
          <name>VV4E631 (A119)</name>
          <description>Branch: &#xA;Altitude: 650 ft&#xA;Speed: 77.2 kts&#xA;Heading: 341.1&#xA;Mission: </description>
          <Point>
            <coordinates>-86.952209,30.6064,650</coordinates>
          </Point>
        </Placemark>
        <Placemark>
          <name>WIDGET47 (DH8A)</name>
          <description>Branch: &#xA;Altitude: 1325 ft&#xA;Speed: 131.0 kts&#xA;Heading: 137.8&#xA;Mission: </description>
          <Point>
            <coordinates>-85.550812,30.049888,1325</coordinates>
          </Point>
        </Placemark>
        <Placemark>
          <name> ()</name>
          <description>Branch: &#xA;Altitude: 22000 ft&#xA;Speed: 464.0 kts&#xA;Heading: 172.0&#xA;Mission: </description>
          <Point>
            <coordinates>-81.108884,31.594726,22000</coordinates>
          </Point>
        </Placemark>
        <Placemark>
          <name>RRR4946 (A400)</name>
          <description>Branch: &#xA;Altitude: 32000 ft&#xA;Speed: 360.0 kts&#xA;Heading: 331.7&#xA;Mission: </description>
          <Point>
            <coordinates>0,0,32000</coordinates>
          </Point>
        </Placemark>
        <Placemark>
          <name> (K35R)</name>
          <description>Branch: &#xA;Altitude: 0 ft&#xA;Speed: 0.0 kts&#xA;Heading: 0.0&#xA;Mission: </description>
          <Point>
            <coordinates>0,0,0</coordinates>
          </Point>
        </Placemark>
        <Placemark>
          <name>GTMO845 (BE20)</name>
          <description>Branch: &#xA;Altitude: 23000 ft&#xA;Speed: 0.0 kts&#xA;Heading: 0.0&#xA;Mission: </description>
          <Point>
            <coordinates>0,0,23000</coordinates>
          </Point>
        </Placemark>
        <Placemark>
          <name>DRAGN01 (TEX2)</name>
          <description>Branch: &#xA;Altitude: 3600 ft&#xA;Speed: 200.4 kts&#xA;Heading: 346.7&#xA;Mission: </description>
          <Point>
            <coordinates>-97.869308,36.184589,3600</coordinates>
          </Point>
        </Placemark>
        <Placemark>
          <name>E83173 (C30J)</name>
          <description>Branch: &#xA;Altitude: 25000 ft&#xA;Speed: 321.0 kts&#xA;Heading: 181.0&#xA;Mission: </description>
          <Point>
            <coordinates>-96.796698,36.222942,25000</coordinates>
          </Point>
        </Placemark>
        <Placemark>
          <name>PAT421 (BE20)</name>
          <description>Branch: &#xA;Altitude: 3725 ft&#xA;Speed: 229.4 kts&#xA;Heading: 23.1&#xA;Mission: </description>
          <Point>
            <coordinates>-86.212881,37.849623,3725</coordinates>
          </Point>
        </Placemark>
        <Placemark>
          <name>CAPE67 (H60)</name>
          <description>Branch: &#xA;Altitude: 800 ft&#xA;Speed: 93.0 kts&#xA;Heading: 356.3&#xA;Mission: </description>
          <Point>
            <coordinates>-86.02758,31.286865,800</coordinates>
          </Point>
        </Placemark>
        <Placemark>
          <name>TOTES51 (EC45)</name>
          <description>Branch: &#xA;Altitude: 875 ft&#xA;Speed: 87.0 kts&#xA;Heading: 292.2&#xA;Mission: </description>
          <Point>
            <coordinates>-85.993393,31.378862,875</coordinates>
          </Point>
        </Placemark>
        <Placemark>
          <name>VGBND20 (LYNX)</name>
          <description>Branch: &#xA;Altitude: 700 ft&#xA;Speed: 0.0 kts&#xA;Heading: 0.0&#xA;Mission: </description>
          <Point>
            <coordinates>0,0,700</coordinates>
          </Point>
        </Placemark>
        <Placemark>
          <name>AXEL10 (GLEX)</name>
          <description>Branch: &#xA;Altitude: 38600 ft&#xA;Speed: 411.1 kts&#xA;Heading: 288.0&#xA;Mission: </description>
          <Point>
            <coordinates>-101.471704,32.505112,38600</coordinates>
          </Point>
        </Placemark>
        <Placemark>
          <name>COUGR56 (LJ35)</name>
          <description>Branch: &#xA;Altitude: 37975 ft&#xA;Speed: 423.7 kts&#xA;Heading: 215.5&#xA;Mission: </description>
          <Point>
            <coordinates>-96.123477,32.684978,37975</coordinates>
          </Point>
        </Placemark>
        <Placemark>
          <name> (H60)</name>
          <description>Branch: &#xA;Altitude: 1675 ft&#xA;Speed: 145.0 kts&#xA;Heading: 313.6&#xA;Mission: </description>
          <Point>
            <coordinates>-91.956269,44.134232,1675</coordinates>
          </Point>
        </Placemark>
        <Placemark>
          <name>EVAL80 (BE20)</name>
          <description>Branch: &#xA;Altitude: 23000 ft&#xA;Speed: 295.2 kts&#xA;Heading: 174.8&#xA;Mission: </description>
          <Point>
            <coordinates>-86.757163,36.768913,23000</coordinates>
          </Point>
        </Placemark>
        <Placemark>
          <name>APACHE1 (H64)</name>
          <description>Branch: &#xA;Altitude: -200 ft&#xA;Speed: 24.5 kts&#xA;Heading: 101.8&#xA;Mission: </description>
          <Point>
            <coordinates>4.927521,51.567869,-200</coordinates>
          </Point>
        </Placemark>
        <Placemark>
          <name>WRR06 (NH90)</name>
          <description>Branch: &#xA;Altitude: 2100 ft&#xA;Speed: 151.5 kts&#xA;Heading: 251.9&#xA;Mission: </description>
          <Point>
            <coordinates>175.658028,-39.998614,2100</coordinates>
          </Point>
        </Placemark>
        <Placemark>
          <name>FLEDGE81 (TEX2)</name>
          <description>Branch: &#xA;Altitude: 11400 ft&#xA;Speed: 0.0 kts&#xA;Heading: 0.0&#xA;Mission: </description>
          <Point>
            <coordinates>0,0,11400</coordinates>
          </Point>
        </Placemark>
        <Placemark>
          <name>MNTNA71 (BE9L)</name>
          <description>Branch: &#xA;Altitude: 1975 ft&#xA;Speed: 138.1 kts&#xA;Heading: 177.9&#xA;Mission: </description>
          <Point>
            <coordinates>-97.387936,26.279111,1975</coordinates>
          </Point>
        </Placemark>
        <Placemark>
          <name>N9358L (C172)</name>
          <description>Branch: &#xA;Altitude: 1700 ft&#xA;Speed: 79.9 kts&#xA;Heading: 157.9&#xA;Mission: </description>
          <Point>
            <coordinates>-86.545404,30.898815,1700</coordinates>
          </Point>
        </Placemark>
        <Placemark>
          <name>SCRCH54 (V22)</name>
          <description>Branch: &#xA;Altitude: 9525 ft&#xA;Speed: 290.2 kts&#xA;Heading: 74.0&#xA;Mission: </description>
          <Point>
            <coordinates>-115.743545,33.56076,9525</coordinates>
          </Point>
        </Placemark>
        <Placemark>
          <name>BGST344 (BE20)</name>
          <description>Branch: &#xA;Altitude: 9900 ft&#xA;Speed: 164.5 kts&#xA;Heading: 197.3&#xA;Mission: </description>
          <Point>
            <coordinates>-96.597977,29.759995,9900</coordinates>
          </Point>
        </Placemark>
        <Placemark>
          <name>VV1E037 (A119)</name>
          <description>Branch: &#xA;Altitude: 1750 ft&#xA;Speed: 62.0 kts&#xA;Heading: 183.8&#xA;Mission: </description>
          <Point>
            <coordinates>-87.339989,30.768469,1750</coordinates>
          </Point>
        </Placemark>
        <Placemark>
          <name>POBOY11 (EC45)</name>
          <description>Branch: &#xA;Altitude: 1750 ft&#xA;Speed: 102.7 kts&#xA;Heading: 228.6&#xA;Mission: </description>
          <Point>
            <coordinates>-85.621517,31.542984,1750</coordinates>
          </Point>
        </Placemark>
        <Placemark>
          <name>G26755 (H60)</name>
          <description>Branch: &#xA;Altitude: 2775 ft&#xA;Speed: 109.1 kts&#xA;Heading: 92.6&#xA;Mission: </description>
          <Point>
            <coordinates>-84.64041,33.945099,2775</coordinates>
          </Point>
        </Placemark>
        <Placemark>
          <name>PAT07 (H60)</name>
          <description>Branch: &#xA;Altitude: 1375 ft&#xA;Speed: 83.5 kts&#xA;Heading: 42.1&#xA;Mission: </description>
          <Point>
            <coordinates>-77.06127,38.518021,1375</coordinates>
          </Point>
        </Placemark>
        <Placemark>
          <name> (H60)</name>
          <description>Branch: &#xA;Altitude: 2800 ft&#xA;Speed: 0.0 kts&#xA;Heading: 0.0&#xA;Mission: </description>
          <Point>
            <coordinates>0,0,2800</coordinates>
          </Point>
        </Placemark>
        <Placemark>
          <name> (H47)</name>
          <description>Branch: &#xA;Altitude: 0 ft&#xA;Speed: 0.0 kts&#xA;Heading: 0.0&#xA;Mission: </description>
          <Point>
            <coordinates>0,0,0</coordinates>
          </Point>
        </Placemark>
        <Placemark>
          <name>C6058 (H60)</name>
          <description>Branch: &#xA;Altitude: 675 ft&#xA;Speed: 72.9 kts&#xA;Heading: 226.7&#xA;Mission: </description>
          <Point>
            <coordinates>-119.126381,34.11557,675</coordinates>
          </Point>
        </Placemark>
        <Placemark>
          <name>SHARK75 (SR20)</name>
          <description>Branch: &#xA;Altitude: 0 ft&#xA;Speed: 0.0 kts&#xA;Heading: 0.0&#xA;Mission: </description>
          <Point>
            <coordinates>-104.817947,38.979073,0</coordinates>
          </Point>
        </Placemark>
        <Placemark>
          <name>RAIDR71 (C30J)</name>
          <description>Branch: &#xA;Altitude: 21000 ft&#xA;Speed: 335.5 kts&#xA;Heading: 108.6&#xA;Mission: </description>
          <Point>
            <coordinates>-95.580158,34.954147,21000</coordinates>
          </Point>
        </Placemark>
        <Placemark>
          <name>TREK01 (C130)</name>
          <description>Branch: &#xA;Altitude: 19000 ft&#xA;Speed: 281.4 kts&#xA;Heading: 293.0&#xA;Mission: </description>
          <Point>
            <coordinates>-92.733802,34.777176,19000</coordinates>
          </Point>
        </Placemark>
        <Placemark>
          <name> (P8)</name>
          <description>Branch: &#xA;Altitude: 19850 ft&#xA;Speed: 407.0 kts&#xA;Heading: 84.0&#xA;Mission: </description>
          <Point>
            <coordinates>-91.738827,30.446649,19850</coordinates>
          </Point>
        </Placemark>
        <Placemark>
          <name>BRAVE38 (C130)</name>
          <description>Branch: &#xA;Altitude: 23000 ft&#xA;Speed: 353.7 kts&#xA;Heading: 95.7&#xA;Mission: </description>
          <Point>
            <coordinates>-91.503754,34.758834,23000</coordinates>
          </Point>
        </Placemark>
        <Placemark>
          <name>RHODY62 (C30J)</name>
          <description>Branch: &#xA;Altitude: 2300 ft&#xA;Speed: 230.0 kts&#xA;Heading: 17.3&#xA;Mission: </description>
          <Point>
            <coordinates>-89.492538,31.204197,2300</coordinates>
          </Point>
        </Placemark>
        <Placemark>
          <name>WEIRD42 (EC45)</name>
          <description>Branch: &#xA;Altitude: 225 ft&#xA;Speed: 51.0 kts&#xA;Heading: 97.6&#xA;Mission: </description>
          <Point>
            <coordinates>-85.741867,31.152245,225</coordinates>
          </Point>
        </Placemark>
        <Placemark>
          <name>R40036 (H64)</name>
          <description>Branch: &#xA;Altitude: 1300 ft&#xA;Speed: 93.4 kts&#xA;Heading: 254.5&#xA;Mission: </description>
          <Point>
            <coordinates>-97.825658,31.090118,1300</coordinates>
          </Point>
        </Placemark>
        <Placemark>
          <name>SAM218 (GLF5)</name>
          <description>Branch: &#xA;Altitude: 41000 ft&#xA;Speed: 536.8 kts&#xA;Heading: 78.0&#xA;Mission: </description>
          <Point>
            <coordinates>-123.471362,34.182129,41000</coordinates>
          </Point>
        </Placemark>
        <Placemark>
          <name>C6531 (AS65)</name>
          <description>Branch: &#xA;Altitude: 0 ft&#xA;Speed: 36.5 kts&#xA;Heading: 338.4&#xA;Mission: </description>
          <Point>
            <coordinates>-122.047955,37.411403,0</coordinates>
          </Point>
        </Placemark>
        <Placemark>
          <name>RUDY30 (V22)</name>
          <description>Branch: &#xA;Altitude: 0 ft&#xA;Speed: 0.0 kts&#xA;Heading: 0.0&#xA;Mission: </description>
          <Point>
            <coordinates>-117.210759,32.708256,0</coordinates>
          </Point>
        </Placemark>
        <Placemark>
          <name> ()</name>
          <description>Branch: &#xA;Altitude: 33000 ft&#xA;Speed: 507.5 kts&#xA;Heading: 71.4&#xA;Mission: </description>
          <Point>
            <coordinates>-110.314429,56.786515,33000</coordinates>
          </Point>
        </Placemark>
        <Placemark>
          <name> ()</name>
          <description>Branch: &#xA;Altitude: 14600 ft&#xA;Speed: 304.6 kts&#xA;Heading: 278.9&#xA;Mission: </description>
          <Point>
            <coordinates>-93.952275,32.285467,14600</coordinates>
          </Point>
        </Placemark>
        <Placemark>
          <name>SWIFT82 (EC45)</name>
          <description>Branch: &#xA;Altitude: 7150 ft&#xA;Speed: 70.1 kts&#xA;Heading: 227.9&#xA;Mission: </description>
          <Point>
            <coordinates>-92.690922,34.986969,7150</coordinates>
          </Point>
        </Placemark>
        <Placemark>
          <name>SHF470 (H47)</name>
          <description>Branch: &#xA;Altitude: 875 ft&#xA;Speed: 139.0 kts&#xA;Heading: 277.0&#xA;Mission: </description>
          <Point>
            <coordinates>-0.630672,51.367404,875</coordinates>
          </Point>
        </Placemark>
        <Placemark>
          <name> (C17)</name>
          <description>Branch: &#xA;Altitude: 0 ft&#xA;Speed: 0.0 kts&#xA;Heading: 0.0&#xA;Mission: </description>
          <Point>
            <coordinates>-104.710203,38.809662,0</coordinates>
          </Point>
        </Placemark>
        <Placemark>
          <name>HOBBY05 (C30J)</name>
          <description>Branch: &#xA;Altitude: 4900 ft&#xA;Speed: 209.3 kts&#xA;Heading: 78.4&#xA;Mission: </description>
          <Point>
            <coordinates>-157.651162,21.065094,4900</coordinates>
          </Point>
        </Placemark>
        <Placemark>
          <name> ()</name>
          <description>Branch: &#xA;Altitude: 18800 ft&#xA;Speed: 432.9 kts&#xA;Heading: 95.3&#xA;Mission: </description>
          <Point>
            <coordinates>-121.557541,48.142502,18800</coordinates>
          </Point>
        </Placemark>
        <Placemark>
          <name>PAT919 (BE20)</name>
          <description>Branch: &#xA;Altitude: 20000 ft&#xA;Speed: 226.1 kts&#xA;Heading: 275.6&#xA;Mission: </description>
          <Point>
            <coordinates>-115.568447,33.802092,20000</coordinates>
          </Point>
        </Placemark>
        <Placemark>
          <name>NUKED35 (EC45)</name>
          <description>Branch: &#xA;Altitude: 625 ft&#xA;Speed: 76.0 kts&#xA;Heading: 1.4&#xA;Mission: </description>
          <Point>
            <coordinates>-85.721428,31.157831,625</coordinates>
          </Point>
        </Placemark>
        <Placemark>
          <name>CFC3629 (C17)</name>
          <description>Branch: &#xA;Altitude: 6175 ft&#xA;Speed: 242.8 kts&#xA;Heading: 307.0&#xA;Mission: </description>
          <Point>
            <coordinates>-4.099648,55.327009,6175</coordinates>
          </Point>
        </Placemark>
        <Placemark>
          <name>GAF313 (C30J)</name>
          <description>Branch: &#xA;Altitude: 25000 ft&#xA;Speed: 322.0 kts&#xA;Heading: 236.0&#xA;Mission: </description>
          <Point>
            <coordinates>1.696014,49.68544,25000</coordinates>
          </Point>
        </Placemark>
        <Placemark>
          <name>RRR9961 (A332)</name>
          <description>Branch: &#xA;Altitude: 26000 ft&#xA;Speed: 0.0 kts&#xA;Heading: 0.0&#xA;Mission: </description>
          <Point>
            <coordinates>0,0,26000</coordinates>
          </Point>
        </Placemark>
        <Placemark>
          <name>JEDDA75 (TEX2)</name>
          <description>Branch: &#xA;Altitude: 14975 ft&#xA;Speed: 265.2 kts&#xA;Heading: 36.6&#xA;Mission: </description>
          <Point>
            <coordinates>-100.303908,29.870728,14975</coordinates>
          </Point>
        </Placemark>
        <Placemark>
          <name>TIGER46 (TEX2)</name>
          <description>Branch: &#xA;Altitude: 3525 ft&#xA;Speed: 174.1 kts&#xA;Heading: 98.9&#xA;Mission: </description>
          <Point>
            <coordinates>-99.726017,29.219971,3525</coordinates>
          </Point>
        </Placemark>
        <Placemark>
          <name>BLZR222 (HAWK)</name>
          <description>Branch: &#xA;Altitude: 0 ft&#xA;Speed: 352.2 kts&#xA;Heading: 224.5&#xA;Mission: </description>
          <Point>
            <coordinates>-98.737036,28.098267,0</coordinates>
          </Point>
        </Placemark>
        <Placemark>
          <name>00000000 ()</name>
          <description>Branch: &#xA;Altitude: 70000 ft&#xA;Speed: 0.7 kts&#xA;Heading: 0.0&#xA;Mission: </description>
          <Point>
            <coordinates>0,0,70000</coordinates>
          </Point>
        </Placemark>
        <Placemark>
          <name> (K35R)</name>
          <description>Branch: &#xA;Altitude: 2875 ft&#xA;Speed: 0.0 kts&#xA;Heading: 0.0&#xA;Mission: </description>
          <Point>
            <coordinates>0,0,2875</coordinates>
          </Point>
        </Placemark>
        <Placemark>
          <name> (C17)</name>
          <description>Branch: &#xA;Altitude: 0 ft&#xA;Speed: 0.0 kts&#xA;Heading: 0.0&#xA;Mission: </description>
          <Point>
            <coordinates>0,0,0</coordinates>
          </Point>
        </Placemark>
        <Placemark>
          <name>CHEWY31 (TEX2)</name>
          <description>Branch: &#xA;Altitude: 0 ft&#xA;Speed: 0.0 kts&#xA;Heading: 0.0&#xA;Mission: </description>
          <Point>
            <coordinates>0,0,0</coordinates>
          </Point>
        </Placemark>
        <Placemark>
          <name> (C30J)</name>
          <description>Branch: &#xA;Altitude: 1425 ft&#xA;Speed: 0.0 kts&#xA;Heading: 0.0&#xA;Mission: </description>
          <Point>
            <coordinates>0,0,1425</coordinates>
          </Point>
        </Placemark>
        <Placemark>
          <name>TETON38 (C130)</name>
          <description>Branch: &#xA;Altitude: 21000 ft&#xA;Speed: 273.9 kts&#xA;Heading: 130.3&#xA;Mission: </description>
          <Point>
            <coordinates>-103.768921,40.539001,21000</coordinates>
          </Point>
        </Placemark>
        <Placemark>
          <name>BGST343 (BE20)</name>
          <description>Branch: &#xA;Altitude: 3950 ft&#xA;Speed: 164.3 kts&#xA;Heading: 3.5&#xA;Mission: </description>
          <Point>
            <coordinates>-99.381132,27.611023,3950</coordinates>
          </Point>
        </Placemark>
        <Placemark>
          <name>SPAR320 (LJ35)</name>
          <description>Branch: &#xA;Altitude: 24725 ft&#xA;Speed: 470.5 kts&#xA;Heading: 73.5&#xA;Mission: </description>
          <Point>
            <coordinates>-86.634644,39.357543,24725</coordinates>
          </Point>
        </Placemark>
        <Placemark>
          <name>QUESO82 (C560)</name>
          <description>Branch: &#xA;Altitude: 36000 ft&#xA;Speed: 352.7 kts&#xA;Heading: 266.4&#xA;Mission: </description>
          <Point>
            <coordinates>-85.967159,33.722953,36000</coordinates>
          </Point>
        </Placemark>
        <Placemark>
          <name>TEST1234 (TWR)</name>
          <description>Branch: &#xA;Altitude: 0 ft&#xA;Speed: 0.0 kts&#xA;Heading: 0.0&#xA;Mission: </description>
          <Point>
            <coordinates>0,0,0</coordinates>
          </Point>
        </Placemark>
        <Placemark>
          <name>CHAOS82 (B762)</name>
          <description>Branch: &#xA;Altitude: 11700 ft&#xA;Speed: 0.0 kts&#xA;Heading: 0.0&#xA;Mission: </description>
          <Point>
            <coordinates>0,0,11700</coordinates>
          </Point>
        </Placemark>
        <Placemark>
          <name>BOBCT41 (HAWK)</name>
          <description>Branch: &#xA;Altitude: 15925 ft&#xA;Speed: 407.6 kts&#xA;Heading: 144.8&#xA;Mission: </description>
          <Point>
            <coordinates>-88.69389,33.084595,15925</coordinates>
          </Point>
        </Placemark>
        <Placemark>
          <name>BAT31 (TEX2)</name>
          <description>Branch: &#xA;Altitude: 4975 ft&#xA;Speed: 250.7 kts&#xA;Heading: 291.0&#xA;Mission: </description>
          <Point>
            <coordinates>-100.32155,29.446106,4975</coordinates>
          </Point>
        </Placemark>
        <Placemark>
          <name>WIRE31 (TEX2)</name>
          <description>Branch: &#xA;Altitude: 9850 ft&#xA;Speed: 229.9 kts&#xA;Heading: 313.8&#xA;Mission: </description>
          <Point>
            <coordinates>-97.603569,36.255569,9850</coordinates>
          </Point>
        </Placemark>
        <Placemark>
          <name>R00257 (BE20)</name>
          <description>Branch: &#xA;Altitude: 25000 ft&#xA;Speed: 282.8 kts&#xA;Heading: 44.7&#xA;Mission: </description>
          <Point>
            <coordinates>-90.919488,34.237015,25000</coordinates>
          </Point>
        </Placemark>
        <Placemark>
          <name>CHEWY10 (TEX2)</name>
          <description>Branch: &#xA;Altitude: 950 ft&#xA;Speed: 232.8 kts&#xA;Heading: 43.1&#xA;Mission: </description>
          <Point>
            <coordinates>-88.428516,30.859059,950</coordinates>
          </Point>
        </Placemark>
        <Placemark>
          <name>VV8E626 (A119)</name>
          <description>Branch: &#xA;Altitude: 275 ft&#xA;Speed: 59.0 kts&#xA;Heading: 188.8&#xA;Mission: </description>
          <Point>
            <coordinates>-87.135208,30.617361,275</coordinates>
          </Point>
        </Placemark>
        <Placemark>
          <name> (H53S)</name>
          <description>Branch: &#xA;Altitude: 475 ft&#xA;Speed: 0.0 kts&#xA;Heading: 0.0&#xA;Mission: </description>
          <Point>
            <coordinates>0,0,475</coordinates>
          </Point>
        </Placemark>
        <Placemark>
          <name>COLT10 (G120)</name>
          <description>Branch: &#xA;Altitude: 2000 ft&#xA;Speed: 94.9 kts&#xA;Heading: 41.6&#xA;Mission: </description>
          <Point>
            <coordinates>-98.26068,49.876719,2000</coordinates>
          </Point>
        </Placemark>
        <Placemark>
          <name>JUMP91 (T38)</name>
          <description>Branch: &#xA;Altitude: 0 ft&#xA;Speed: 83.0 kts&#xA;Heading: 135.0&#xA;Mission: </description>
          <Point>
            <coordinates>-100.781654,29.361835,0</coordinates>
          </Point>
        </Placemark>
        <Placemark>
          <name>SPIKE24 (TEX2)</name>
          <description>Branch: &#xA;Altitude: 6800 ft&#xA;Speed: 277.0 kts&#xA;Heading: 72.3&#xA;Mission: </description>
          <Point>
            <coordinates>-88.539771,33.085094,6800</coordinates>
          </Point>
        </Placemark>
        <Placemark>
          <name>TESLA99 (H60)</name>
          <description>Branch: &#xA;Altitude: 650 ft&#xA;Speed: 106.0 kts&#xA;Heading: 357.2&#xA;Mission: </description>
          <Point>
            <coordinates>-86.1026,31.290413,650</coordinates>
          </Point>
        </Placemark>
        <Placemark>
          <name> (C30J)</name>
          <description>Branch: &#xA;Altitude: 9800 ft&#xA;Speed: 201.0 kts&#xA;Heading: 330.0&#xA;Mission: </description>
          <Point>
            <coordinates>-82.354646,28.524792,9800</coordinates>
          </Point>
        </Placemark>
        <Placemark>
          <name> (B350)</name>
          <description>Branch: &#xA;Altitude: 0 ft&#xA;Speed: 0.0 kts&#xA;Heading: 0.0&#xA;Mission: </description>
          <Point>
            <coordinates>0,0,0</coordinates>
          </Point>
        </Placemark>
        <Placemark>
          <name> (TEX2)</name>
          <description>Branch: &#xA;Altitude: 10525 ft&#xA;Speed: 0.0 kts&#xA;Heading: 0.0&#xA;Mission: </description>
          <Point>
            <coordinates>0,0,10525</coordinates>
          </Point>
        </Placemark>
        <Placemark>
          <name>1200 (T34T)</name>
          <description>Branch: &#xA;Altitude: 8100 ft&#xA;Speed: 96.2 kts&#xA;Heading: 307.8&#xA;Mission: </description>
          <Point>
            <coordinates>-116.236921,33.258734,8100</coordinates>
          </Point>
        </Placemark>
        <Placemark>
          <name>VADER02 (TEX2)</name>
          <description>Branch: &#xA;Altitude: 9425 ft&#xA;Speed: 280.7 kts&#xA;Heading: 339.6&#xA;Mission: </description>
          <Point>
            <coordinates>-98.079414,36.033417,9425</coordinates>
          </Point>
        </Placemark>
        <Placemark>
          <name>KATT21 (TEX2)</name>
          <description>Branch: &#xA;Altitude: 4900 ft&#xA;Speed: 211.0 kts&#xA;Heading: 289.4&#xA;Mission: </description>
          <Point>
            <coordinates>-87.726544,30.480264,4900</coordinates>
          </Point>
        </Placemark>
        <Placemark>
          <name> (A332)</name>
          <description>Branch: &#xA;Altitude: 41000 ft&#xA;Speed: 561.6 kts&#xA;Heading: 108.7&#xA;Mission: </description>
          <Point>
            <coordinates>-83.175448,47.611674,41000</coordinates>
          </Point>
        </Placemark>
        <Placemark>
          <name>TEXGLD (TEX2)</name>
          <description>Branch: &#xA;Altitude: 3075 ft&#xA;Speed: 190.0 kts&#xA;Heading: 82.0&#xA;Mission: </description>
          <Point>
            <coordinates>174.087799,-40.572834,3075</coordinates>
          </Point>
        </Placemark>
        <Placemark>
          <name> (K35R)</name>
          <description>Branch: &#xA;Altitude: 15250 ft&#xA;Speed: 338.0 kts&#xA;Heading: 291.8&#xA;Mission: </description>
          <Point>
            <coordinates>0,0,15250</coordinates>
          </Point>
        </Placemark>
        <Placemark>
          <name>G26689 (H60)</name>
          <description>Branch: &#xA;Altitude: 2200 ft&#xA;Speed: 125.0 kts&#xA;Heading: 0.9&#xA;Mission: </description>
          <Point>
            <coordinates>-85.126476,33.676494,2200</coordinates>
          </Point>
        </Placemark>
        <Placemark>
          <name>SGE61 (R66)</name>
          <description>Branch: &#xA;Altitude: 2175 ft&#xA;Speed: 103.2 kts&#xA;Heading: 176.1&#xA;Mission: </description>
          <Point>
            <coordinates>-84.869385,30.790069,2175</coordinates>
          </Point>
        </Placemark>
        <Placemark>
          <name>R13426 (H64)</name>
          <description>Branch: &#xA;Altitude: 0 ft&#xA;Speed: 87.6 kts&#xA;Heading: 196.6&#xA;Mission: </description>
          <Point>
            <coordinates>-87.460113,36.539596,0</coordinates>
          </Point>
        </Placemark>
        <Placemark>
          <name>MESSY77 (EC45)</name>
          <description>Branch: &#xA;Altitude: 850 ft&#xA;Speed: 99.5 kts&#xA;Heading: 247.6&#xA;Mission: </description>
          <Point>
            <coordinates>-85.579888,31.236328,850</coordinates>
          </Point>
        </Placemark>
        <Placemark>
          <name>STEWY78 (TEX2)</name>
          <description>Branch: &#xA;Altitude: 9825 ft&#xA;Speed: 173.6 kts&#xA;Heading: 80.0&#xA;Mission: </description>
          <Point>
            <coordinates>-97.73607,36.91539,9825</coordinates>
          </Point>
        </Placemark>
        <Placemark>
          <name>BGST301 (BE20)</name>
          <description>Branch: &#xA;Altitude: 6900 ft&#xA;Speed: 235.5 kts&#xA;Heading: 226.2&#xA;Mission: </description>
          <Point>
            <coordinates>-97.372249,28.147018,6900</coordinates>
          </Point>
        </Placemark>
        <Placemark>
          <name> (A119)</name>
          <description>Branch: &#xA;Altitude: 825 ft&#xA;Speed: 98.0 kts&#xA;Heading: 231.5&#xA;Mission: </description>
          <Point>
            <coordinates>-87.015114,30.679688,825</coordinates>
          </Point>
        </Placemark>
        <Placemark>
          <name>GAF305 (C30J)</name>
          <description>Branch: &#xA;Altitude: 9275 ft&#xA;Speed: 189.9 kts&#xA;Heading: 5.4&#xA;Mission: </description>
          <Point>
            <coordinates>-64.970921,45.095352,9275</coordinates>
          </Point>
        </Placemark>
        <Placemark>
          <name> (K35R)</name>
          <description>Branch: &#xA;Altitude: 33000 ft&#xA;Speed: 0.0 kts&#xA;Heading: 0.0&#xA;Mission: </description>
          <Point>
            <coordinates>0,0,33000</coordinates>
          </Point>
        </Placemark>
        <Placemark>
          <name>TEST1234 ()</name>
          <description>Branch: &#xA;Altitude: 0 ft&#xA;Speed: 0.0 kts&#xA;Heading: 0.0&#xA;Mission: </description>
          <Point>
            <coordinates>0,0,0</coordinates>
          </Point>
        </Placemark>
        <Placemark>
          <name>PAT393 (BE20)</name>
          <description>Branch: &#xA;Altitude: 15850 ft&#xA;Speed: 216.1 kts&#xA;Heading: 264.2&#xA;Mission: </description>
          <Point>
            <coordinates>-119.531822,35.335876,15850</coordinates>
          </Point>
        </Placemark>
        <Placemark>
          <name>TEXN763 (TEX2)</name>
          <description>Branch: &#xA;Altitude: 23950 ft&#xA;Speed: 304.9 kts&#xA;Heading: 139.3&#xA;Mission: </description>
          <Point>
            <coordinates>-99.170204,29.478653,23950</coordinates>
          </Point>
        </Placemark>
        <Placemark>
          <name>@@@@@@@@ (H60)</name>
          <description>Branch: &#xA;Altitude: 2100 ft&#xA;Speed: 116.3 kts&#xA;Heading: 144.8&#xA;Mission: </description>
          <Point>
            <coordinates>-89.940425,43.23013,2100</coordinates>
          </Point>
        </Placemark>
        <Placemark>
          <name>BELLS50 (EC45)</name>
          <description>Branch: &#xA;Altitude: 2375 ft&#xA;Speed: 120.2 kts&#xA;Heading: 266.7&#xA;Mission: </description>
          <Point>
            <coordinates>-85.514401,31.464386,2375</coordinates>
          </Point>
        </Placemark>
        <Placemark>
          <name>TACO19 (C30J)</name>
          <description>Branch: &#xA;Altitude: 2775 ft&#xA;Speed: 213.4 kts&#xA;Heading: 176.5&#xA;Mission: </description>
          <Point>
            <coordinates>-80.746765,28.536056,2775</coordinates>
          </Point>
        </Placemark>
        <Placemark>
          <name>RCH284 (C17)</name>
          <description>Branch: &#xA;Altitude: 10225 ft&#xA;Speed: 0.0 kts&#xA;Heading: 0.0&#xA;Mission: </description>
          <Point>
            <coordinates>0,0,10225</coordinates>
          </Point>
        </Placemark>
        <Placemark>
          <name>R08478 (H47)</name>
          <description>Branch: &#xA;Altitude: 3450 ft&#xA;Speed: 125.2 kts&#xA;Heading: 143.8&#xA;Mission: </description>
          <Point>
            <coordinates>-116.773077,32.665329,3450</coordinates>
          </Point>
        </Placemark>
        <Placemark>
          <name>DRAGN77 (TEX2)</name>
          <description>Branch: &#xA;Altitude: 14250 ft&#xA;Speed: 226.6 kts&#xA;Heading: 203.4&#xA;Mission: </description>
          <Point>
            <coordinates>-98.199291,36.651398,14250</coordinates>
          </Point>
        </Placemark>
        <Placemark>
          <name>HAWK240 ()</name>
          <description>Branch: &#xA;Altitude: 2100 ft&#xA;Speed: 278.0 kts&#xA;Heading: 335.9&#xA;Mission: </description>
          <Point>
            <coordinates>-97.761269,27.559158,2100</coordinates>
          </Point>
        </Placemark>
        <Placemark>
          <name>FAC1222 (B737)</name>
          <description>Branch: &#xA;Altitude: 37000 ft&#xA;Speed: 454.8 kts&#xA;Heading: 143.6&#xA;Mission: </description>
          <Point>
            <coordinates>-89.855239,29.674584,37000</coordinates>
          </Point>
        </Placemark>
        <Placemark>
          <name>JIMMY45 (TEX2)</name>
          <description>Branch: &#xA;Altitude: 10675 ft&#xA;Speed: 224.5 kts&#xA;Heading: 230.4&#xA;Mission: </description>
          <Point>
            <coordinates>-88.251691,33.2677,10675</coordinates>
          </Point>
        </Placemark>
        <Placemark>
          <name>RN065 (TEX2)</name>
          <description>Branch: &#xA;Altitude: 7775 ft&#xA;Speed: 232.3 kts&#xA;Heading: 6.2&#xA;Mission: </description>
          <Point>
            <coordinates>-86.543317,31.176965,7775</coordinates>
          </Point>
        </Placemark>
        <Placemark>
          <name>DEALS98 (EC45)</name>
          <description>Branch: &#xA;Altitude: 875 ft&#xA;Speed: 92.0 kts&#xA;Heading: 301.6&#xA;Mission: </description>
          <Point>
            <coordinates>-85.997963,31.381348,875</coordinates>
          </Point>
        </Placemark>
        <Placemark>
          <name>BELLS33 (EC45)</name>
          <description>Branch: &#xA;Altitude: 1150 ft&#xA;Speed: 94.4 kts&#xA;Heading: 245.6&#xA;Mission: </description>
          <Point>
            <coordinates>-85.746698,31.076319,1150</coordinates>
          </Point>
        </Placemark>
        <Placemark>
          <name>C6596 (AS65)</name>
          <description>Branch: &#xA;Altitude: 8950 ft&#xA;Speed: 154.7 kts&#xA;Heading: 100.8&#xA;Mission: </description>
          <Point>
            <coordinates>-103.250656,35.012217,8950</coordinates>
          </Point>
        </Placemark>
        <Placemark>
          <name>VV8E734 (A119)</name>
          <description>Branch: &#xA;Altitude: 2800 ft&#xA;Speed: 116.8 kts&#xA;Heading: 35.6&#xA;Mission: </description>
          <Point>
            <coordinates>-85.739337,31.325792,2800</coordinates>
          </Point>
        </Placemark>
        <Placemark>
          <name>MORPH15 (EC45)</name>
          <description>Branch: &#xA;Altitude: 750 ft&#xA;Speed: 83.1 kts&#xA;Heading: 219.6&#xA;Mission: </description>
          <Point>
            <coordinates>-85.642036,31.214767,750</coordinates>
          </Point>
        </Placemark>
        <Placemark>
          <name>GRIT20 (H47)</name>
          <description>Branch: &#xA;Altitude: 1625 ft&#xA;Speed: 82.0 kts&#xA;Heading: 358.6&#xA;Mission: </description>
          <Point>
            <coordinates>10.655293,49.315579,1625</coordinates>
          </Point>
        </Placemark>
        <Placemark>
          <name>CEF527 (A319)</name>
          <description>Branch: &#xA;Altitude: 37000 ft&#xA;Speed: 442.3 kts&#xA;Heading: 164.4&#xA;Mission: </description>
          <Point>
            <coordinates>23.773103,42.481934,37000</coordinates>
          </Point>
        </Placemark>
        <Placemark>
          <name>TXLU03 (A139)</name>
          <description>Branch: &#xA;Altitude: 0 ft&#xA;Speed: 0.0 kts&#xA;Heading: 0.0&#xA;Mission: </description>
          <Point>
            <coordinates>0,0,0</coordinates>
          </Point>
        </Placemark>
        <Placemark>
          <name> (B762)</name>
          <description>Branch: &#xA;Altitude: 0 ft&#xA;Speed: 0.0 kts&#xA;Heading: 0.0&#xA;Mission: </description>
          <Point>
            <coordinates>0,0,0</coordinates>
          </Point>
        </Placemark>
        <Placemark>
          <name> (B737)</name>
          <description>Branch: &#xA;Altitude: 0 ft&#xA;Speed: 0.0 kts&#xA;Heading: 0.0&#xA;Mission: </description>
          <Point>
            <coordinates>0,0,0</coordinates>
          </Point>
        </Placemark>
        <Placemark>
          <name>VKIN14 (TEX2)</name>
          <description>Branch: &#xA;Altitude: 11750 ft&#xA;Speed: 198.6 kts&#xA;Heading: 256.3&#xA;Mission: </description>
          <Point>
            <coordinates>-105.393364,49.915421,11750</coordinates>
          </Point>
        </Placemark>
        <Placemark>
          <name>HOOK43 (TEX2)</name>
          <description>Branch: &#xA;Altitude: 4800 ft&#xA;Speed: 199.0 kts&#xA;Heading: 17.2&#xA;Mission: </description>
          <Point>
            <coordinates>-97.042003,35.26886,4800</coordinates>
          </Point>
        </Placemark>
        <Placemark>
          <name>FFAB123 (H60)</name>
          <description>Branch: &#xA;Altitude: 650 ft&#xA;Speed: 88.7 kts&#xA;Heading: 320.0&#xA;Mission: </description>
          <Point>
            <coordinates>-81.396222,30.266729,650</coordinates>
          </Point>
        </Placemark>
        <Placemark>
          <name>ZORRO21 (AT8T)</name>
          <description>Branch: &#xA;Altitude: 3375 ft&#xA;Speed: 137.4 kts&#xA;Heading: 94.6&#xA;Mission: </description>
          <Point>
            <coordinates>-97.105525,35.344926,3375</coordinates>
          </Point>
        </Placemark>
        <Placemark>
          <name> (H47)</name>
          <description>Branch: &#xA;Altitude: -200 ft&#xA;Speed: 0.0 kts&#xA;Heading: 0.0&#xA;Mission: </description>
          <Point>
            <coordinates>0,0,-200</coordinates>
          </Point>
        </Placemark>
        <Placemark>
          <name>SMALL61 (TEX2)</name>
          <description>Branch: &#xA;Altitude: 1650 ft&#xA;Speed: 151.0 kts&#xA;Heading: 91.1&#xA;Mission: </description>
          <Point>
            <coordinates>-100.865848,29.413376,1650</coordinates>
          </Point>
        </Placemark>
        <Placemark>
          <name>R20817 (H60)</name>
          <description>Branch: &#xA;Altitude: 1925 ft&#xA;Speed: 126.5 kts&#xA;Heading: 251.6&#xA;Mission: </description>
          <Point>
            <coordinates>-96.493256,32.787114,1925</coordinates>
          </Point>
        </Placemark>
        <Placemark>
          <name>TALON48 (HAWK)</name>
          <description>Branch: &#xA;Altitude: 11850 ft&#xA;Speed: 380.3 kts&#xA;Heading: 321.8&#xA;Mission: </description>
          <Point>
            <coordinates>-88.955626,32.791583,11850</coordinates>
          </Point>
        </Placemark>
        <Placemark>
          <name>PAT423 (BE20)</name>
          <description>Branch: &#xA;Altitude: 5000 ft&#xA;Speed: 233.2 kts&#xA;Heading: 294.0&#xA;Mission: </description>
          <Point>
            <coordinates>-85.652758,37.789757,5000</coordinates>
          </Point>
        </Placemark>
        <Placemark>
          <name>TRIPLE41 (EUFI)</name>
          <description>Branch: &#xA;Altitude: 975 ft&#xA;Speed: 323.0 kts&#xA;Heading: 238.0&#xA;Mission: </description>
          <Point>
            <coordinates>-0.167949,53.094265,975</coordinates>
          </Point>
        </Placemark>
        <Placemark>
          <name>TEST1234 (TWR)</name>
          <description>Branch: &#xA;Altitude: 0 ft&#xA;Speed: 0.0 kts&#xA;Heading: 0.0&#xA;Mission: </description>
          <Point>
            <coordinates>0,0,0</coordinates>
          </Point>
        </Placemark>
        <Placemark>
          <name> ()</name>
          <description>Branch: &#xA;Altitude: 0 ft&#xA;Speed: 0.0 kts&#xA;Heading: 0.0&#xA;Mission: </description>
          <Point>
            <coordinates>0,0,0</coordinates>
          </Point>
        </Placemark>
        <Placemark>
          <name>RNGR44 (B06)</name>
          <description>Branch: &#xA;Altitude: 1025 ft&#xA;Speed: 70.8 kts&#xA;Heading: 256.9&#xA;Mission: </description>
          <Point>
            <coordinates>-98.205775,49.937027,1025</coordinates>
          </Point>
        </Placemark>
        <Placemark>
          <name>CFC3360 (A310)</name>
          <description>Branch: &#xA;Altitude: 0 ft&#xA;Speed: 0.0 kts&#xA;Heading: 0.0&#xA;Mission: </description>
          <Point>
            <coordinates>-147.857437,64.821476,0</coordinates>
          </Point>
        </Placemark>
        <Placemark>
          <name>TIGER34 (TEX2)</name>
          <description>Branch: &#xA;Altitude: 2300 ft&#xA;Speed: 207.9 kts&#xA;Heading: 282.5&#xA;Mission: </description>
          <Point>
            <coordinates>-100.827607,29.306534,2300</coordinates>
          </Point>
        </Placemark>
        <Placemark>
          <name>CHATAH1 (T38)</name>
          <description>Branch: &#xA;Altitude: 10875 ft&#xA;Speed: 422.3 kts&#xA;Heading: 103.3&#xA;Mission: </description>
          <Point>
            <coordinates>-97.923728,29.526455,10875</coordinates>
          </Point>
        </Placemark>
        <Placemark>
          <name>BOMR822 (TEX2)</name>
          <description>Branch: &#xA;Altitude: 1275 ft&#xA;Speed: 109.0 kts&#xA;Heading: 139.0&#xA;Mission: </description>
          <Point>
            <coordinates>-97.568207,27.827206,1275</coordinates>
          </Point>
        </Placemark>
        <Placemark>
          <name>FORGE78 (GLF5)</name>
          <description>Branch: &#xA;Altitude: 19125 ft&#xA;Speed: 402.2 kts&#xA;Heading: 28.4&#xA;Mission: </description>
          <Point>
            <coordinates>-76.314843,42.005539,19125</coordinates>
          </Point>
        </Placemark>
        <Placemark>
          <name>BLACK34 (H60)</name>
          <description>Branch: &#xA;Altitude: 5800 ft&#xA;Speed: 90.0 kts&#xA;Heading: 169.9&#xA;Mission: </description>
          <Point>
            <coordinates>-8.134583,40.937805,5800</coordinates>
          </Point>
        </Placemark>
        <Placemark>
          <name>SYS61 (EC35)</name>
          <description>Branch: &#xA;Altitude: 0 ft&#xA;Speed: 13.0 kts&#xA;Heading: 134.1&#xA;Mission: </description>
          <Point>
            <coordinates>-2.667088,52.796524,0</coordinates>
          </Point>
        </Placemark>
        <Placemark>
          <name>BAF72 (FA7X)</name>
          <description>Branch: &#xA;Altitude: 40000 ft&#xA;Speed: 471.3 kts&#xA;Heading: 47.4&#xA;Mission: </description>
          <Point>
            <coordinates>-2.243535,47.031028,40000</coordinates>
          </Point>
        </Placemark>
        <Placemark>
          <name> (P8)</name>
          <description>Branch: &#xA;Altitude: 35000 ft&#xA;Speed: 456.0 kts&#xA;Heading: 177.0&#xA;Mission: </description>
          <Point>
            <coordinates>-121.910545,44.2115,35000</coordinates>
          </Point>
        </Placemark>
        <Placemark>
          <name>DALLAS1 (T38)</name>
          <description>Branch: &#xA;Altitude: 17000 ft&#xA;Speed: 508.0 kts&#xA;Heading: 90.7&#xA;Mission: </description>
          <Point>
            <coordinates>-87.988101,33.734344,17000</coordinates>
          </Point>
        </Placemark>
        <Placemark>
          <name>CHEWY41 (TEX2)</name>
          <description>Branch: &#xA;Altitude: 7800 ft&#xA;Speed: 242.3 kts&#xA;Heading: 267.4&#xA;Mission: </description>
          <Point>
            <coordinates>-87.898595,30.753159,7800</coordinates>
          </Point>
        </Placemark>
        <Placemark>
          <name>RECON21 (LYNX)</name>
          <description>Branch: &#xA;Altitude: 600 ft&#xA;Speed: 0.0 kts&#xA;Heading: 0.0&#xA;Mission: </description>
          <Point>
            <coordinates>0,0,600</coordinates>
          </Point>
        </Placemark>
        <Placemark>
          <name> (EC45)</name>
          <description>Branch: &#xA;Altitude: 0 ft&#xA;Speed: 0.0 kts&#xA;Heading: 0.0&#xA;Mission: </description>
          <Point>
            <coordinates>0,0,0</coordinates>
          </Point>
        </Placemark>
        <Placemark>
          <name>TETON34 (C130)</name>
          <description>Branch: &#xA;Altitude: 19000 ft&#xA;Speed: 295.0 kts&#xA;Heading: 171.0&#xA;Mission: </description>
          <Point>
            <coordinates>-103.231402,40.30658,19000</coordinates>
          </Point>
        </Placemark>
        <Placemark>
          <name>R21200 (H60)</name>
          <description>Branch: &#xA;Altitude: 0 ft&#xA;Speed: 0.0 kts&#xA;Heading: 0.0&#xA;Mission: </description>
          <Point>
            <coordinates>-147.602939,64.833355,0</coordinates>
          </Point>
        </Placemark>
        <Placemark>
          <name>STMPD19 (B350)</name>
          <description>Branch: &#xA;Altitude: 14075 ft&#xA;Speed: 235.9 kts&#xA;Heading: 299.2&#xA;Mission: </description>
          <Point>
            <coordinates>-115.993927,32.861481,14075</coordinates>
          </Point>
        </Placemark>
        <Placemark>
          <name>BOXER19 (TEX2)</name>
          <description>Branch: &#xA;Altitude: 5525 ft&#xA;Speed: 204.7 kts&#xA;Heading: 147.2&#xA;Mission: </description>
          <Point>
            <coordinates>-100.11038,28.84259,5525</coordinates>
          </Point>
        </Placemark>
        <Placemark>
          <name>TALON47 ()</name>
          <description>Branch: &#xA;Altitude: 9825 ft&#xA;Speed: 312.7 kts&#xA;Heading: 308.1&#xA;Mission: </description>
          <Point>
            <coordinates>-88.733661,32.575287,9825</coordinates>
          </Point>
        </Placemark>
        <Placemark>
          <name>TEST1234 ()</name>
          <description>Branch: &#xA;Altitude: 0 ft&#xA;Speed: 0.0 kts&#xA;Heading: 0.0&#xA;Mission: </description>
          <Point>
            <coordinates>0,0,0</coordinates>
          </Point>
        </Placemark>
        <Placemark>
          <name>TEST1234 (TWR)</name>
          <description>Branch: &#xA;Altitude: 0 ft&#xA;Speed: 0.0 kts&#xA;Heading: 0.0&#xA;Mission: </description>
          <Point>
            <coordinates>0,0,0</coordinates>
          </Point>
        </Placemark>
        <Placemark>
          <name>SKULL82 (H60)</name>
          <description>Branch: &#xA;Altitude: 0 ft&#xA;Speed: 57.0 kts&#xA;Heading: 182.0&#xA;Mission: </description>
          <Point>
            <coordinates>-106.565781,34.960824,0</coordinates>
          </Point>
        </Placemark>
        <Placemark>
          <name>RUDY36 (V22)</name>
          <description>Branch: &#xA;Altitude: 1425 ft&#xA;Speed: 201.7 kts&#xA;Heading: 334.4&#xA;Mission: </description>
          <Point>
            <coordinates>-117.360297,32.711746,1425</coordinates>
          </Point>
        </Placemark>
        <Placemark>
          <name>PISTOL1 (T38)</name>
          <description>Branch: &#xA;Altitude: 12900 ft&#xA;Speed: 215.7 kts&#xA;Heading: 274.5&#xA;Mission: </description>
          <Point>
            <coordinates>-88.654903,34.229141,12900</coordinates>
          </Point>
        </Placemark>
        <Placemark>
          <name>TRIPLE41 (EUFI)</name>
          <description>Branch: &#xA;Altitude: 0 ft&#xA;Speed: 0.0 kts&#xA;Heading: 0.0&#xA;Mission: </description>
          <Point>
            <coordinates>0,0,0</coordinates>
          </Point>
        </Placemark>
        <Placemark>
          <name>TEST1234 ()</name>
          <description>Branch: &#xA;Altitude: 0 ft&#xA;Speed: 0.0 kts&#xA;Heading: 0.0&#xA;Mission: </description>
          <Point>
            <coordinates>0,0,0</coordinates>
          </Point>
        </Placemark>
        <Placemark>
          <name>SAM257 (B752)</name>
          <description>Branch: &#xA;Altitude: 7375 ft&#xA;Speed: 243.0 kts&#xA;Heading: 337.0&#xA;Mission: </description>
          <Point>
            <coordinates>-76.743306,38.345009,7375</coordinates>
          </Point>
        </Placemark>
        <Placemark>
          <name>R08461 (H47)</name>
          <description>Branch: &#xA;Altitude: 4450 ft&#xA;Speed: 135.5 kts&#xA;Heading: 26.8&#xA;Mission: </description>
          <Point>
            <coordinates>-75.670187,44.181198,4450</coordinates>
          </Point>
        </Placemark>
        <Placemark>
          <name> ()</name>
          <description>Branch: &#xA;Altitude: 0 ft&#xA;Speed: 0.0 kts&#xA;Heading: 0.0&#xA;Mission: </description>
          <Point>
            <coordinates>0,0,0</coordinates>
          </Point>
        </Placemark>
        <Placemark>
          <name>RCH1825 (C17)</name>
          <description>Branch: &#xA;Altitude: 34000 ft&#xA;Speed: 454.3 kts&#xA;Heading: 246.9&#xA;Mission: </description>
          <Point>
            <coordinates>-171.832764,59.561234,34000</coordinates>
          </Point>
        </Placemark>
        <Placemark>
          <name> (K35R)</name>
          <description>Branch: &#xA;Altitude: 34000 ft&#xA;Speed: 397.0 kts&#xA;Heading: 321.0&#xA;Mission: </description>
          <Point>
            <coordinates>-114.161408,51.062109,34000</coordinates>
          </Point>
        </Placemark>
        <Placemark>
          <name>SHARK51 (SR20)</name>
          <description>Branch: &#xA;Altitude: 0 ft&#xA;Speed: 0.0 kts&#xA;Heading: 0.0&#xA;Mission: </description>
          <Point>
            <coordinates>-104.81772,38.979115,0</coordinates>
          </Point>
        </Placemark>
        <Placemark>
          <name>VANDY10 (BE40)</name>
          <description>Branch: &#xA;Altitude: 23000 ft&#xA;Speed: 378.8 kts&#xA;Heading: 26.5&#xA;Mission: </description>
          <Point>
            <coordinates>-98.52602,34.050681,23000</coordinates>
          </Point>
        </Placemark>
        <Placemark>
          <name>DUKE58 (C560)</name>
          <description>Branch: &#xA;Altitude: 0 ft&#xA;Speed: 22.5 kts&#xA;Heading: 0.0&#xA;Mission: </description>
          <Point>
            <coordinates>24.828896,59.413353,0</coordinates>
          </Point>
        </Placemark>
        <Placemark>
          <name> (P3)</name>
          <description>Branch: &#xA;Altitude: 11100 ft&#xA;Speed: 0.0 kts&#xA;Heading: 0.0&#xA;Mission: </description>
          <Point>
            <coordinates>0,0,11100</coordinates>
          </Point>
        </Placemark>
        <Placemark>
          <name> ()</name>
          <description>Branch: &#xA;Altitude: 0 ft&#xA;Speed: 0.0 kts&#xA;Heading: 0.0&#xA;Mission: </description>
          <Point>
            <coordinates>0,0,0</coordinates>
          </Point>
        </Placemark>
        <Placemark>
          <name>JOLLY92 (H60)</name>
          <description>Branch: &#xA;Altitude: 350 ft&#xA;Speed: 90.1 kts&#xA;Heading: 139.9&#xA;Mission: </description>
          <Point>
            <coordinates>-122.04294,37.43056,350</coordinates>
          </Point>
        </Placemark>
        <Placemark>
          <name>DEVIL44 (TEX2)</name>
          <description>Branch: &#xA;Altitude: 12975 ft&#xA;Speed: 270.7 kts&#xA;Heading: 138.9&#xA;Mission: </description>
          <Point>
            <coordinates>-100.421272,28.986099,12975</coordinates>
          </Point>
        </Placemark>
        <Placemark>
          <name>WING23 (C560)</name>
          <description>Branch: &#xA;Altitude: 39000 ft&#xA;Speed: 490.0 kts&#xA;Heading: 90.6&#xA;Mission: </description>
          <Point>
            <coordinates>-87.935303,39.838288,39000</coordinates>
          </Point>
        </Placemark>
        <Placemark>
          <name> ()</name>
          <description>Branch: &#xA;Altitude: 28000 ft&#xA;Speed: 374.0 kts&#xA;Heading: 179.0&#xA;Mission: </description>
          <Point>
            <coordinates>-80.023155,34.26903,28000</coordinates>
          </Point>
        </Placemark>
        <Placemark>
          <name>TRIPLE42 (EUFI)</name>
          <description>Branch: &#xA;Altitude: 950 ft&#xA;Speed: 302.0 kts&#xA;Heading: 94.0&#xA;Mission: </description>
          <Point>
            <coordinates>-0.155289,53.076216,950</coordinates>
          </Point>
        </Placemark>
        <Placemark>
          <name>GRIT41 (H47)</name>
          <description>Branch: &#xA;Altitude: 2075 ft&#xA;Speed: 121.8 kts&#xA;Heading: 194.3&#xA;Mission: </description>
          <Point>
            <coordinates>10.622864,49.251068,2075</coordinates>
          </Point>
        </Placemark>
        <Placemark>
          <name>TUAF807 (A400)</name>
          <description>Branch: &#xA;Altitude: 24975 ft&#xA;Speed: 403.0 kts&#xA;Heading: 116.5&#xA;Mission: </description>
          <Point>
            <coordinates>34.556419,39.50647,24975</coordinates>
          </Point>
        </Placemark>
        <Placemark>
          <name> (H64)</name>
          <description>Branch: &#xA;Altitude: 1800 ft&#xA;Speed: 0.0 kts&#xA;Heading: 0.0&#xA;Mission: </description>
          <Point>
            <coordinates>0,0,1800</coordinates>
          </Point>
        </Placemark>
        <Placemark>
          <name>LEPD31 (TEX2)</name>
          <description>Branch: &#xA;Altitude: 1975 ft&#xA;Speed: 118.0 kts&#xA;Heading: 121.1&#xA;Mission: </description>
          <Point>
            <coordinates>-105.563363,50.333771,1975</coordinates>
          </Point>
        </Placemark>
        <Placemark>
          <name>RATLR04 (TEX2)</name>
          <description>Branch: &#xA;Altitude: 6050 ft&#xA;Speed: 234.1 kts&#xA;Heading: 298.9&#xA;Mission: </description>
          <Point>
            <coordinates>-100.620505,29.454575,6050</coordinates>
          </Point>
        </Placemark>
        <Placemark>
          <name>SF1 (T38)</name>
          <description>Branch: &#xA;Altitude: 1475 ft&#xA;Speed: 194.6 kts&#xA;Heading: 196.1&#xA;Mission: </description>
          <Point>
            <coordinates>-98.287389,29.564438,1475</coordinates>
          </Point>
        </Placemark>
        <Placemark>
          <name>EVIL16 (TEX2)</name>
          <description>Branch: &#xA;Altitude: 9850 ft&#xA;Speed: 280.4 kts&#xA;Heading: 146.2&#xA;Mission: </description>
          <Point>
            <coordinates>-97.708955,35.43007,9850</coordinates>
          </Point>
        </Placemark>
        <Placemark>
          <name>LOGIC510 (C295)</name>
          <description>Branch: &#xA;Altitude: 17575 ft&#xA;Speed: 124.3 kts&#xA;Heading: 328.5&#xA;Mission: </description>
          <Point>
            <coordinates>-97.453778,50.242434,17575</coordinates>
          </Point>
        </Placemark>
        <Placemark>
          <name>EVAL63 (H60)</name>
          <description>Branch: &#xA;Altitude: 2175 ft&#xA;Speed: 100.2 kts&#xA;Heading: 167.9&#xA;Mission: </description>
          <Point>
            <coordinates>-86.713574,34.807114,2175</coordinates>
          </Point>
        </Placemark>
        <Placemark>
          <name>SNBD16 ()</name>
          <description>Branch: &#xA;Altitude: 550 ft&#xA;Speed: 121.0 kts&#xA;Heading: 104.8&#xA;Mission: </description>
          <Point>
            <coordinates>-77.518318,44.137024,550</coordinates>
          </Point>
        </Placemark>
        <Placemark>
          <name>CTM1388 (CN35)</name>
          <description>Branch: &#xA;Altitude: 14900 ft&#xA;Speed: 0.0 kts&#xA;Heading: 0.0&#xA;Mission: </description>
          <Point>
            <coordinates>0,0,14900</coordinates>
          </Point>
        </Placemark>
        <Placemark>
          <name>VV7E642 (A119)</name>
          <description>Branch: &#xA;Altitude: 625 ft&#xA;Speed: 90.5 kts&#xA;Heading: 293.4&#xA;Mission: </description>
          <Point>
            <coordinates>-87.132294,30.636214,625</coordinates>
          </Point>
        </Placemark>
        <Placemark>
          <name>MCUE12 (B762)</name>
          <description>Branch: &#xA;Altitude: 27004 ft&#xA;Speed: 0.0 kts&#xA;Heading: 61.6&#xA;Mission: </description>
          <Point>
            <coordinates>0.672226,37.418404,27004</coordinates>
          </Point>
        </Placemark>
        <Placemark>
          <name>TUNAV01 (AT76)</name>
          <description>Branch: &#xA;Altitude: 5200 ft&#xA;Speed: 178.0 kts&#xA;Heading: 321.8&#xA;Mission: </description>
          <Point>
            <coordinates>15.876438,37.187697,5200</coordinates>
          </Point>
        </Placemark>
        <Placemark>
          <name>MSTG95 (BE9L)</name>
          <description>Branch: &#xA;Altitude: 975 ft&#xA;Speed: 107.5 kts&#xA;Heading: 314.2&#xA;Mission: </description>
          <Point>
            <coordinates>-98.261793,49.899158,975</coordinates>
          </Point>
        </Placemark>
        <Placemark>
          <name>R43532 (H64)</name>
          <description>Branch: &#xA;Altitude: 4300 ft&#xA;Speed: 109.0 kts&#xA;Heading: 212.5&#xA;Mission: </description>
          <Point>
            <coordinates>-106.285088,31.98848,4300</coordinates>
          </Point>
        </Placemark>
        <Placemark>
          <name>R40034 (H64)</name>
          <description>Branch: &#xA;Altitude: 1300 ft&#xA;Speed: 91.8 kts&#xA;Heading: 253.5&#xA;Mission: </description>
          <Point>
            <coordinates>-97.827979,31.090145,1300</coordinates>
          </Point>
        </Placemark>
        <Placemark>
          <name> (H60)</name>
          <description>Branch: &#xA;Altitude: 0 ft&#xA;Speed: 83.0 kts&#xA;Heading: 270.0&#xA;Mission: </description>
          <Point>
            <coordinates>-86.002266,31.358459,0</coordinates>
          </Point>
        </Placemark>
        <Placemark>
          <name>WING88 (BE20)</name>
          <description>Branch: &#xA;Altitude: 20050 ft&#xA;Speed: 304.4 kts&#xA;Heading: 58.3&#xA;Mission: </description>
          <Point>
            <coordinates>-80.064268,34.378143,20050</coordinates>
          </Point>
        </Placemark>
        <Placemark>
          <name>GAFTT07 ()</name>
          <description>Branch: &#xA;Altitude: 62700 ft&#xA;Speed: 0.0 kts&#xA;Heading: 0.0&#xA;Mission: </description>
          <Point>
            <coordinates>0,0,62700</coordinates>
          </Point>
        </Placemark>
        <Placemark>
          <name>TEST1234 ()</name>
          <description>Branch: &#xA;Altitude: 0 ft&#xA;Speed: 0.0 kts&#xA;Heading: 0.0&#xA;Mission: </description>
          <Point>
            <coordinates>0,0,0</coordinates>
          </Point>
        </Placemark>
        <Placemark>
          <name> (C30J)</name>
          <description>Branch: &#xA;Altitude: 7050 ft&#xA;Speed: 0.0 kts&#xA;Heading: 0.0&#xA;Mission: </description>
          <Point>
            <coordinates>0,0,7050</coordinates>
          </Point>
        </Placemark>
        <Placemark>
          <name>COVET15 (H64)</name>
          <description>Branch: &#xA;Altitude: 2100 ft&#xA;Speed: 110.9 kts&#xA;Heading: 26.8&#xA;Mission: </description>
          <Point>
            <coordinates>9.987006,49.980286,2100</coordinates>
          </Point>
        </Placemark>
        <Placemark>
          <name>C0VET03 (H64)</name>
          <description>Branch: &#xA;Altitude: 1900 ft&#xA;Speed: 42.8 kts&#xA;Heading: 79.2&#xA;Mission: </description>
          <Point>
            <coordinates>10.61899,49.305725,1900</coordinates>
          </Point>
        </Placemark>
        <Placemark>
          <name>MOBIL33 (K35R)</name>
          <description>Branch: &#xA;Altitude: 0 ft&#xA;Speed: 0.0 kts&#xA;Heading: 0.0&#xA;Mission: </description>
          <Point>
            <coordinates>0,0,0</coordinates>
          </Point>
        </Placemark>
        <Placemark>
          <name> ()</name>
          <description>Branch: &#xA;Altitude: 1700 ft&#xA;Speed: 0.0 kts&#xA;Heading: 0.0&#xA;Mission: </description>
          <Point>
            <coordinates>0,0,1700</coordinates>
          </Point>
        </Placemark>
        <Placemark>
          <name>N343TA (P28A)</name>
          <description>Branch: &#xA;Altitude: 2800 ft&#xA;Speed: 100.3 kts&#xA;Heading: 80.8&#xA;Mission: </description>
          <Point>
            <coordinates>-121.048889,38.956961,2800</coordinates>
          </Point>
        </Placemark>
        <Placemark>
          <name>DRAGN39 (TEX2)</name>
          <description>Branch: &#xA;Altitude: 3675 ft&#xA;Speed: 190.1 kts&#xA;Heading: 190.3&#xA;Mission: </description>
          <Point>
            <coordinates>-97.539368,36.346963,3675</coordinates>
          </Point>
        </Placemark>
        <Placemark>
          <name>ASY405 (A332)</name>
          <description>Branch: &#xA;Altitude: 0 ft&#xA;Speed: 5.8 kts&#xA;Heading: 0.0&#xA;Mission: </description>
          <Point>
            <coordinates>-157.945722,21.306901,0</coordinates>
          </Point>
        </Placemark>
        <Placemark>
          <name>E10188 (C17)</name>
          <description>Branch: &#xA;Altitude: 1625 ft&#xA;Speed: 316.0 kts&#xA;Heading: 210.0&#xA;Mission: </description>
          <Point>
            <coordinates>-117.261677,32.652426,1625</coordinates>
          </Point>
        </Placemark>
        <Placemark>
          <name>PAT175 (BE20)</name>
          <description>Branch: &#xA;Altitude: 27000 ft&#xA;Speed: 250.9 kts&#xA;Heading: 20.5&#xA;Mission: </description>
          <Point>
            <coordinates>-98.262365,30.399216,27000</coordinates>
          </Point>
        </Placemark>
        <Placemark>
          <name>HAWK252 ()</name>
          <description>Branch: &#xA;Altitude: 2000 ft&#xA;Speed: 220.0 kts&#xA;Heading: 313.5&#xA;Mission: </description>
          <Point>
            <coordinates>-98.250046,26.3211,2000</coordinates>
          </Point>
        </Placemark>
        <Placemark>
          <name>TMHWK00 (H60)</name>
          <description>Branch: &#xA;Altitude: 12750 ft&#xA;Speed: 82.0 kts&#xA;Heading: 154.5&#xA;Mission: </description>
          <Point>
            <coordinates>-93.216354,31.012636,12750</coordinates>
          </Point>
        </Placemark>
        <Placemark>
          <name>HAWG62 (C30J)</name>
          <description>Branch: &#xA;Altitude: 1250 ft&#xA;Speed: 155.0 kts&#xA;Heading: 250.4&#xA;Mission: </description>
          <Point>
            <coordinates>-92.118759,34.95142,1250</coordinates>
          </Point>
        </Placemark>
        <Placemark>
          <name>WEIRD23 (EC45)</name>
          <description>Branch: &#xA;Altitude: 825 ft&#xA;Speed: 83.0 kts&#xA;Heading: 55.9&#xA;Mission: </description>
          <Point>
            <coordinates>-85.765259,31.151733,825</coordinates>
          </Point>
        </Placemark>
        <Placemark>
          <name>ASY406 (A332)</name>
          <description>Branch: &#xA;Altitude: 0 ft&#xA;Speed: 18.5 kts&#xA;Heading: 0.0&#xA;Mission: </description>
          <Point>
            <coordinates>-157.945995,21.311897,0</coordinates>
          </Point>
        </Placemark>
        <Placemark>
          <name>NORTH48 (BE20)</name>
          <description>Branch: &#xA;Altitude: 400 ft&#xA;Speed: 140.1 kts&#xA;Heading: 55.2&#xA;Mission: </description>
          <Point>
            <coordinates>-151.46235,59.650548,400</coordinates>
          </Point>
        </Placemark>
        <Placemark>
          <name>BGST312 (BE20)</name>
          <description>Branch: &#xA;Altitude: 20000 ft&#xA;Speed: 278.9 kts&#xA;Heading: 234.5&#xA;Mission: </description>
          <Point>
            <coordinates>-95.051704,29.264099,20000</coordinates>
          </Point>
        </Placemark>
        <Placemark>
          <name>BGST307 (BE20)</name>
          <description>Branch: &#xA;Altitude: 7175 ft&#xA;Speed: 176.9 kts&#xA;Heading: 257.9&#xA;Mission: </description>
          <Point>
            <coordinates>-89.577466,30.277715,7175</coordinates>
          </Point>
        </Placemark>
        <Placemark>
          <name>CHEWY55 (TEX2)</name>
          <description>Branch: &#xA;Altitude: 8800 ft&#xA;Speed: 214.1 kts&#xA;Heading: 88.1&#xA;Mission: </description>
          <Point>
            <coordinates>-88.715623,30.384247,8800</coordinates>
          </Point>
        </Placemark>
        <Placemark>
          <name>SH064 (TEX2)</name>
          <description>Branch: &#xA;Altitude: 4200 ft&#xA;Speed: 249.9 kts&#xA;Heading: 219.8&#xA;Mission: </description>
          <Point>
            <coordinates>-87.177752,31.141205,4200</coordinates>
          </Point>
        </Placemark>
        <Placemark>
          <name>TEXN142 (TEX2)</name>
          <description>Branch: &#xA;Altitude: 7300 ft&#xA;Speed: 238.9 kts&#xA;Heading: 115.3&#xA;Mission: </description>
          <Point>
            <coordinates>-86.36164,30.921341,7300</coordinates>
          </Point>
        </Placemark>
        <Placemark>
          <name>WEIRD35 (EC45)</name>
          <description>Branch: &#xA;Altitude: 200 ft&#xA;Speed: 27.0 kts&#xA;Heading: 100.0&#xA;Mission: </description>
          <Point>
            <coordinates>-85.743347,31.152479,200</coordinates>
          </Point>
        </Placemark>
        <Placemark>
          <name>GOONY40 (C30J)</name>
          <description>Branch: &#xA;Altitude: 400 ft&#xA;Speed: 109.1 kts&#xA;Heading: 70.7&#xA;Mission: </description>
          <Point>
            <coordinates>-92.159766,34.91423,400</coordinates>
          </Point>
        </Placemark>
        <Placemark>
          <name>BERT10 (C30J)</name>
          <description>Branch: &#xA;Altitude: 25000 ft&#xA;Speed: 317.8 kts&#xA;Heading: 94.0&#xA;Mission: </description>
          <Point>
            <coordinates>-82.652493,35.184135,25000</coordinates>
          </Point>
        </Placemark>
        <Placemark>
          <name>REAPR03 (F5)</name>
          <description>Branch: &#xA;Altitude: 750 ft&#xA;Speed: 386.8 kts&#xA;Heading: 135.7&#xA;Mission: </description>
          <Point>
            <coordinates>-80.727259,32.467393,750</coordinates>
          </Point>
        </Placemark>
        <Placemark>
          <name>GAF701 (A21N)</name>
          <description>Branch: &#xA;Altitude: 36000 ft&#xA;Speed: 432.8 kts&#xA;Heading: 196.5&#xA;Mission: </description>
          <Point>
            <coordinates>-75.488172,44.912613,36000</coordinates>
          </Point>
        </Placemark>
        <Placemark>
          <name> ()</name>
          <description>Branch: &#xA;Altitude: 13200 ft&#xA;Speed: 323.0 kts&#xA;Heading: 25.3&#xA;Mission: </description>
          <Point>
            <coordinates>-75.148499,38.548465,13200</coordinates>
          </Point>
        </Placemark>
        <Placemark>
          <name>FOXX373 (BE20)</name>
          <description>Branch: &#xA;Altitude: 4475 ft&#xA;Speed: 261.5 kts&#xA;Heading: 31.1&#xA;Mission: </description>
          <Point>
            <coordinates>-74.844788,39.218724,4475</coordinates>
          </Point>
        </Placemark>
        <Placemark>
          <name>RCH137 (C17)</name>
          <description>Branch: &#xA;Altitude: 36000 ft&#xA;Speed: 0.0 kts&#xA;Heading: 0.0&#xA;Mission: </description>
          <Point>
            <coordinates>0,0,36000</coordinates>
          </Point>
        </Placemark>
        <Placemark>
          <name>N7874N (C172)</name>
          <description>Branch: &#xA;Altitude: 10100 ft&#xA;Speed: 123.7 kts&#xA;Heading: 57.2&#xA;Mission: </description>
          <Point>
            <coordinates>-104.357666,38.773219,10100</coordinates>
          </Point>
        </Placemark>
        <Placemark>
          <name>00R27080 (H60)</name>
          <description>Branch: &#xA;Altitude: -100 ft&#xA;Speed: 8.1 kts&#xA;Heading: 172.9&#xA;Mission: </description>
          <Point>
            <coordinates>-118.059139,33.787475,-100</coordinates>
          </Point>
        </Placemark>
        <Placemark>
          <name>NICAD23 (EC45)</name>
          <description>Branch: &#xA;Altitude: 200 ft&#xA;Speed: 25.0 kts&#xA;Heading: 121.6&#xA;Mission: </description>
          <Point>
            <coordinates>-85.651733,31.23317,200</coordinates>
          </Point>
        </Placemark>
        <Placemark>
          <name>PAT104 (C560)</name>
          <description>Branch: &#xA;Altitude: 725 ft&#xA;Speed: 146.5 kts&#xA;Heading: 313.1&#xA;Mission: </description>
          <Point>
            <coordinates>-77.119784,38.669357,725</coordinates>
          </Point>
        </Placemark>
        <Placemark>
          <name>SYS43 (EC45)</name>
          <description>Branch: &#xA;Altitude: 400 ft&#xA;Speed: 107.0 kts&#xA;Heading: 325.6&#xA;Mission: </description>
          <Point>
            <coordinates>-2.945175,52.823822,400</coordinates>
          </Point>
        </Placemark>
        <Placemark>
          <name> ()</name>
          <description>Branch: &#xA;Altitude: 0 ft&#xA;Speed: 0.0 kts&#xA;Heading: 0.0&#xA;Mission: </description>
          <Point>
            <coordinates>0,0,0</coordinates>
          </Point>
        </Placemark>
        <Placemark>
          <name> (C30J)</name>
          <description>Branch: &#xA;Altitude: 425 ft&#xA;Speed: 0.0 kts&#xA;Heading: 0.0&#xA;Mission: </description>
          <Point>
            <coordinates>0,0,425</coordinates>
          </Point>
        </Placemark>
        <Placemark>
          <name>THNDR06 (DG1T)</name>
          <description>Branch: &#xA;Altitude: 9575 ft&#xA;Speed: 73.1 kts&#xA;Heading: 50.0&#xA;Mission: </description>
          <Point>
            <coordinates>-104.864197,39.010077,9575</coordinates>
          </Point>
        </Placemark>
        <Placemark>
          <name> (C30J)</name>
          <description>Branch: &#xA;Altitude: 0 ft&#xA;Speed: 0.0 kts&#xA;Heading: 0.0&#xA;Mission: </description>
          <Point>
            <coordinates>0,0,0</coordinates>
          </Point>
        </Placemark>
        <Placemark>
          <name>DRAGN76 (TEX2)</name>
          <description>Branch: &#xA;Altitude: 17225 ft&#xA;Speed: 137.4 kts&#xA;Heading: 163.9&#xA;Mission: </description>
          <Point>
            <coordinates>-98.137947,36.80541,17225</coordinates>
          </Point>
        </Placemark>
        <Placemark>
          <name>R20191 (H60)</name>
          <description>Branch: &#xA;Altitude: 3550 ft&#xA;Speed: 96.4 kts&#xA;Heading: 202.6&#xA;Mission: </description>
          <Point>
            <coordinates>-78.882179,35.050576,3550</coordinates>
          </Point>
        </Placemark>
        <Placemark>
          <name>ASY050 (E737)</name>
          <description>Branch: &#xA;Altitude: 12475 ft&#xA;Speed: 350.2 kts&#xA;Heading: 171.1&#xA;Mission: </description>
          <Point>
            <coordinates>-76.736511,39.544497,12475</coordinates>
          </Point>
        </Placemark>
        <Placemark>
          <name>RCH199 (C17)</name>
          <description>Branch: &#xA;Altitude: 30000 ft&#xA;Speed: 0.0 kts&#xA;Heading: 0.0&#xA;Mission: </description>
          <Point>
            <coordinates>0,0,30000</coordinates>
          </Point>
        </Placemark>
        <Placemark>
          <name>CRDO505 (C295)</name>
          <description>Branch: &#xA;Altitude: 3400 ft&#xA;Speed: 140.4 kts&#xA;Heading: 63.8&#xA;Mission: </description>
          <Point>
            <coordinates>-124.870012,49.657924,3400</coordinates>
          </Point>
        </Placemark>
        <Placemark>
          <name>FFAB123 ()</name>
          <description>Branch: &#xA;Altitude: 0 ft&#xA;Speed: 8.8 kts&#xA;Heading: 0.0&#xA;Mission: </description>
          <Point>
            <coordinates>-117.207039,32.697919,0</coordinates>
          </Point>
        </Placemark>
        <Placemark>
          <name>MMF35 (A332)</name>
          <description>Branch: &#xA;Altitude: 27000 ft&#xA;Speed: 478.0 kts&#xA;Heading: 0.5&#xA;Mission: </description>
          <Point>
            <coordinates>-114.365765,39.750916,27000</coordinates>
          </Point>
        </Placemark>
        <Placemark>
          <name>TIGER25 (TEX2)</name>
          <description>Branch: &#xA;Altitude: 1900 ft&#xA;Speed: 154.9 kts&#xA;Heading: 313.2&#xA;Mission: </description>
          <Point>
            <coordinates>-100.472083,29.140686,1900</coordinates>
          </Point>
        </Placemark>
        <Placemark>
          <name>R40033 (H64)</name>
          <description>Branch: &#xA;Altitude: 1200 ft&#xA;Speed: 83.7 kts&#xA;Heading: 245.3&#xA;Mission: </description>
          <Point>
            <coordinates>-97.831824,31.087259,1200</coordinates>
          </Point>
        </Placemark>
        <Placemark>
          <name>STGRY22 (BE9L)</name>
          <description>Branch: &#xA;Altitude: 1475 ft&#xA;Speed: 152.0 kts&#xA;Heading: 130.9&#xA;Mission: </description>
          <Point>
            <coordinates>-97.27108,27.674103,1475</coordinates>
          </Point>
        </Placemark>
        <Placemark>
          <name>TALON61 ()</name>
          <description>Branch: &#xA;Altitude: 15850 ft&#xA;Speed: 290.0 kts&#xA;Heading: 62.6&#xA;Mission: </description>
          <Point>
            <coordinates>-89.575821,33.119156,15850</coordinates>
          </Point>
        </Placemark>
        <Placemark>
          <name>RCH128 (C17)</name>
          <description>Branch: &#xA;Altitude: 29975 ft&#xA;Speed: 418.0 kts&#xA;Heading: 287.0&#xA;Mission: </description>
          <Point>
            <coordinates>-4.129744,55.099652,29975</coordinates>
          </Point>
        </Placemark>
        <Placemark>
          <name> (EC45)</name>
          <description>Branch: &#xA;Altitude: 800 ft&#xA;Speed: 87.0 kts&#xA;Heading: 290.8&#xA;Mission: </description>
          <Point>
            <coordinates>-85.967316,31.403091,800</coordinates>
          </Point>
        </Placemark>
        <Placemark>
          <name>ANVIL76 (C30J)</name>
          <description>Branch: &#xA;Altitude: 20025 ft&#xA;Speed: 283.0 kts&#xA;Heading: 248.9&#xA;Mission: </description>
          <Point>
            <coordinates>-82.009521,40.581024,20025</coordinates>
          </Point>
        </Placemark>
        <Placemark>
          <name>CEF624 (C295)</name>
          <description>Branch: &#xA;Altitude: 21000 ft&#xA;Speed: 236.7 kts&#xA;Heading: 131.2&#xA;Mission: </description>
          <Point>
            <coordinates>18.986699,47.564516,21000</coordinates>
          </Point>
        </Placemark>
        <Placemark>
          <name>TEST1234 ()</name>
          <description>Branch: &#xA;Altitude: 0 ft&#xA;Speed: 0.0 kts&#xA;Heading: 0.0&#xA;Mission: </description>
          <Point>
            <coordinates>0,0,0</coordinates>
          </Point>
        </Placemark>
        <Placemark>
          <name>GAFTT33 ()</name>
          <description>Branch: &#xA;Altitude: 62700 ft&#xA;Speed: 0.0 kts&#xA;Heading: 0.0&#xA;Mission: </description>
          <Point>
            <coordinates>0,0,62700</coordinates>
          </Point>
        </Placemark>
        <Placemark>
          <name>TEST1234 (TWR)</name>
          <description>Branch: &#xA;Altitude: 0 ft&#xA;Speed: 0.0 kts&#xA;Heading: 0.0&#xA;Mission: </description>
          <Point>
            <coordinates>0,0,0</coordinates>
          </Point>
        </Placemark>
        <Placemark>
          <name>DEVIL26 (TEX2)</name>
          <description>Branch: &#xA;Altitude: 18975 ft&#xA;Speed: 135.7 kts&#xA;Heading: 342.0&#xA;Mission: </description>
          <Point>
            <coordinates>-100.217016,28.920438,18975</coordinates>
          </Point>
        </Placemark>
        <Placemark>
          <name>UHAUL12 (C5M)</name>
          <description>Branch: &#xA;Altitude: 2100 ft&#xA;Speed: 188.7 kts&#xA;Heading: 238.0&#xA;Mission: </description>
          <Point>
            <coordinates>-98.57409,29.32663,2100</coordinates>
          </Point>
        </Placemark>
        <Placemark>
          <name>BOBCT21 (HAWK)</name>
          <description>Branch: &#xA;Altitude: 14050 ft&#xA;Speed: 308.9 kts&#xA;Heading: 4.3&#xA;Mission: </description>
          <Point>
            <coordinates>-89.726605,32.015671,14050</coordinates>
          </Point>
        </Placemark>
        <Placemark>
          <name>SQUIB77 (EC45)</name>
          <description>Branch: &#xA;Altitude: 700 ft&#xA;Speed: 85.5 kts&#xA;Heading: 65.8&#xA;Mission: </description>
          <Point>
            <coordinates>-85.56839,31.226217,700</coordinates>
          </Point>
        </Placemark>
        <Placemark>
          <name>CNV3915 (C130)</name>
          <description>Branch: &#xA;Altitude: 7225 ft&#xA;Speed: 221.0 kts&#xA;Heading: 129.0&#xA;Mission: </description>
          <Point>
            <coordinates>-5.520778,50.687302,7225</coordinates>
          </Point>
        </Placemark>
        <Placemark>
          <name>TEST1234 ()</name>
          <description>Branch: &#xA;Altitude: 0 ft&#xA;Speed: 0.0 kts&#xA;Heading: 0.0&#xA;Mission: </description>
          <Point>
            <coordinates>0,0,0</coordinates>
          </Point>
        </Placemark>
        <Placemark>
          <name>EVAL29 (H60)</name>
          <description>Branch: &#xA;Altitude: 2275 ft&#xA;Speed: 133.7 kts&#xA;Heading: 354.0&#xA;Mission: </description>
          <Point>
            <coordinates>-86.465653,34.816727,2275</coordinates>
          </Point>
        </Placemark>
        <Placemark>
          <name> (EC45)</name>
          <description>Branch: &#xA;Altitude: 350 ft&#xA;Speed: 0.0 kts&#xA;Heading: 0.0&#xA;Mission: </description>
          <Point>
            <coordinates>-85.549493,31.230407,350</coordinates>
          </Point>
        </Placemark>
        <Placemark>
          <name>CTM1013 (A332)</name>
          <description>Branch: &#xA;Altitude: 0 ft&#xA;Speed: 0.0 kts&#xA;Heading: 0.0&#xA;Mission: </description>
          <Point>
            <coordinates>-123.175549,49.198034,0</coordinates>
          </Point>
        </Placemark>
        <Placemark>
          <name> (C17)</name>
          <description>Branch: &#xA;Altitude: 9925 ft&#xA;Speed: 0.0 kts&#xA;Heading: 0.0&#xA;Mission: </description>
          <Point>
            <coordinates>0,0,9925</coordinates>
          </Point>
        </Placemark>
        <Placemark>
          <name>BLZR247 (HAWK)</name>
          <description>Branch: &#xA;Altitude: 8075 ft&#xA;Speed: 317.1 kts&#xA;Heading: 358.4&#xA;Mission: </description>
          <Point>
            <coordinates>-98.672037,28.080962,8075</coordinates>
          </Point>
        </Placemark>
        <Placemark>
          <name>BOMR765 (TEX2)</name>
          <description>Branch: &#xA;Altitude: 9875 ft&#xA;Speed: 246.0 kts&#xA;Heading: 71.3&#xA;Mission: </description>
          <Point>
            <coordinates>-96.872379,28.005081,9875</coordinates>
          </Point>
        </Placemark>
        <Placemark>
          <name>C6584 (AS65)</name>
          <description>Branch: &#xA;Altitude: 1375 ft&#xA;Speed: 123.6 kts&#xA;Heading: 99.3&#xA;Mission: </description>
          <Point>
            <coordinates>-95.912422,29.713828,1375</coordinates>
          </Point>
        </Placemark>
        <Placemark>
          <name>TEST1234 ()</name>
          <description>Branch: &#xA;Altitude: 0 ft&#xA;Speed: 0.0 kts&#xA;Heading: 0.0&#xA;Mission: </description>
          <Point>
            <coordinates>0,0,0</coordinates>
          </Point>
        </Placemark>
        <Placemark>
          <name>HOOK51 (TEX2)</name>
          <description>Branch: &#xA;Altitude: 12975 ft&#xA;Speed: 272.9 kts&#xA;Heading: 193.8&#xA;Mission: </description>
          <Point>
            <coordinates>-97.90776,35.936279,12975</coordinates>
          </Point>
        </Placemark>
        <Placemark>
          <name> (K35R)</name>
          <description>Branch: &#xA;Altitude: 11100 ft&#xA;Speed: 385.0 kts&#xA;Heading: 304.0&#xA;Mission: </description>
          <Point>
            <coordinates>-122.165363,38.306571,11100</coordinates>
          </Point>
        </Placemark>
        <Placemark>
          <name>SCRCH51 (V22)</name>
          <description>Branch: &#xA;Altitude: 0 ft&#xA;Speed: 0.0 kts&#xA;Heading: 0.0&#xA;Mission: </description>
          <Point>
            <coordinates>-117.210951,32.709057,0</coordinates>
          </Point>
        </Placemark>
        <Placemark>
          <name>TOPCT26 (R135)</name>
          <description>Branch: &#xA;Altitude: 31025 ft&#xA;Speed: 431.4 kts&#xA;Heading: 159.1&#xA;Mission: </description>
          <Point>
            <coordinates>-101.497124,45.803585,31025</coordinates>
          </Point>
        </Placemark>
        <Placemark>
          <name>DEVIL02 (TEX2)</name>
          <description>Branch: &#xA;Altitude: 8350 ft&#xA;Speed: 237.9 kts&#xA;Heading: 295.9&#xA;Mission: </description>
          <Point>
            <coordinates>-100.57321,29.003068,8350</coordinates>
          </Point>
        </Placemark>
        <Placemark>
          <name>CRAZY11 (TEX2)</name>
          <description>Branch: &#xA;Altitude: 9725 ft&#xA;Speed: 265.4 kts&#xA;Heading: 16.9&#xA;Mission: </description>
          <Point>
            <coordinates>-88.246896,33.067405,9725</coordinates>
          </Point>
        </Placemark>
        <Placemark>
          <name>JEDI24 (TEX2)</name>
          <description>Branch: &#xA;Altitude: 8175 ft&#xA;Speed: 206.0 kts&#xA;Heading: 171.1&#xA;Mission: </description>
          <Point>
            <coordinates>-86.976837,31.887634,8175</coordinates>
          </Point>
        </Placemark>
        <Placemark>
          <name>VENUS23 (GLF5)</name>
          <description>Branch: &#xA;Altitude: 41000 ft&#xA;Speed: 457.0 kts&#xA;Heading: 30.0&#xA;Mission: </description>
          <Point>
            <coordinates>-78.976413,35.079881,41000</coordinates>
          </Point>
        </Placemark>
        <Placemark>
          <name>RUDY24 (V22)</name>
          <description>Branch: &#xA;Altitude: 7950 ft&#xA;Speed: 221.6 kts&#xA;Heading: 290.9&#xA;Mission: </description>
          <Point>
            <coordinates>-118.118848,33.279236,7950</coordinates>
          </Point>
        </Placemark>
        <Placemark>
          <name>TIGER53 (TEX2)</name>
          <description>Branch: &#xA;Altitude: 6025 ft&#xA;Speed: 249.2 kts&#xA;Heading: 2.3&#xA;Mission: </description>
          <Point>
            <coordinates>-100.336735,28.966292,6025</coordinates>
          </Point>
        </Placemark>
        <Placemark>
          <name>TEST1234 ()</name>
          <description>Branch: &#xA;Altitude: 0 ft&#xA;Speed: 0.0 kts&#xA;Heading: 0.0&#xA;Mission: </description>
          <Point>
            <coordinates>0,0,0</coordinates>
          </Point>
        </Placemark>
        <Placemark>
          <name>N66MJ (C182)</name>
          <description>Branch: &#xA;Altitude: 6900 ft&#xA;Speed: 84.0 kts&#xA;Heading: 171.1&#xA;Mission: </description>
          <Point>
            <coordinates>-104.815247,38.961151,6900</coordinates>
          </Point>
        </Placemark>
        <Placemark>
          <name> (P8)</name>
          <description>Branch: &#xA;Altitude: 37000 ft&#xA;Speed: 461.0 kts&#xA;Heading: 179.6&#xA;Mission: </description>
          <Point>
            <coordinates>-126.508804,46.699017,37000</coordinates>
          </Point>
        </Placemark>
        <Placemark>
          <name>EVIL81 (TEX2)</name>
          <description>Branch: &#xA;Altitude: 14350 ft&#xA;Speed: 182.6 kts&#xA;Heading: 339.5&#xA;Mission: </description>
          <Point>
            <coordinates>-97.670116,36.696259,14350</coordinates>
          </Point>
        </Placemark>
        <Placemark>
          <name>PAT171 (BE20)</name>
          <description>Branch: &#xA;Altitude: 20000 ft&#xA;Speed: 255.9 kts&#xA;Heading: 193.3&#xA;Mission: </description>
          <Point>
            <coordinates>-79.919652,33.314737,20000</coordinates>
          </Point>
        </Placemark>
        <Placemark>
          <name>COMT451 (A400)</name>
          <description>Branch: &#xA;Altitude: 1725 ft&#xA;Speed: 172.7 kts&#xA;Heading: 284.8&#xA;Mission: </description>
          <Point>
            <coordinates>-1.548157,51.752681,1725</coordinates>
          </Point>
        </Placemark>
        <Placemark>
          <name>TEST1234 ()</name>
          <description>Branch: &#xA;Altitude: 0 ft&#xA;Speed: 0.0 kts&#xA;Heading: 0.0&#xA;Mission: </description>
          <Point>
            <coordinates>0,0,0</coordinates>
          </Point>
        </Placemark>
        <Placemark>
          <name>TRON11 (GLF5)</name>
          <description>Branch: &#xA;Altitude: 36600 ft&#xA;Speed: 449.8 kts&#xA;Heading: 129.3&#xA;Mission: </description>
          <Point>
            <coordinates>-119.381029,34.032394,36600</coordinates>
          </Point>
        </Placemark>
        <Placemark>
          <name>MORPH77 (EC45)</name>
          <description>Branch: &#xA;Altitude: 875 ft&#xA;Speed: 89.2 kts&#xA;Heading: 199.7&#xA;Mission: </description>
          <Point>
            <coordinates>-85.655072,31.164908,875</coordinates>
          </Point>
        </Placemark>
        <Placemark>
          <name>RCH400 (C17)</name>
          <description>Branch: &#xA;Altitude: 31000 ft&#xA;Speed: 429.0 kts&#xA;Heading: 141.0&#xA;Mission: </description>
          <Point>
            <coordinates>-4.522032,54.644203,31000</coordinates>
          </Point>
        </Placemark>
        <Placemark>
          <name> ()</name>
          <description>Branch: &#xA;Altitude: 0 ft&#xA;Speed: 0.0 kts&#xA;Heading: 0.0&#xA;Mission: </description>
          <Point>
            <coordinates>0,0,0</coordinates>
          </Point>
        </Placemark>
        <Placemark>
          <name> (H60)</name>
          <description>Branch: &#xA;Altitude: 0 ft&#xA;Speed: 0.0 kts&#xA;Heading: 0.0&#xA;Mission: </description>
          <Point>
            <coordinates>0,0,0</coordinates>
          </Point>
        </Placemark>
        <Placemark>
          <name>JUSTIS2 ()</name>
          <description>Branch: &#xA;Altitude: 100 ft&#xA;Speed: 0.0 kts&#xA;Heading: 0.0&#xA;Mission: </description>
          <Point>
            <coordinates>0,0,100</coordinates>
          </Point>
        </Placemark>
        <Placemark>
          <name>HOBO61 (AT8T)</name>
          <description>Branch: &#xA;Altitude: 8100 ft&#xA;Speed: 170.2 kts&#xA;Heading: 73.3&#xA;Mission: </description>
          <Point>
            <coordinates>-98.271069,35.286876,8100</coordinates>
          </Point>
        </Placemark>
        <Placemark>
          <name>FAM3915 (GLF4)</name>
          <description>Branch: &#xA;Altitude: 35475 ft&#xA;Speed: 511.0 kts&#xA;Heading: 118.4&#xA;Mission: </description>
          <Point>
            <coordinates>-100.487335,20.599869,35475</coordinates>
          </Point>
        </Placemark>
        <Placemark>
          <name>JAVAN45 (TEX2)</name>
          <description>Branch: &#xA;Altitude: 3975 ft&#xA;Speed: 214.6 kts&#xA;Heading: 265.7&#xA;Mission: </description>
          <Point>
            <coordinates>-97.594353,30.900787,3975</coordinates>
          </Point>
        </Placemark>
        <Placemark>
          <name>KATT17 (TEX2)</name>
          <description>Branch: &#xA;Altitude: 1900 ft&#xA;Speed: 208.5 kts&#xA;Heading: 163.6&#xA;Mission: </description>
          <Point>
            <coordinates>-88.029492,31.099036,1900</coordinates>
          </Point>
        </Placemark>
        <Placemark>
          <name>MORPH59 (EC45)</name>
          <description>Branch: &#xA;Altitude: 825 ft&#xA;Speed: 95.5 kts&#xA;Heading: 292.8&#xA;Mission: </description>
          <Point>
            <coordinates>-85.655446,31.214447,825</coordinates>
          </Point>
        </Placemark>
        <Placemark>
          <name>MORPH13 (EC45)</name>
          <description>Branch: &#xA;Altitude: 725 ft&#xA;Speed: 95.9 kts&#xA;Heading: 300.0&#xA;Mission: </description>
          <Point>
            <coordinates>-85.617155,31.270203,725</coordinates>
          </Point>
        </Placemark>
        <Placemark>
          <name>TEST1234 ()</name>
          <description>Branch: &#xA;Altitude: 0 ft&#xA;Speed: 0.0 kts&#xA;Heading: 0.0&#xA;Mission: </description>
          <Point>
            <coordinates>0,0,0</coordinates>
          </Point>
        </Placemark>
        <Placemark>
          <name>SGE62 (R66)</name>
          <description>Branch: &#xA;Altitude: 1725 ft&#xA;Speed: 105.7 kts&#xA;Heading: 263.5&#xA;Mission: </description>
          <Point>
            <coordinates>-84.769108,30.873825,1725</coordinates>
          </Point>
        </Placemark>
        <Placemark>
          <name>JOLLY91 (H60)</name>
          <description>Branch: &#xA;Altitude: -50 ft&#xA;Speed: 67.2 kts&#xA;Heading: 337.2&#xA;Mission: </description>
          <Point>
            <coordinates>-122.046535,37.413162,-50</coordinates>
          </Point>
        </Placemark>
        <Placemark>
          <name>SHARK68 (SR20)</name>
          <description>Branch: &#xA;Altitude: 8425 ft&#xA;Speed: 123.0 kts&#xA;Heading: 349.7&#xA;Mission: </description>
          <Point>
            <coordinates>-104.782349,39.005422,8425</coordinates>
          </Point>
        </Placemark>
        <Placemark>
          <name>RANDY11 (T38)</name>
          <description>Branch: &#xA;Altitude: 9875 ft&#xA;Speed: 366.6 kts&#xA;Heading: 248.9&#xA;Mission: </description>
          <Point>
            <coordinates>-96.537673,29.150685,9875</coordinates>
          </Point>
        </Placemark>
        <Placemark>
          <name>R20764 (H60)</name>
          <description>Branch: &#xA;Altitude: 4725 ft&#xA;Speed: 115.0 kts&#xA;Heading: 335.9&#xA;Mission: </description>
          <Point>
            <coordinates>-87.557214,37.439405,4725</coordinates>
          </Point>
        </Placemark>
        <Placemark>
          <name>ZORO52 (AT8T)</name>
          <description>Branch: &#xA;Altitude: 3850 ft&#xA;Speed: 125.9 kts&#xA;Heading: 161.0&#xA;Mission: </description>
          <Point>
            <coordinates>-97.994843,34.948627,3850</coordinates>
          </Point>
        </Placemark>
        <Placemark>
          <name> ()</name>
          <description>Branch: &#xA;Altitude: 6050 ft&#xA;Speed: 199.0 kts&#xA;Heading: 45.7&#xA;Mission: </description>
          <Point>
            <coordinates>-111.270309,47.699844,6050</coordinates>
          </Point>
        </Placemark>
        <Placemark>
          <name>GRINCH9 (TEX2)</name>
          <description>Branch: &#xA;Altitude: 9850 ft&#xA;Speed: 167.4 kts&#xA;Heading: 241.4&#xA;Mission: </description>
          <Point>
            <coordinates>-88.024109,33.327667,9850</coordinates>
          </Point>
        </Placemark>
        <Placemark>
          <name>N5345U (H47)</name>
          <description>Branch: &#xA;Altitude: 1300 ft&#xA;Speed: 0.0 kts&#xA;Heading: 0.0&#xA;Mission: </description>
          <Point>
            <coordinates>0,0,1300</coordinates>
          </Point>
        </Placemark>
        <Placemark>
          <name>CO96 (TUCA)</name>
          <description>Branch: &#xA;Altitude: 9975 ft&#xA;Speed: 207.0 kts&#xA;Heading: 318.9&#xA;Mission: </description>
          <Point>
            <coordinates>-46.320394,-22.804452,9975</coordinates>
          </Point>
        </Placemark>
        <Placemark>
          <name>COSMO42 (C30J)</name>
          <description>Branch: &#xA;Altitude: 2375 ft&#xA;Speed: 202.3 kts&#xA;Heading: 218.2&#xA;Mission: </description>
          <Point>
            <coordinates>11.336779,43.003375,2375</coordinates>
          </Point>
        </Placemark>
        <Placemark>
          <name>R72106 (EC45)</name>
          <description>Branch: &#xA;Altitude: 1250 ft&#xA;Speed: 77.0 kts&#xA;Heading: 288.1&#xA;Mission: </description>
          <Point>
            <coordinates>11.855983,49.730438,1250</coordinates>
          </Point>
        </Placemark>
        <Placemark>
          <name>TEST1234 ()</name>
          <description>Branch: &#xA;Altitude: 0 ft&#xA;Speed: 0.0 kts&#xA;Heading: 0.0&#xA;Mission: </description>
          <Point>
            <coordinates>0,0,0</coordinates>
          </Point>
        </Placemark>
        <Placemark>
          <name>MORPH16 (EC45)</name>
          <description>Branch: &#xA;Altitude: 0 ft&#xA;Speed: 0.0 kts&#xA;Heading: 0.0&#xA;Mission: </description>
          <Point>
            <coordinates>0,0,0</coordinates>
          </Point>
        </Placemark>
        <Placemark>
          <name>BB141 (TEX2)</name>
          <description>Branch: &#xA;Altitude: 4725 ft&#xA;Speed: 167.7 kts&#xA;Heading: 30.9&#xA;Mission: </description>
          <Point>
            <coordinates>-88.279486,30.526071,4725</coordinates>
          </Point>
        </Placemark>
        <Placemark>
          <name>KATT18 (TEX2)</name>
          <description>Branch: &#xA;Altitude: 1775 ft&#xA;Speed: 278.7 kts&#xA;Heading: 68.3&#xA;Mission: </description>
          <Point>
            <coordinates>-87.35658,30.337721,1775</coordinates>
          </Point>
        </Placemark>
        <Placemark>
          <name>RN065 (TEX2)</name>
          <description>Branch: &#xA;Altitude: 7775 ft&#xA;Speed: 231.5 kts&#xA;Heading: 9.9&#xA;Mission: </description>
          <Point>
            <coordinates>-86.537714,31.207084,7775</coordinates>
          </Point>
        </Placemark>
        <Placemark>
          <name>PNTHR76 (H64)</name>
          <description>Branch: &#xA;Altitude: 400 ft&#xA;Speed: 43.4 kts&#xA;Heading: 218.4&#xA;Mission: </description>
          <Point>
            <coordinates>-1.546548,51.157288,400</coordinates>
          </Point>
        </Placemark>
        <Placemark>
          <name>RCH703 (C17)</name>
          <description>Branch: &#xA;Altitude: 27000 ft&#xA;Speed: 404.0 kts&#xA;Heading: 123.2&#xA;Mission: </description>
          <Point>
            <coordinates>5.135341,51.966421,27000</coordinates>
          </Point>
        </Placemark>
        <Placemark>
          <name>FLAT67 (TEX2)</name>
          <description>Branch: &#xA;Altitude: 0 ft&#xA;Speed: 223.3 kts&#xA;Heading: 279.8&#xA;Mission: </description>
          <Point>
            <coordinates>0,0,0</coordinates>
          </Point>
        </Placemark>
        <Placemark>
          <name>WAYLN37 (BE20)</name>
          <description>Branch: &#xA;Altitude: 9750 ft&#xA;Speed: 257.0 kts&#xA;Heading: 180.2&#xA;Mission: </description>
          <Point>
            <coordinates>-117.61621,35.201523,9750</coordinates>
          </Point>
        </Placemark>
        <Placemark>
          <name>BOXER04 (TEX2)</name>
          <description>Branch: &#xA;Altitude: 2150 ft&#xA;Speed: 185.3 kts&#xA;Heading: 226.8&#xA;Mission: </description>
          <Point>
            <coordinates>-100.784912,29.347974,2150</coordinates>
          </Point>
        </Placemark>
        <Placemark>
          <name>LOOT44 (TEX2)</name>
          <description>Branch: &#xA;Altitude: 8450 ft&#xA;Speed: 277.0 kts&#xA;Heading: 6.8&#xA;Mission: </description>
          <Point>
            <coordinates>-98.062532,37.318369,8450</coordinates>
          </Point>
        </Placemark>
        <Placemark>
          <name>KANZA02 (B762)</name>
          <description>Branch: &#xA;Altitude: 3850 ft&#xA;Speed: 219.0 kts&#xA;Heading: 358.0&#xA;Mission: </description>
          <Point>
            <coordinates>-96.994742,37.902354,3850</coordinates>
          </Point>
        </Placemark>