<?xml version="1.0" encoding="UTF-8"?>
<kml xmlns="http://www.opengis.net/kml/2.2">
  <Document>
    <name>US Military Tracker</name>
    <description>Generated: 2026-03-02T21:17:54Z | Chairman: groq | Score: 0.00</description>
    <Folder>
      <name>Aircraft (374 tracked)</name>
      <Folder>
        <name>Unknown</name>
        <Placemark>
          <name>WEIRD42 (EC45)</name>
          <description>Branch: &#xA;Altitude: 250 ft&#xA;Speed: 38.0 kts&#xA;Heading: 98.1&#xA;Mission: </description>
          <Point>
            <coordinates>-85.739624,31.151184,250</coordinates>
          </Point>
        </Placemark>
        <Placemark>
          <name>TEST1234 ()</name>
          <description>Branch: &#xA;Altitude: 0 ft&#xA;Speed: 0.0 kts&#xA;Heading: 0.0&#xA;Mission: </description>
          <Point>
            <coordinates>0,0,0</coordinates>
          </Point>
        </Placemark>
        <Placemark>
          <name>TEST1234 ()</name>
          <description>Branch: &#xA;Altitude: 0 ft&#xA;Speed: 0.0 kts&#xA;Heading: 0.0&#xA;Mission: </description>
          <Point>
            <coordinates>0,0,0</coordinates>
          </Point>
        </Placemark>
        <Placemark>
          <name>LOOT88 (TEX2)</name>
          <description>Branch: &#xA;Altitude: 12850 ft&#xA;Speed: 265.3 kts&#xA;Heading: 177.4&#xA;Mission: </description>
          <Point>
            <coordinates>-97.99942,36.109818,12850</coordinates>
          </Point>
        </Placemark>
        <Placemark>
          <name>RCH724 (K35R)</name>
          <description>Branch: &#xA;Altitude: 31000 ft&#xA;Speed: 510.0 kts&#xA;Heading: 62.0&#xA;Mission: </description>
          <Point>
            <coordinates>-89.642574,41.728784,31000</coordinates>
          </Point>
        </Placemark>
        <Placemark>
          <name>NINJA32 (T38)</name>
          <description>Branch: &#xA;Altitude: 16300 ft&#xA;Speed: 420.4 kts&#xA;Heading: 260.0&#xA;Mission: </description>
          <Point>
            <coordinates>-87.800997,33.724457,16300</coordinates>
          </Point>
        </Placemark>
        <Placemark>
          <name>CROSS21 (H60)</name>
          <description>Branch: &#xA;Altitude: 1275 ft&#xA;Speed: 59.9 kts&#xA;Heading: 56.6&#xA;Mission: </description>
          <Point>
            <coordinates>10.375325,49.46962,1275</coordinates>
          </Point>
        </Placemark>
        <Placemark>
          <name>C6575 (AS65)</name>
          <description>Branch: &#xA;Altitude: -125 ft&#xA;Speed: 99.3 kts&#xA;Heading: 332.4&#xA;Mission: </description>
          <Point>
            <coordinates>-74.589466,39.477127,-125</coordinates>
          </Point>
        </Placemark>
        <Placemark>
          <name>COVET15 (H64)</name>
          <description>Branch: &#xA;Altitude: 2700 ft&#xA;Speed: 78.1 kts&#xA;Heading: 87.8&#xA;Mission: </description>
          <Point>
            <coordinates>10.492084,49.390732,2700</coordinates>
          </Point>
        </Placemark>
        <Placemark>
          <name> (K35R)</name>
          <description>Branch: &#xA;Altitude: 0 ft&#xA;Speed: 0.0 kts&#xA;Heading: 0.0&#xA;Mission: </description>
          <Point>
            <coordinates>0,0,0</coordinates>
          </Point>
        </Placemark>
        <Placemark>
          <name> ()</name>
          <description>Branch: &#xA;Altitude: 2350 ft&#xA;Speed: 156.8 kts&#xA;Heading: 246.7&#xA;Mission: </description>
          <Point>
            <coordinates>-117.628281,47.623077,2350</coordinates>
          </Point>
        </Placemark>
        <Placemark>
          <name>BALL55 (TEX2)</name>
          <description>Branch: &#xA;Altitude: 3950 ft&#xA;Speed: 164.1 kts&#xA;Heading: 181.8&#xA;Mission: </description>
          <Point>
            <coordinates>-97.604942,35.056861,3950</coordinates>
          </Point>
        </Placemark>
        <Placemark>
          <name>MORPH42 (EC45)</name>
          <description>Branch: &#xA;Altitude: 550 ft&#xA;Speed: 62.0 kts&#xA;Heading: 120.7&#xA;Mission: </description>
          <Point>
            <coordinates>-85.658257,31.23362,550</coordinates>
          </Point>
        </Placemark>
        <Placemark>
          <name>RCH137 (C17)</name>
          <description>Branch: &#xA;Altitude: 36000 ft&#xA;Speed: 431.0 kts&#xA;Heading: 336.0&#xA;Mission: </description>
          <Point>
            <coordinates>23.79386,41.369522,36000</coordinates>
          </Point>
        </Placemark>
        <Placemark>
          <name>SCRCH51 (V22)</name>
          <description>Branch: &#xA;Altitude: 575 ft&#xA;Speed: 46.0 kts&#xA;Heading: 219.8&#xA;Mission: </description>
          <Point>
            <coordinates>-117.523888,33.43824,575</coordinates>
          </Point>
        </Placemark>
        <Placemark>
          <name>FAM3206 (C295)</name>
          <description>Branch: &#xA;Altitude: 8775 ft&#xA;Speed: 210.2 kts&#xA;Heading: 276.0&#xA;Mission: </description>
          <Point>
            <coordinates>-103.452209,20.749776,8775</coordinates>
          </Point>
        </Placemark>
        <Placemark>
          <name> ()</name>
          <description>Branch: &#xA;Altitude: 28000 ft&#xA;Speed: 0.0 kts&#xA;Heading: 0.0&#xA;Mission: </description>
          <Point>
            <coordinates>0,0,28000</coordinates>
          </Point>
        </Placemark>
        <Placemark>
          <name>CARD11 (T38)</name>
          <description>Branch: &#xA;Altitude: 15800 ft&#xA;Speed: 624.0 kts&#xA;Heading: 22.0&#xA;Mission: </description>
          <Point>
            <coordinates>-97.144431,29.145295,15800</coordinates>
          </Point>
        </Placemark>
        <Placemark>
          <name> ()</name>
          <description>Branch: &#xA;Altitude: 0 ft&#xA;Speed: 0.0 kts&#xA;Heading: 0.0&#xA;Mission: </description>
          <Point>
            <coordinates>0,0,0</coordinates>
          </Point>
        </Placemark>
        <Placemark>
          <name> (K35R)</name>
          <description>Branch: &#xA;Altitude: 0 ft&#xA;Speed: 0.0 kts&#xA;Heading: 0.0&#xA;Mission: </description>
          <Point>
            <coordinates>0,0,0</coordinates>
          </Point>
        </Placemark>
        <Placemark>
          <name>BOLT56 (C172)</name>
          <description>Branch: &#xA;Altitude: 0 ft&#xA;Speed: 5.2 kts&#xA;Heading: 258.8&#xA;Mission: </description>
          <Point>
            <coordinates>-104.813825,38.971836,0</coordinates>
          </Point>
        </Placemark>
        <Placemark>
          <name>WIRE31 (TEX2)</name>
          <description>Branch: &#xA;Altitude: 9325 ft&#xA;Speed: 264.8 kts&#xA;Heading: 85.7&#xA;Mission: </description>
          <Point>
            <coordinates>-97.579594,36.2173,9325</coordinates>
          </Point>
        </Placemark>
        <Placemark>
          <name>LOCK38 (TEX2)</name>
          <description>Branch: &#xA;Altitude: 11450 ft&#xA;Speed: 128.0 kts&#xA;Heading: 358.7&#xA;Mission: </description>
          <Point>
            <coordinates>-88.246637,33.33165,11450</coordinates>
          </Point>
        </Placemark>
        <Placemark>
          <name>RCH1848 (C17)</name>
          <description>Branch: &#xA;Altitude: 35000 ft&#xA;Speed: 505.0 kts&#xA;Heading: 126.0&#xA;Mission: </description>
          <Point>
            <coordinates>-86.402794,36.448876,35000</coordinates>
          </Point>
        </Placemark>
        <Placemark>
          <name>MORPH33 (EC45)</name>
          <description>Branch: &#xA;Altitude: 825 ft&#xA;Speed: 98.0 kts&#xA;Heading: 297.4&#xA;Mission: </description>
          <Point>
            <coordinates>-85.670525,31.219986,825</coordinates>
          </Point>
        </Placemark>
        <Placemark>
          <name>BELLS31 (EC45)</name>
          <description>Branch: &#xA;Altitude: 1475 ft&#xA;Speed: 89.1 kts&#xA;Heading: 189.0&#xA;Mission: </description>
          <Point>
            <coordinates>-85.578223,30.96329,1475</coordinates>
          </Point>
        </Placemark>
        <Placemark>
          <name>C6513 (AS65)</name>
          <description>Branch: &#xA;Altitude: 450 ft&#xA;Speed: 110.1 kts&#xA;Heading: 92.1&#xA;Mission: </description>
          <Point>
            <coordinates>-81.67301,30.125519,450</coordinates>
          </Point>
        </Placemark>
        <Placemark>
          <name>BAF72 (FA7X)</name>
          <description>Branch: &#xA;Altitude: 10500 ft&#xA;Speed: 310.5 kts&#xA;Heading: 68.1&#xA;Mission: </description>
          <Point>
            <coordinates>4.107132,50.940019,10500</coordinates>
          </Point>
        </Placemark>
        <Placemark>
          <name> ()</name>
          <description>Branch: &#xA;Altitude: 0 ft&#xA;Speed: 0.0 kts&#xA;Heading: 0.0&#xA;Mission: </description>
          <Point>
            <coordinates>0,0,0</coordinates>
          </Point>
        </Placemark>
        <Placemark>
          <name>SHARK75 (SR20)</name>
          <description>Branch: &#xA;Altitude: 9450 ft&#xA;Speed: 124.0 kts&#xA;Heading: 270.0&#xA;Mission: </description>
          <Point>
            <coordinates>-104.588232,38.826324,9450</coordinates>
          </Point>
        </Placemark>
        <Placemark>
          <name>SHARK51 (SR20)</name>
          <description>Branch: &#xA;Altitude: 6350 ft&#xA;Speed: 98.7 kts&#xA;Heading: 283.5&#xA;Mission: </description>
          <Point>
            <coordinates>-104.534269,38.306992,6350</coordinates>
          </Point>
        </Placemark>
        <Placemark>
          <name> (C30J)</name>
          <description>Branch: &#xA;Altitude: 5900 ft&#xA;Speed: 0.0 kts&#xA;Heading: 0.0&#xA;Mission: </description>
          <Point>
            <coordinates>0,0,5900</coordinates>
          </Point>
        </Placemark>
        <Placemark>
          <name> ()</name>
          <description>Branch: &#xA;Altitude: 0 ft&#xA;Speed: 0.0 kts&#xA;Heading: 0.0&#xA;Mission: </description>
          <Point>
            <coordinates>0,0,0</coordinates>
          </Point>
        </Placemark>
        <Placemark>
          <name>RNGR44 (B06)</name>
          <description>Branch: &#xA;Altitude: 1025 ft&#xA;Speed: 90.8 kts&#xA;Heading: 220.5&#xA;Mission: </description>
          <Point>
            <coordinates>-98.144135,49.908747,1025</coordinates>
          </Point>
        </Placemark>
        <Placemark>
          <name> ()</name>
          <description>Branch: &#xA;Altitude: 0 ft&#xA;Speed: 122.5 kts&#xA;Heading: 0.0&#xA;Mission: </description>
          <Point>
            <coordinates>0,0,0</coordinates>
          </Point>
        </Placemark>
        <Placemark>
          <name> (C17)</name>
          <description>Branch: &#xA;Altitude: 22900 ft&#xA;Speed: 380.0 kts&#xA;Heading: 265.0&#xA;Mission: </description>
          <Point>
            <coordinates>-151.926838,61.286803,22900</coordinates>
          </Point>
        </Placemark>
        <Placemark>
          <name>EMOJI77 (EC45)</name>
          <description>Branch: &#xA;Altitude: 700 ft&#xA;Speed: 111.3 kts&#xA;Heading: 274.1&#xA;Mission: </description>
          <Point>
            <coordinates>-85.606707,31.270615,700</coordinates>
          </Point>
        </Placemark>
        <Placemark>
          <name>BERT10 (C30J)</name>
          <description>Branch: &#xA;Altitude: 15700 ft&#xA;Speed: 303.6 kts&#xA;Heading: 51.0&#xA;Mission: </description>
          <Point>
            <coordinates>-77.433628,36.008621,15700</coordinates>
          </Point>
        </Placemark>
        <Placemark>
          <name> ()</name>
          <description>Branch: &#xA;Altitude: 0 ft&#xA;Speed: 0.0 kts&#xA;Heading: 0.0&#xA;Mission: </description>
          <Point>
            <coordinates>0,0,0</coordinates>
          </Point>
        </Placemark>
        <Placemark>
          <name> (B762)</name>
          <description>Branch: &#xA;Altitude: 2750 ft&#xA;Speed: 0.0 kts&#xA;Heading: 0.0&#xA;Mission: </description>
          <Point>
            <coordinates>0,0,2750</coordinates>
          </Point>
        </Placemark>
        <Placemark>
          <name>BOLT78 (C150)</name>
          <description>Branch: &#xA;Altitude: 7375 ft&#xA;Speed: 103.2 kts&#xA;Heading: 343.7&#xA;Mission: </description>
          <Point>
            <coordinates>-104.806764,38.978943,7375</coordinates>
          </Point>
        </Placemark>
        <Placemark>
          <name>MC4006 (B737)</name>
          <description>Branch: &#xA;Altitude: 38000 ft&#xA;Speed: 403.0 kts&#xA;Heading: 246.0&#xA;Mission: </description>
          <Point>
            <coordinates>-167.542534,17.688847,38000</coordinates>
          </Point>
        </Placemark>
        <Placemark>
          <name>RUDY36 (V22)</name>
          <description>Branch: &#xA;Altitude: 9400 ft&#xA;Speed: 243.4 kts&#xA;Heading: 319.8&#xA;Mission: </description>
          <Point>
            <coordinates>-119.44364,34.710754,9400</coordinates>
          </Point>
        </Placemark>
        <Placemark>
          <name>RUDY24 (V22)</name>
          <description>Branch: &#xA;Altitude: 275 ft&#xA;Speed: 120.6 kts&#xA;Heading: 354.3&#xA;Mission: </description>
          <Point>
            <coordinates>-119.091625,34.106823,275</coordinates>
          </Point>
        </Placemark>
        <Placemark>
          <name>COBRA67 (T38)</name>
          <description>Branch: &#xA;Altitude: 3900 ft&#xA;Speed: 273.5 kts&#xA;Heading: 55.7&#xA;Mission: </description>
          <Point>
            <coordinates>-117.883133,34.880173,3900</coordinates>
          </Point>
        </Placemark>
        <Placemark>
          <name>SHARK71 (SR20)</name>
          <description>Branch: &#xA;Altitude: 8400 ft&#xA;Speed: 112.0 kts&#xA;Heading: 269.0&#xA;Mission: </description>
          <Point>
            <coordinates>-104.700662,38.842484,8400</coordinates>
          </Point>
        </Placemark>
        <Placemark>
          <name>ROVE33 (TEX2)</name>
          <description>Branch: &#xA;Altitude: 19050 ft&#xA;Speed: 273.0 kts&#xA;Heading: 57.4&#xA;Mission: </description>
          <Point>
            <coordinates>-100.06886,30.104355,19050</coordinates>
          </Point>
        </Placemark>
        <Placemark>
          <name>BELLS03 (EC45)</name>
          <description>Branch: &#xA;Altitude: 675 ft&#xA;Speed: 88.4 kts&#xA;Heading: 314.5&#xA;Mission: </description>
          <Point>
            <coordinates>-85.154645,30.811483,675</coordinates>
          </Point>
        </Placemark>
        <Placemark>
          <name> (C30J)</name>
          <description>Branch: &#xA;Altitude: 19000 ft&#xA;Speed: 305.0 kts&#xA;Heading: 29.0&#xA;Mission: </description>
          <Point>
            <coordinates>-75.865926,41.340866,19000</coordinates>
          </Point>
        </Placemark>
        <Placemark>
          <name>ICY76 (H60)</name>
          <description>Branch: &#xA;Altitude: 425 ft&#xA;Speed: 56.1 kts&#xA;Heading: 11.3&#xA;Mission: </description>
          <Point>
            <coordinates>-149.653604,61.265167,425</coordinates>
          </Point>
        </Placemark>
        <Placemark>
          <name> ()</name>
          <description>Branch: &#xA;Altitude: 27950 ft&#xA;Speed: 353.1 kts&#xA;Heading: 271.3&#xA;Mission: </description>
          <Point>
            <coordinates>-112.760151,47.454606,27950</coordinates>
          </Point>
        </Placemark>
        <Placemark>
          <name>FAST33 (T38)</name>
          <description>Branch: &#xA;Altitude: 6700 ft&#xA;Speed: 337.8 kts&#xA;Heading: 114.7&#xA;Mission: </description>
          <Point>
            <coordinates>-94.526487,39.264038,6700</coordinates>
          </Point>
        </Placemark>
        <Placemark>
          <name>IRON11 (TEX2)</name>
          <description>Branch: &#xA;Altitude: 10075 ft&#xA;Speed: 233.1 kts&#xA;Heading: 118.4&#xA;Mission: </description>
          <Point>
            <coordinates>-88.046796,33.153809,10075</coordinates>
          </Point>
        </Placemark>
        <Placemark>
          <name>KATT27 (TEX2)</name>
          <description>Branch: &#xA;Altitude: 1800 ft&#xA;Speed: 260.3 kts&#xA;Heading: 321.2&#xA;Mission: </description>
          <Point>
            <coordinates>-87.95918,30.855009,1800</coordinates>
          </Point>
        </Placemark>
        <Placemark>
          <name>R00257 (BE20)</name>
          <description>Branch: &#xA;Altitude: 25000 ft&#xA;Speed: 289.6 kts&#xA;Heading: 50.0&#xA;Mission: </description>
          <Point>
            <coordinates>-87.692299,36.781952,25000</coordinates>
          </Point>
        </Placemark>
        <Placemark>
          <name>BANDT62 (F5)</name>
          <description>Branch: &#xA;Altitude: 15775 ft&#xA;Speed: 397.2 kts&#xA;Heading: 341.2&#xA;Mission: </description>
          <Point>
            <coordinates>-81.930697,25.108881,15775</coordinates>
          </Point>
        </Placemark>
        <Placemark>
          <name>BB094 (TEX2)</name>
          <description>Branch: &#xA;Altitude: 12100 ft&#xA;Speed: 190.5 kts&#xA;Heading: 30.6&#xA;Mission: </description>
          <Point>
            <coordinates>-85.91572,32.151443,12100</coordinates>
          </Point>
        </Placemark>
        <Placemark>
          <name>RCH227 (C17)</name>
          <description>Branch: &#xA;Altitude: 27425 ft&#xA;Speed: 508.8 kts&#xA;Heading: 54.8&#xA;Mission: </description>
          <Point>
            <coordinates>-115.499554,34.018746,27425</coordinates>
          </Point>
        </Placemark>
        <Placemark>
          <name>PAT175 (BE20)</name>
          <description>Branch: &#xA;Altitude: 27000 ft&#xA;Speed: 286.3 kts&#xA;Heading: 39.5&#xA;Mission: </description>
          <Point>
            <coordinates>-96.483391,33.609695,27000</coordinates>
          </Point>
        </Placemark>
        <Placemark>
          <name>BLING32 (TEX2)</name>
          <description>Branch: &#xA;Altitude: 17750 ft&#xA;Speed: 232.0 kts&#xA;Heading: 287.4&#xA;Mission: </description>
          <Point>
            <coordinates>-88.887238,33.634922,17750</coordinates>
          </Point>
        </Placemark>
        <Placemark>
          <name>BELLS45 (EC45)</name>
          <description>Branch: &#xA;Altitude: 2075 ft&#xA;Speed: 92.2 kts&#xA;Heading: 15.1&#xA;Mission: </description>
          <Point>
            <coordinates>-85.567717,31.075562,2075</coordinates>
          </Point>
        </Placemark>
        <Placemark>
          <name> ()</name>
          <description>Branch: &#xA;Altitude: 31000 ft&#xA;Speed: 394.6 kts&#xA;Heading: 350.4&#xA;Mission: </description>
          <Point>
            <coordinates>-82.602795,31.434026,31000</coordinates>
          </Point>
        </Placemark>
        <Placemark>
          <name>C2301 (CN35)</name>
          <description>Branch: &#xA;Altitude: 1350 ft&#xA;Speed: 160.4 kts&#xA;Heading: 140.1&#xA;Mission: </description>
          <Point>
            <coordinates>-80.021771,25.471755,1350</coordinates>
          </Point>
        </Placemark>
        <Placemark>
          <name>FORGE78 (GLF5)</name>
          <description>Branch: &#xA;Altitude: 3400 ft&#xA;Speed: 205.6 kts&#xA;Heading: 107.5&#xA;Mission: </description>
          <Point>
            <coordinates>-75.353756,43.300232,3400</coordinates>
          </Point>
        </Placemark>
        <Placemark>
          <name>JOKER49 ()</name>
          <description>Branch: &#xA;Altitude: 825 ft&#xA;Speed: 111.4 kts&#xA;Heading: 291.0&#xA;Mission: </description>
          <Point>
            <coordinates>9.634564,49.740787,825</coordinates>
          </Point>
        </Placemark>
        <Placemark>
          <name>TIGER34 (TEX2)</name>
          <description>Branch: &#xA;Altitude: 6000 ft&#xA;Speed: 281.4 kts&#xA;Heading: 293.0&#xA;Mission: </description>
          <Point>
            <coordinates>-100.588882,29.055905,6000</coordinates>
          </Point>
        </Placemark>
        <Placemark>
          <name>DUKE81 (TEX2)</name>
          <description>Branch: &#xA;Altitude: 6400 ft&#xA;Speed: 230.7 kts&#xA;Heading: 137.1&#xA;Mission: </description>
          <Point>
            <coordinates>-97.555103,35.297424,6400</coordinates>
          </Point>
        </Placemark>
        <Placemark>
          <name>JDGMT88 (A400)</name>
          <description>Branch: &#xA;Altitude: 650 ft&#xA;Speed: 270.1 kts&#xA;Heading: 275.1&#xA;Mission: </description>
          <Point>
            <coordinates>-1.880875,52.237106,650</coordinates>
          </Point>
        </Placemark>
        <Placemark>
          <name>TEST1234 (TWR)</name>
          <description>Branch: &#xA;Altitude: 0 ft&#xA;Speed: 0.0 kts&#xA;Heading: 0.0&#xA;Mission: </description>
          <Point>
            <coordinates>0,0,0</coordinates>
          </Point>
        </Placemark>
        <Placemark>
          <name>TEST1234 ()</name>
          <description>Branch: &#xA;Altitude: 0 ft&#xA;Speed: 0.0 kts&#xA;Heading: 0.0&#xA;Mission: </description>
          <Point>
            <coordinates>0,0,0</coordinates>
          </Point>
        </Placemark>
        <Placemark>
          <name> (C130)</name>
          <description>Branch: &#xA;Altitude: 19000 ft&#xA;Speed: 0.0 kts&#xA;Heading: 0.0&#xA;Mission: </description>
          <Point>
            <coordinates>0,0,19000</coordinates>
          </Point>
        </Placemark>
        <Placemark>
          <name>T7ANG (GL7T)</name>
          <description>Branch: &#xA;Altitude: 20675 ft&#xA;Speed: 439.3 kts&#xA;Heading: 4.4&#xA;Mission: </description>
          <Point>
            <coordinates>58.639277,22.932724,20675</coordinates>
          </Point>
        </Placemark>
        <Placemark>
          <name>VKIN14 (TEX2)</name>
          <description>Branch: &#xA;Altitude: 1975 ft&#xA;Speed: 108.8 kts&#xA;Heading: 119.2&#xA;Mission: </description>
          <Point>
            <coordinates>-105.564302,50.328598,1975</coordinates>
          </Point>
        </Placemark>
        <Placemark>
          <name>DEVIL44 (TEX2)</name>
          <description>Branch: &#xA;Altitude: 4875 ft&#xA;Speed: 242.1 kts&#xA;Heading: 50.2&#xA;Mission: </description>
          <Point>
            <coordinates>-101.094237,29.554688,4875</coordinates>
          </Point>
        </Placemark>
        <Placemark>
          <name>NAIL77 (TEX2)</name>
          <description>Branch: &#xA;Altitude: 15775 ft&#xA;Speed: 180.0 kts&#xA;Heading: 249.5&#xA;Mission: </description>
          <Point>
            <coordinates>-88.693077,33.811615,15775</coordinates>
          </Point>
        </Placemark>
        <Placemark>
          <name>BONES22 (T38)</name>
          <description>Branch: &#xA;Altitude: 17200 ft&#xA;Speed: 458.0 kts&#xA;Heading: 180.5&#xA;Mission: </description>
          <Point>
            <coordinates>-87.821217,34.373241,17200</coordinates>
          </Point>
        </Placemark>
        <Placemark>
          <name>SH157 (TEX2)</name>
          <description>Branch: &#xA;Altitude: 6300 ft&#xA;Speed: 151.9 kts&#xA;Heading: 350.9&#xA;Mission: </description>
          <Point>
            <coordinates>-87.037152,31.398507,6300</coordinates>
          </Point>
        </Placemark>
        <Placemark>
          <name>TEXN089 (TEX2)</name>
          <description>Branch: &#xA;Altitude: 3375 ft&#xA;Speed: 253.7 kts&#xA;Heading: 197.4&#xA;Mission: </description>
          <Point>
            <coordinates>-86.883893,31.158623,3375</coordinates>
          </Point>
        </Placemark>
        <Placemark>
          <name>HUSK42 (A332)</name>
          <description>Branch: &#xA;Altitude: 125 ft&#xA;Speed: 118.4 kts&#xA;Heading: 236.7&#xA;Mission: </description>
          <Point>
            <coordinates>-75.628379,45.33252,125</coordinates>
          </Point>
        </Placemark>
        <Placemark>
          <name> (K35R)</name>
          <description>Branch: &#xA;Altitude: 34000 ft&#xA;Speed: 0.0 kts&#xA;Heading: 0.0&#xA;Mission: </description>
          <Point>
            <coordinates>0,0,34000</coordinates>
          </Point>
        </Placemark>
        <Placemark>
          <name>JAVAN45 (TEX2)</name>
          <description>Branch: &#xA;Altitude: 1675 ft&#xA;Speed: 112.4 kts&#xA;Heading: 168.2&#xA;Mission: </description>
          <Point>
            <coordinates>-96.377779,30.661057,1675</coordinates>
          </Point>
        </Placemark>
        <Placemark>
          <name> (H64)</name>
          <description>Branch: &#xA;Altitude: 0 ft&#xA;Speed: 0.0 kts&#xA;Heading: 0.0&#xA;Mission: </description>
          <Point>
            <coordinates>0,0,0</coordinates>
          </Point>
        </Placemark>
        <Placemark>
          <name> (C17)</name>
          <description>Branch: &#xA;Altitude: 4950 ft&#xA;Speed: 240.1 kts&#xA;Heading: 178.1&#xA;Mission: </description>
          <Point>
            <coordinates>0,0,4950</coordinates>
          </Point>
        </Placemark>
        <Placemark>
          <name>AXEL10 (GLEX)</name>
          <description>Branch: &#xA;Altitude: 5950 ft&#xA;Speed: 225.5 kts&#xA;Heading: 250.8&#xA;Mission: </description>
          <Point>
            <coordinates>-104.571442,33.284958,5950</coordinates>
          </Point>
        </Placemark>
        <Placemark>
          <name>DRAGN47 (TEX2)</name>
          <description>Branch: &#xA;Altitude: 3050 ft&#xA;Speed: 187.5 kts&#xA;Heading: 347.4&#xA;Mission: </description>
          <Point>
            <coordinates>-97.880178,36.212567,3050</coordinates>
          </Point>
        </Placemark>
        <Placemark>
          <name>MORPH15 (EC45)</name>
          <description>Branch: &#xA;Altitude: 0 ft&#xA;Speed: 30.0 kts&#xA;Heading: 1.2&#xA;Mission: </description>
          <Point>
            <coordinates>-85.712906,31.271805,0</coordinates>
          </Point>
        </Placemark>
        <Placemark>
          <name>RCH400 (C17)</name>
          <description>Branch: &#xA;Altitude: 31000 ft&#xA;Speed: 426.0 kts&#xA;Heading: 118.0&#xA;Mission: </description>
          <Point>
            <coordinates>4.230003,52.152804,31000</coordinates>
          </Point>
        </Placemark>
        <Placemark>
          <name>TEST1234 ()</name>
          <description>Branch: &#xA;Altitude: 0 ft&#xA;Speed: 0.0 kts&#xA;Heading: 0.0&#xA;Mission: </description>
          <Point>
            <coordinates>0,0,0</coordinates>
          </Point>
        </Placemark>
        <Placemark>
          <name>DEVIL02 (TEX2)</name>
          <description>Branch: &#xA;Altitude: 2100 ft&#xA;Speed: 199.1 kts&#xA;Heading: 128.9&#xA;Mission: </description>
          <Point>
            <coordinates>-100.804895,29.377808,2100</coordinates>
          </Point>
        </Placemark>
        <Placemark>
          <name>DEVIL26 (TEX2)</name>
          <description>Branch: &#xA;Altitude: 1075 ft&#xA;Speed: 106.8 kts&#xA;Heading: 135.4&#xA;Mission: </description>
          <Point>
            <coordinates>-100.787766,29.367293,1075</coordinates>
          </Point>
        </Placemark>
        <Placemark>
          <name>CODY06 (C17)</name>
          <description>Branch: &#xA;Altitude: 37025 ft&#xA;Speed: 0.0 kts&#xA;Heading: 0.0&#xA;Mission: </description>
          <Point>
            <coordinates>-98.114005,37.245866,37025</coordinates>
          </Point>
        </Placemark>
        <Placemark>
          <name>VV1E638 (A119)</name>
          <description>Branch: &#xA;Altitude: 525 ft&#xA;Speed: 105.2 kts&#xA;Heading: 176.2&#xA;Mission: </description>
          <Point>
            <coordinates>-86.965082,30.578768,525</coordinates>
          </Point>
        </Placemark>
        <Placemark>
          <name> (H60)</name>
          <description>Branch: &#xA;Altitude: 675 ft&#xA;Speed: 101.0 kts&#xA;Heading: 0.0&#xA;Mission: </description>
          <Point>
            <coordinates>-86.107269,31.268253,675</coordinates>
          </Point>
        </Placemark>
        <Placemark>
          <name> (EC45)</name>
          <description>Branch: &#xA;Altitude: 725 ft&#xA;Speed: 0.0 kts&#xA;Heading: 0.0&#xA;Mission: </description>
          <Point>
            <coordinates>-85.73919,31.136261,725</coordinates>
          </Point>
        </Placemark>
        <Placemark>
          <name>RRR4946 (A400)</name>
          <description>Branch: &#xA;Altitude: 3375 ft&#xA;Speed: 256.0 kts&#xA;Heading: 27.4&#xA;Mission: </description>
          <Point>
            <coordinates>0,0,3375</coordinates>
          </Point>
        </Placemark>
        <Placemark>
          <name>LS30 (H60)</name>
          <description>Branch: &#xA;Altitude: 1475 ft&#xA;Speed: 57.3 kts&#xA;Heading: 155.2&#xA;Mission: </description>
          <Point>
            <coordinates>-116.832458,32.641159,1475</coordinates>
          </Point>
        </Placemark>
        <Placemark>
          <name>BURNY03 (T38)</name>
          <description>Branch: &#xA;Altitude: 27000 ft&#xA;Speed: 492.6 kts&#xA;Heading: 120.4&#xA;Mission: </description>
          <Point>
            <coordinates>-101.051461,34.742615,27000</coordinates>
          </Point>
        </Placemark>
        <Placemark>
          <name>DEVIL20 (TEX2)</name>
          <description>Branch: &#xA;Altitude: 1075 ft&#xA;Speed: 105.4 kts&#xA;Heading: 133.8&#xA;Mission: </description>
          <Point>
            <coordinates>-100.789059,29.366409,1075</coordinates>
          </Point>
        </Placemark>
        <Placemark>
          <name>NICAD23 (EC45)</name>
          <description>Branch: &#xA;Altitude: 375 ft&#xA;Speed: 61.0 kts&#xA;Heading: 113.4&#xA;Mission: </description>
          <Point>
            <coordinates>-85.641121,31.229242,375</coordinates>
          </Point>
        </Placemark>
        <Placemark>
          <name>TEST1234 (TWR)</name>
          <description>Branch: &#xA;Altitude: 0 ft&#xA;Speed: 0.0 kts&#xA;Heading: 0.0&#xA;Mission: </description>
          <Point>
            <coordinates>0,0,0</coordinates>
          </Point>
        </Placemark>
        <Placemark>
          <name>LUZON41 (TEX2)</name>
          <description>Branch: &#xA;Altitude: 4850 ft&#xA;Speed: 175.0 kts&#xA;Heading: 159.6&#xA;Mission: </description>
          <Point>
            <coordinates>-98.256437,29.43782,4850</coordinates>
          </Point>
        </Placemark>
        <Placemark>
          <name>HANG51 (TEX2)</name>
          <description>Branch: &#xA;Altitude: 17200 ft&#xA;Speed: 280.4 kts&#xA;Heading: 117.4&#xA;Mission: </description>
          <Point>
            <coordinates>-97.761555,36.109085,17200</coordinates>
          </Point>
        </Placemark>
        <Placemark>
          <name>STGRY22 (BE9L)</name>
          <description>Branch: &#xA;Altitude: 6925 ft&#xA;Speed: 226.0 kts&#xA;Heading: 39.4&#xA;Mission: </description>
          <Point>
            <coordinates>-97.168472,28.206652,6925</coordinates>
          </Point>
        </Placemark>
        <Placemark>
          <name>VV8E029 (A119)</name>
          <description>Branch: &#xA;Altitude: 2275 ft&#xA;Speed: 119.6 kts&#xA;Heading: 249.4&#xA;Mission: </description>
          <Point>
            <coordinates>-87.355203,30.263306,2275</coordinates>
          </Point>
        </Placemark>
        <Placemark>
          <name>EVAL63 (H60)</name>
          <description>Branch: &#xA;Altitude: 450 ft&#xA;Speed: 14.3 kts&#xA;Heading: 347.9&#xA;Mission: </description>
          <Point>
            <coordinates>-86.685884,34.683151,450</coordinates>
          </Point>
        </Placemark>
        <Placemark>
          <name>CEF624 (C295)</name>
          <description>Branch: &#xA;Altitude: 21000 ft&#xA;Speed: 265.2 kts&#xA;Heading: 142.3&#xA;Mission: </description>
          <Point>
            <coordinates>22.293549,45.203339,21000</coordinates>
          </Point>
        </Placemark>
        <Placemark>
          <name>TEX02 (TEX2)</name>
          <description>Branch: &#xA;Altitude: 13975 ft&#xA;Speed: 275.8 kts&#xA;Heading: 18.2&#xA;Mission: </description>
          <Point>
            <coordinates>175.165837,-39.78447,13975</coordinates>
          </Point>
        </Placemark>
        <Placemark>
          <name>C6562 (AS65)</name>
          <description>Branch: &#xA;Altitude: 875 ft&#xA;Speed: 135.1 kts&#xA;Heading: 227.1&#xA;Mission: </description>
          <Point>
            <coordinates>-121.893311,38.410531,875</coordinates>
          </Point>
        </Placemark>
        <Placemark>
          <name>C6058 (H60)</name>
          <description>Branch: &#xA;Altitude: 0 ft&#xA;Speed: 9.9 kts&#xA;Heading: 225.0&#xA;Mission: </description>
          <Point>
            <coordinates>-119.109453,34.130173,0</coordinates>
          </Point>
        </Placemark>
        <Placemark>
          <name>WATTS74 (EC45)</name>
          <description>Branch: &#xA;Altitude: 1800 ft&#xA;Speed: 83.9 kts&#xA;Heading: 140.8&#xA;Mission: </description>
          <Point>
            <coordinates>-111.749791,32.956983,1800</coordinates>
          </Point>
        </Placemark>
        <Placemark>
          <name>C6586 (AS65)</name>
          <description>Branch: &#xA;Altitude: 100 ft&#xA;Speed: 69.4 kts&#xA;Heading: 143.8&#xA;Mission: </description>
          <Point>
            <coordinates>-87.815875,30.569687,100</coordinates>
          </Point>
        </Placemark>
        <Placemark>
          <name>BELLS37 (EC45)</name>
          <description>Branch: &#xA;Altitude: 2875 ft&#xA;Speed: 98.6 kts&#xA;Heading: 40.5&#xA;Mission: </description>
          <Point>
            <coordinates>-85.234515,31.84845,2875</coordinates>
          </Point>
        </Placemark>
        <Placemark>
          <name>SWIFT5 (TUCA)</name>
          <description>Branch: &#xA;Altitude: 0 ft&#xA;Speed: 0.0 kts&#xA;Heading: 0.0&#xA;Mission: </description>
          <Point>
            <coordinates>0,0,0</coordinates>
          </Point>
        </Placemark>
        <Placemark>
          <name> (H64)</name>
          <description>Branch: &#xA;Altitude: 2000 ft&#xA;Speed: 145.0 kts&#xA;Heading: 235.0&#xA;Mission: </description>
          <Point>
            <coordinates>-123.06391,47.34014,2000</coordinates>
          </Point>
        </Placemark>
        <Placemark>
          <name>SHARK52 (SR20)</name>
          <description>Branch: &#xA;Altitude: 0 ft&#xA;Speed: 0.0 kts&#xA;Heading: 0.0&#xA;Mission: </description>
          <Point>
            <coordinates>-104.813995,38.972265,0</coordinates>
          </Point>
        </Placemark>
        <Placemark>
          <name>JEDDA55 (TEX2)</name>
          <description>Branch: &#xA;Altitude: 5950 ft&#xA;Speed: 248.6 kts&#xA;Heading: 306.8&#xA;Mission: </description>
          <Point>
            <coordinates>-99.501484,28.656967,5950</coordinates>
          </Point>
        </Placemark>
        <Placemark>
          <name>RCH736 (C17)</name>
          <description>Branch: &#xA;Altitude: 10575 ft&#xA;Speed: 316.0 kts&#xA;Heading: 23.0&#xA;Mission: </description>
          <Point>
            <coordinates>-79.92389,33.146386,10575</coordinates>
          </Point>
        </Placemark>
        <Placemark>
          <name>RCH409 (C17)</name>
          <description>Branch: &#xA;Altitude: 36000 ft&#xA;Speed: 411.0 kts&#xA;Heading: 355.0&#xA;Mission: </description>
          <Point>
            <coordinates>23.902377,40.167302,36000</coordinates>
          </Point>
        </Placemark>
        <Placemark>
          <name>LOOT44 (TEX2)</name>
          <description>Branch: &#xA;Altitude: 5950 ft&#xA;Speed: 227.2 kts&#xA;Heading: 128.0&#xA;Mission: </description>
          <Point>
            <coordinates>-97.56958,36.567673,5950</coordinates>
          </Point>
        </Placemark>
        <Placemark>
          <name>CARD11 (T38)</name>
          <description>Branch: &#xA;Altitude: 16200 ft&#xA;Speed: 467.1 kts&#xA;Heading: 14.6&#xA;Mission: </description>
          <Point>
            <coordinates>-97.124257,29.147334,16200</coordinates>
          </Point>
        </Placemark>
        <Placemark>
          <name>NA31 (T38)</name>
          <description>Branch: &#xA;Altitude: 15725 ft&#xA;Speed: 437.0 kts&#xA;Heading: 203.8&#xA;Mission: </description>
          <Point>
            <coordinates>-87.802959,33.720657,15725</coordinates>
          </Point>
        </Placemark>
        <Placemark>
          <name>CHEWY31 (TEX2)</name>
          <description>Branch: &#xA;Altitude: 14375 ft&#xA;Speed: 215.8 kts&#xA;Heading: 163.6&#xA;Mission: </description>
          <Point>
            <coordinates>-87.648764,30.437119,14375</coordinates>
          </Point>
        </Placemark>
        <Placemark>
          <name>RN065 (TEX2)</name>
          <description>Branch: &#xA;Altitude: 4300 ft&#xA;Speed: 252.9 kts&#xA;Heading: 202.3&#xA;Mission: </description>
          <Point>
            <coordinates>-86.90471,31.33786,4300</coordinates>
          </Point>
        </Placemark>
        <Placemark>
          <name>ICY97 (H60)</name>
          <description>Branch: &#xA;Altitude: 1800 ft&#xA;Speed: 0.0 kts&#xA;Heading: 0.0&#xA;Mission: </description>
          <Point>
            <coordinates>0,0,1800</coordinates>
          </Point>
        </Placemark>
        <Placemark>
          <name>B0BCT71 ()</name>
          <description>Branch: &#xA;Altitude: 11875 ft&#xA;Speed: 0.0 kts&#xA;Heading: 0.0&#xA;Mission: </description>
          <Point>
            <coordinates>0,0,11875</coordinates>
          </Point>
        </Placemark>
        <Placemark>
          <name>TEST1234 ()</name>
          <description>Branch: &#xA;Altitude: 0 ft&#xA;Speed: 0.0 kts&#xA;Heading: 0.0&#xA;Mission: </description>
          <Point>
            <coordinates>0,0,0</coordinates>
          </Point>
        </Placemark>
        <Placemark>
          <name>SHF470 (H47)</name>
          <description>Branch: &#xA;Altitude: 1850 ft&#xA;Speed: 91.0 kts&#xA;Heading: 273.0&#xA;Mission: </description>
          <Point>
            <coordinates>-0.976109,51.23539,1850</coordinates>
          </Point>
        </Placemark>
        <Placemark>
          <name>APLQ3 (TEX2)</name>
          <description>Branch: &#xA;Altitude: 12050 ft&#xA;Speed: 242.2 kts&#xA;Heading: 260.7&#xA;Mission: </description>
          <Point>
            <coordinates>-106.859532,50.488953,12050</coordinates>
          </Point>
        </Placemark>
        <Placemark>
          <name>SHARK40 (SR20)</name>
          <description>Branch: &#xA;Altitude: 9650 ft&#xA;Speed: 147.7 kts&#xA;Heading: 95.4&#xA;Mission: </description>
          <Point>
            <coordinates>-104.319397,38.916647,9650</coordinates>
          </Point>
        </Placemark>
        <Placemark>
          <name>HAWK219 (HAWK)</name>
          <description>Branch: &#xA;Altitude: 6250 ft&#xA;Speed: 269.4 kts&#xA;Heading: 118.8&#xA;Mission: </description>
          <Point>
            <coordinates>-98.116824,27.763138,6250</coordinates>
          </Point>
        </Placemark>
        <Placemark>
          <name>LOOT77 (BE40)</name>
          <description>Branch: &#xA;Altitude: 28000 ft&#xA;Speed: 443.7 kts&#xA;Heading: 353.7&#xA;Mission: </description>
          <Point>
            <coordinates>-97.671148,33.801544,28000</coordinates>
          </Point>
        </Placemark>
        <Placemark>
          <name>C6585 (AS65)</name>
          <description>Branch: &#xA;Altitude: 175 ft&#xA;Speed: 60.9 kts&#xA;Heading: 156.8&#xA;Mission: </description>
          <Point>
            <coordinates>-88.072998,30.404384,175</coordinates>
          </Point>
        </Placemark>
        <Placemark>
          <name>JEDI01 ()</name>
          <description>Branch: &#xA;Altitude: 6250 ft&#xA;Speed: 251.1 kts&#xA;Heading: 181.8&#xA;Mission: </description>
          <Point>
            <coordinates>-87.984833,31.133438,6250</coordinates>
          </Point>
        </Placemark>
        <Placemark>
          <name>KATT22 (TEX2)</name>
          <description>Branch: &#xA;Altitude: 6250 ft&#xA;Speed: 228.2 kts&#xA;Heading: 189.6&#xA;Mission: </description>
          <Point>
            <coordinates>-86.445264,30.413834,6250</coordinates>
          </Point>
        </Placemark>
        <Placemark>
          <name>FFAB123 (H60)</name>
          <description>Branch: &#xA;Altitude: 450 ft&#xA;Speed: 73.0 kts&#xA;Heading: 90.8&#xA;Mission: </description>
          <Point>
            <coordinates>-81.633373,30.392258,450</coordinates>
          </Point>
        </Placemark>
        <Placemark>
          <name>LANCE72 (T38)</name>
          <description>Branch: &#xA;Altitude: 16425 ft&#xA;Speed: 529.9 kts&#xA;Heading: 339.1&#xA;Mission: </description>
          <Point>
            <coordinates>-99.410519,33.508347,16425</coordinates>
          </Point>
        </Placemark>
        <Placemark>
          <name>EVIL81 (TEX2)</name>
          <description>Branch: &#xA;Altitude: 3875 ft&#xA;Speed: 203.2 kts&#xA;Heading: 191.6&#xA;Mission: </description>
          <Point>
            <coordinates>-97.614956,36.39679,3875</coordinates>
          </Point>
        </Placemark>
        <Placemark>
          <name>G20686 (H60)</name>
          <description>Branch: &#xA;Altitude: 4775 ft&#xA;Speed: 108.7 kts&#xA;Heading: 190.1&#xA;Mission: </description>
          <Point>
            <coordinates>-81.901568,29.637249,4775</coordinates>
          </Point>
        </Placemark>
        <Placemark>
          <name> (K35R)</name>
          <description>Branch: &#xA;Altitude: 0 ft&#xA;Speed: 0.0 kts&#xA;Heading: 0.0&#xA;Mission: </description>
          <Point>
            <coordinates>0,0,0</coordinates>
          </Point>
        </Placemark>
        <Placemark>
          <name>00000000 ()</name>
          <description>Branch: &#xA;Altitude: 70000 ft&#xA;Speed: 0.7 kts&#xA;Heading: 0.0&#xA;Mission: </description>
          <Point>
            <coordinates>0,0,70000</coordinates>
          </Point>
        </Placemark>
        <Placemark>
          <name>FAST34 (T38)</name>
          <description>Branch: &#xA;Altitude: 1500 ft&#xA;Speed: 0.0 kts&#xA;Heading: 0.0&#xA;Mission: </description>
          <Point>
            <coordinates>0,0,1500</coordinates>
          </Point>
        </Placemark>
        <Placemark>
          <name> (P3)</name>
          <description>Branch: &#xA;Altitude: 22000 ft&#xA;Speed: 0.0 kts&#xA;Heading: 0.0&#xA;Mission: </description>
          <Point>
            <coordinates>0,0,22000</coordinates>
          </Point>
        </Placemark>
        <Placemark>
          <name>N5916J (C172)</name>
          <description>Branch: &#xA;Altitude: 2050 ft&#xA;Speed: 94.4 kts&#xA;Heading: 143.6&#xA;Mission: </description>
          <Point>
            <coordinates>-86.703662,30.839414,2050</coordinates>
          </Point>
        </Placemark>
        <Placemark>
          <name>R20043 (H60)</name>
          <description>Branch: &#xA;Altitude: 7375 ft&#xA;Speed: 140.2 kts&#xA;Heading: 97.4&#xA;Mission: </description>
          <Point>
            <coordinates>-107.596527,31.821442,7375</coordinates>
          </Point>
        </Placemark>
        <Placemark>
          <name> (TEX2)</name>
          <description>Branch: &#xA;Altitude: 1050 ft&#xA;Speed: 232.0 kts&#xA;Heading: 4.3&#xA;Mission: </description>
          <Point>
            <coordinates>-87.000571,30.755173,1050</coordinates>
          </Point>
        </Placemark>
        <Placemark>
          <name>MORPH22 (EC45)</name>
          <description>Branch: &#xA;Altitude: 850 ft&#xA;Speed: 82.2 kts&#xA;Heading: 193.4&#xA;Mission: </description>
          <Point>
            <coordinates>-85.64848,31.192606,850</coordinates>
          </Point>
        </Placemark>
        <Placemark>
          <name>TEST1234 ()</name>
          <description>Branch: &#xA;Altitude: 0 ft&#xA;Speed: 0.0 kts&#xA;Heading: 0.0&#xA;Mission: </description>
          <Point>
            <coordinates>0,0,0</coordinates>
          </Point>
        </Placemark>
        <Placemark>
          <name>TEST1234 ()</name>
          <description>Branch: &#xA;Altitude: 0 ft&#xA;Speed: 0.0 kts&#xA;Heading: 0.0&#xA;Mission: </description>
          <Point>
            <coordinates>0,0,0</coordinates>
          </Point>
        </Placemark>
        <Placemark>
          <name>VV7E264 (A119)</name>
          <description>Branch: &#xA;Altitude: 475 ft&#xA;Speed: 0.0 kts&#xA;Heading: 0.0&#xA;Mission: </description>
          <Point>
            <coordinates>-86.932983,30.709122,475</coordinates>
          </Point>
        </Placemark>
        <Placemark>
          <name>MESSY13 (EC45)</name>
          <description>Branch: &#xA;Altitude: 750 ft&#xA;Speed: 98.0 kts&#xA;Heading: 245.3&#xA;Mission: </description>
          <Point>
            <coordinates>-85.56567,31.211792,750</coordinates>
          </Point>
        </Placemark>
        <Placemark>
          <name>RCH199 (C17)</name>
          <description>Branch: &#xA;Altitude: 30000 ft&#xA;Speed: 0.0 kts&#xA;Heading: 0.0&#xA;Mission: </description>
          <Point>
            <coordinates>0,0,30000</coordinates>
          </Point>
        </Placemark>
        <Placemark>
          <name>N7874N (C172)</name>
          <description>Branch: &#xA;Altitude: 6900 ft&#xA;Speed: 62.0 kts&#xA;Heading: 181.8&#xA;Mission: </description>
          <Point>
            <coordinates>-104.685078,38.847473,6900</coordinates>
          </Point>
        </Placemark>
        <Placemark>
          <name>SWOOP71 (TEX2)</name>
          <description>Branch: &#xA;Altitude: 7075 ft&#xA;Speed: 239.2 kts&#xA;Heading: 253.2&#xA;Mission: </description>
          <Point>
            <coordinates>-100.468032,29.467567,7075</coordinates>
          </Point>
        </Placemark>
        <Placemark>
          <name>RANDY78 (T38)</name>
          <description>Branch: &#xA;Altitude: 1800 ft&#xA;Speed: 293.1 kts&#xA;Heading: 195.8&#xA;Mission: </description>
          <Point>
            <coordinates>-97.819734,31.030701,1800</coordinates>
          </Point>
        </Placemark>
        <Placemark>
          <name>VV7E719 (A119)</name>
          <description>Branch: &#xA;Altitude: 250 ft&#xA;Speed: 131.0 kts&#xA;Heading: 320.2&#xA;Mission: </description>
          <Point>
            <coordinates>-87.158386,30.361183,250</coordinates>
          </Point>
        </Placemark>
        <Placemark>
          <name>GAF305 (C30J)</name>
          <description>Branch: &#xA;Altitude: 25000 ft&#xA;Speed: 331.5 kts&#xA;Heading: 24.8&#xA;Mission: </description>
          <Point>
            <coordinates>-63.899809,48.821985,25000</coordinates>
          </Point>
        </Placemark>
        <Placemark>
          <name> ()</name>
          <description>Branch: &#xA;Altitude: 83000 ft&#xA;Speed: 0.0 kts&#xA;Heading: 0.0&#xA;Mission: </description>
          <Point>
            <coordinates>0,0,83000</coordinates>
          </Point>
        </Placemark>
        <Placemark>
          <name>FANNY67 (TEX2)</name>
          <description>Branch: &#xA;Altitude: 1075 ft&#xA;Speed: 201.3 kts&#xA;Heading: 218.8&#xA;Mission: </description>
          <Point>
            <coordinates>-98.276367,29.503132,1075</coordinates>
          </Point>
        </Placemark>
        <Placemark>
          <name> (H60)</name>
          <description>Branch: &#xA;Altitude: 0 ft&#xA;Speed: 0.0 kts&#xA;Heading: 0.0&#xA;Mission: </description>
          <Point>
            <coordinates>0,0,0</coordinates>
          </Point>
        </Placemark>
        <Placemark>
          <name> (EC45)</name>
          <description>Branch: &#xA;Altitude: 1875 ft&#xA;Speed: 1.2 kts&#xA;Heading: 0.0&#xA;Mission: </description>
          <Point>
            <coordinates>-111.485895,32.666171,1875</coordinates>
          </Point>
        </Placemark>
        <Placemark>
          <name>RCH703 (C17)</name>
          <description>Branch: &#xA;Altitude: 29000 ft&#xA;Speed: 424.5 kts&#xA;Heading: 107.0&#xA;Mission: </description>
          <Point>
            <coordinates>12.671934,49.769119,29000</coordinates>
          </Point>
        </Placemark>
        <Placemark>
          <name>TEST1234 ()</name>
          <description>Branch: &#xA;Altitude: 0 ft&#xA;Speed: 0.0 kts&#xA;Heading: 0.0&#xA;Mission: </description>
          <Point>
            <coordinates>0,0,0</coordinates>
          </Point>
        </Placemark>
        <Placemark>
          <name> ()</name>
          <description>Branch: &#xA;Altitude: 0 ft&#xA;Speed: 0.0 kts&#xA;Heading: 0.0&#xA;Mission: </description>
          <Point>
            <coordinates>0,0,0</coordinates>
          </Point>
        </Placemark>
        <Placemark>
          <name>LEPD31 (TEX2)</name>
          <description>Branch: &#xA;Altitude: 2775 ft&#xA;Speed: 169.1 kts&#xA;Heading: 39.2&#xA;Mission: </description>
          <Point>
            <coordinates>-105.711172,50.321823,2775</coordinates>
          </Point>
        </Placemark>
        <Placemark>
          <name>KOTA33 (H60)</name>
          <description>Branch: &#xA;Altitude: 3550 ft&#xA;Speed: 115.4 kts&#xA;Heading: 137.5&#xA;Mission: </description>
          <Point>
            <coordinates>-100.846458,46.847426,3550</coordinates>
          </Point>
        </Placemark>
        <Placemark>
          <name>MESSY23 (EC45)</name>
          <description>Branch: &#xA;Altitude: 500 ft&#xA;Speed: 33.2 kts&#xA;Heading: 68.8&#xA;Mission: </description>
          <Point>
            <coordinates>-85.565293,31.224106,500</coordinates>
          </Point>
        </Placemark>
        <Placemark>
          <name>82037 (A124)</name>
          <description>Branch: &#xA;Altitude: 27200 ft&#xA;Speed: 0.0 kts&#xA;Heading: 0.0&#xA;Mission: </description>
          <Point>
            <coordinates>0,0,27200</coordinates>
          </Point>
        </Placemark>
        <Placemark>
          <name>N453SP (C172)</name>
          <description>Branch: &#xA;Altitude: 1650 ft&#xA;Speed: 87.2 kts&#xA;Heading: 183.9&#xA;Mission: </description>
          <Point>
            <coordinates>-149.519246,61.44914,1650</coordinates>
          </Point>
        </Placemark>
        <Placemark>
          <name> (H47)</name>
          <description>Branch: &#xA;Altitude: 0 ft&#xA;Speed: 0.0 kts&#xA;Heading: 0.0&#xA;Mission: </description>
          <Point>
            <coordinates>0,0,0</coordinates>
          </Point>
        </Placemark>
        <Placemark>
          <name>TETON38 (C130)</name>
          <description>Branch: &#xA;Altitude: 21000 ft&#xA;Speed: 300.5 kts&#xA;Heading: 160.4&#xA;Mission: </description>
          <Point>
            <coordinates>-101.760864,36.972113,21000</coordinates>
          </Point>
        </Placemark>
        <Placemark>
          <name>BRACE32 (H60)</name>
          <description>Branch: &#xA;Altitude: 350 ft&#xA;Speed: 105.5 kts&#xA;Heading: 238.6&#xA;Mission: </description>
          <Point>
            <coordinates>-117.239536,32.65686,350</coordinates>
          </Point>
        </Placemark>
        <Placemark>
          <name>PAT979 (SW4)</name>
          <description>Branch: &#xA;Altitude: 18000 ft&#xA;Speed: 266.3 kts&#xA;Heading: 252.5&#xA;Mission: </description>
          <Point>
            <coordinates>-91.883987,31.958716,18000</coordinates>
          </Point>
        </Placemark>
        <Placemark>
          <name>QUESO82 (C560)</name>
          <description>Branch: &#xA;Altitude: 36000 ft&#xA;Speed: 366.5 kts&#xA;Heading: 252.2&#xA;Mission: </description>
          <Point>
            <coordinates>-91.339893,32.706665,36000</coordinates>
          </Point>
        </Placemark>
        <Placemark>
          <name>ROKT41 ()</name>
          <description>Branch: &#xA;Altitude: 6850 ft&#xA;Speed: 309.2 kts&#xA;Heading: 132.8&#xA;Mission: </description>
          <Point>
            <coordinates>-88.553413,30.721939,6850</coordinates>
          </Point>
        </Placemark>
        <Placemark>
          <name> (H47)</name>
          <description>Branch: &#xA;Altitude: 1800 ft&#xA;Speed: 132.0 kts&#xA;Heading: 264.0&#xA;Mission: </description>
          <Point>
            <coordinates>-88.439612,41.810446,1800</coordinates>
          </Point>
        </Placemark>
        <Placemark>
          <name>SONIC12 (TEX2)</name>
          <description>Branch: &#xA;Altitude: 10225 ft&#xA;Speed: 211.3 kts&#xA;Heading: 183.3&#xA;Mission: </description>
          <Point>
            <coordinates>-88.260405,33.087655,10225</coordinates>
          </Point>
        </Placemark>
        <Placemark>
          <name>CHEWY44 (TEX2)</name>
          <description>Branch: &#xA;Altitude: 4250 ft&#xA;Speed: 248.2 kts&#xA;Heading: 240.0&#xA;Mission: </description>
          <Point>
            <coordinates>-87.430408,31.437983,4250</coordinates>
          </Point>
        </Placemark>
        <Placemark>
          <name>RCH719 (K35R)</name>
          <description>Branch: &#xA;Altitude: 27000 ft&#xA;Speed: 563.0 kts&#xA;Heading: 73.0&#xA;Mission: </description>
          <Point>
            <coordinates>-73.09695,42.906426,27000</coordinates>
          </Point>
        </Placemark>
        <Placemark>
          <name>BOXER19 (TEX2)</name>
          <description>Branch: &#xA;Altitude: 4050 ft&#xA;Speed: 246.1 kts&#xA;Heading: 315.0&#xA;Mission: </description>
          <Point>
            <coordinates>-100.749383,29.58316,4050</coordinates>
          </Point>
        </Placemark>
        <Placemark>
          <name> (H60)</name>
          <description>Branch: &#xA;Altitude: 650 ft&#xA;Speed: 84.6 kts&#xA;Heading: 144.6&#xA;Mission: </description>
          <Point>
            <coordinates>-87.50885,36.662867,650</coordinates>
          </Point>
        </Placemark>
        <Placemark>
          <name>VV8E730 (A119)</name>
          <description>Branch: &#xA;Altitude: 1525 ft&#xA;Speed: 86.1 kts&#xA;Heading: 74.5&#xA;Mission: </description>
          <Point>
            <coordinates>-86.946016,30.550003,1525</coordinates>
          </Point>
        </Placemark>
        <Placemark>
          <name>COMT451 (A400)</name>
          <description>Branch: &#xA;Altitude: 1000 ft&#xA;Speed: 261.0 kts&#xA;Heading: 21.5&#xA;Mission: </description>
          <Point>
            <coordinates>-4.623489,51.087681,1000</coordinates>
          </Point>
        </Placemark>
        <Placemark>
          <name>SYS52 (EC35)</name>
          <description>Branch: &#xA;Altitude: 425 ft&#xA;Speed: 39.1 kts&#xA;Heading: 230.2&#xA;Mission: </description>
          <Point>
            <coordinates>-2.422564,52.840887,425</coordinates>
          </Point>
        </Placemark>
        <Placemark>
          <name>TEXSIL (TEX2)</name>
          <description>Branch: &#xA;Altitude: 11725 ft&#xA;Speed: 256.0 kts&#xA;Heading: 287.3&#xA;Mission: </description>
          <Point>
            <coordinates>173.754593,-41.671375,11725</coordinates>
          </Point>
        </Placemark>
        <Placemark>
          <name> (B350)</name>
          <description>Branch: &#xA;Altitude: 0 ft&#xA;Speed: 0.0 kts&#xA;Heading: 0.0&#xA;Mission: </description>
          <Point>
            <coordinates>0,0,0</coordinates>
          </Point>
        </Placemark>
        <Placemark>
          <name> ()</name>
          <description>Branch: &#xA;Altitude: 0 ft&#xA;Speed: 0.0 kts&#xA;Heading: 0.0&#xA;Mission: </description>
          <Point>
            <coordinates>0,0,0</coordinates>
          </Point>
        </Placemark>
        <Placemark>
          <name>C6531 (AS65)</name>
          <description>Branch: &#xA;Altitude: 0 ft&#xA;Speed: 0.0 kts&#xA;Heading: 0.0&#xA;Mission: </description>
          <Point>
            <coordinates>-122.04588,37.411904,0</coordinates>
          </Point>
        </Placemark>
        <Placemark>
          <name>RN148 (TEX2)</name>
          <description>Branch: &#xA;Altitude: 7300 ft&#xA;Speed: 230.3 kts&#xA;Heading: 354.0&#xA;Mission: </description>
          <Point>
            <coordinates>-87.318367,31.236053,7300</coordinates>
          </Point>
        </Placemark>
        <Placemark>
          <name>PAT841 (BE20)</name>
          <description>Branch: &#xA;Altitude: 27000 ft&#xA;Speed: 310.9 kts&#xA;Heading: 58.8&#xA;Mission: </description>
          <Point>
            <coordinates>-74.826476,42.289077,27000</coordinates>
          </Point>
        </Placemark>
        <Placemark>
          <name>SKULL82 (H60)</name>
          <description>Branch: &#xA;Altitude: 0 ft&#xA;Speed: 0.0 kts&#xA;Heading: 0.0&#xA;Mission: </description>
          <Point>
            <coordinates>-106.593111,35.048435,0</coordinates>
          </Point>
        </Placemark>
        <Placemark>
          <name>HAWK239 (HAWK)</name>
          <description>Branch: &#xA;Altitude: 0 ft&#xA;Speed: 0.0 kts&#xA;Heading: 0.0&#xA;Mission: </description>
          <Point>
            <coordinates>0,0,0</coordinates>
          </Point>
        </Placemark>
        <Placemark>
          <name>SH046 (TEX2)</name>
          <description>Branch: &#xA;Altitude: 3200 ft&#xA;Speed: 246.9 kts&#xA;Heading: 193.6&#xA;Mission: </description>
          <Point>
            <coordinates>-87.254764,31.098679,3200</coordinates>
          </Point>
        </Placemark>
        <Placemark>
          <name>R08461 (H47)</name>
          <description>Branch: &#xA;Altitude: 5050 ft&#xA;Speed: 146.8 kts&#xA;Heading: 95.9&#xA;Mission: </description>
          <Point>
            <coordinates>-74.281703,44.73111,5050</coordinates>
          </Point>
        </Placemark>
        <Placemark>
          <name> (EC45)</name>
          <description>Branch: &#xA;Altitude: 0 ft&#xA;Speed: 64.7 kts&#xA;Heading: 58.3&#xA;Mission: </description>
          <Point>
            <coordinates>0,0,0</coordinates>
          </Point>
        </Placemark>
        <Placemark>
          <name>XA405 (A332)</name>
          <description>Branch: &#xA;Altitude: 30000 ft&#xA;Speed: 472.0 kts&#xA;Heading: 209.0&#xA;Mission: </description>
          <Point>
            <coordinates>-160.937691,18.189411,30000</coordinates>
          </Point>
        </Placemark>
        <Placemark>
          <name>BDIT304 (TEX2)</name>
          <description>Branch: &#xA;Altitude: 2975 ft&#xA;Speed: 163.6 kts&#xA;Heading: 286.3&#xA;Mission: </description>
          <Point>
            <coordinates>-105.54457,50.309326,2975</coordinates>
          </Point>
        </Placemark>
        <Placemark>
          <name>VV1E018 (A119)</name>
          <description>Branch: &#xA;Altitude: 425 ft&#xA;Speed: 98.0 kts&#xA;Heading: 71.8&#xA;Mission: </description>
          <Point>
            <coordinates>-87.512367,30.884104,425</coordinates>
          </Point>
        </Placemark>
        <Placemark>
          <name>VV1E037 (A119)</name>
          <description>Branch: &#xA;Altitude: 650 ft&#xA;Speed: 93.1 kts&#xA;Heading: 3.1&#xA;Mission: </description>
          <Point>
            <coordinates>-87.022375,30.672664,650</coordinates>
          </Point>
        </Placemark>
        <Placemark>
          <name>CAPE10 (H60)</name>
          <description>Branch: &#xA;Altitude: 0 ft&#xA;Speed: 99.0 kts&#xA;Heading: 354.6&#xA;Mission: </description>
          <Point>
            <coordinates>-86.023651,31.283249,0</coordinates>
          </Point>
        </Placemark>
        <Placemark>
          <name>MESSY77 (EC45)</name>
          <description>Branch: &#xA;Altitude: 900 ft&#xA;Speed: 88.4 kts&#xA;Heading: 248.1&#xA;Mission: </description>
          <Point>
            <coordinates>-85.564647,31.242279,900</coordinates>
          </Point>
        </Placemark>
        <Placemark>
          <name>TEX11 (TEX2)</name>
          <description>Branch: &#xA;Altitude: 250 ft&#xA;Speed: 135.4 kts&#xA;Heading: 289.0&#xA;Mission: </description>
          <Point>
            <coordinates>175.385315,-40.205612,250</coordinates>
          </Point>
        </Placemark>
        <Placemark>
          <name> ()</name>
          <description>Branch: &#xA;Altitude: 80000 ft&#xA;Speed: 0.0 kts&#xA;Heading: 0.0&#xA;Mission: </description>
          <Point>
            <coordinates>0,0,80000</coordinates>
          </Point>
        </Placemark>
        <Placemark>
          <name>PAT486 (BE20)</name>
          <description>Branch: &#xA;Altitude: 0 ft&#xA;Speed: 0.0 kts&#xA;Heading: 0.0&#xA;Mission: </description>
          <Point>
            <coordinates>-106.087375,35.623077,0</coordinates>
          </Point>
        </Placemark>
        <Placemark>
          <name>KENT05 (T38)</name>
          <description>Branch: &#xA;Altitude: 15950 ft&#xA;Speed: 134.9 kts&#xA;Heading: 156.9&#xA;Mission: </description>
          <Point>
            <coordinates>-99.008285,33.690582,15950</coordinates>
          </Point>
        </Placemark>
        <Placemark>
          <name>CHAMP55 (H60)</name>
          <description>Branch: &#xA;Altitude: 900 ft&#xA;Speed: 121.0 kts&#xA;Heading: 1.4&#xA;Mission: </description>
          <Point>
            <coordinates>-87.983624,30.959845,900</coordinates>
          </Point>
        </Placemark>
        <Placemark>
          <name>FUJCG (A332)</name>
          <description>Branch: &#xA;Altitude: 19000 ft&#xA;Speed: 370.0 kts&#xA;Heading: 127.6&#xA;Mission: </description>
          <Point>
            <coordinates>1.439758,47.987595,19000</coordinates>
          </Point>
        </Placemark>
        <Placemark>
          <name>CEF527 (A319)</name>
          <description>Branch: &#xA;Altitude: 34550 ft&#xA;Speed: 482.6 kts&#xA;Heading: 161.6&#xA;Mission: </description>
          <Point>
            <coordinates>25.141511,36.775011,34550</coordinates>
          </Point>
        </Placemark>
        <Placemark>
          <name> (K35R)</name>
          <description>Branch: &#xA;Altitude: 0 ft&#xA;Speed: 0.0 kts&#xA;Heading: 0.0&#xA;Mission: </description>
          <Point>
            <coordinates>0,0,0</coordinates>
          </Point>
        </Placemark>
        <Placemark>
          <name> ()</name>
          <description>Branch: &#xA;Altitude: 102900 ft&#xA;Speed: 0.0 kts&#xA;Heading: 0.0&#xA;Mission: </description>
          <Point>
            <coordinates>0,0,102900</coordinates>
          </Point>
        </Placemark>
        <Placemark>
          <name> ()</name>
          <description>Branch: &#xA;Altitude: 0 ft&#xA;Speed: 0.0 kts&#xA;Heading: 5.6&#xA;Mission: </description>
          <Point>
            <coordinates>0,0,0</coordinates>
          </Point>
        </Placemark>
        <Placemark>
          <name>JOLLY91 (H60)</name>
          <description>Branch: &#xA;Altitude: -50 ft&#xA;Speed: 66.0 kts&#xA;Heading: 76.0&#xA;Mission: </description>
          <Point>
            <coordinates>-122.262606,36.858479,-50</coordinates>
          </Point>
        </Placemark>
        <Placemark>
          <name> ()</name>
          <description>Branch: &#xA;Altitude: 0 ft&#xA;Speed: 0.0 kts&#xA;Heading: 0.0&#xA;Mission: </description>
          <Point>
            <coordinates>0,0,0</coordinates>
          </Point>
        </Placemark>
        <Placemark>
          <name>ICY14 ()</name>
          <description>Branch: &#xA;Altitude: 800 ft&#xA;Speed: 133.2 kts&#xA;Heading: 200.2&#xA;Mission: </description>
          <Point>
            <coordinates>-148.196667,64.518814,800</coordinates>
          </Point>
        </Placemark>
        <Placemark>
          <name>ARCH51 (TEX2)</name>
          <description>Branch: &#xA;Altitude: 8050 ft&#xA;Speed: 239.1 kts&#xA;Heading: 1.9&#xA;Mission: </description>
          <Point>
            <coordinates>-106.192836,50.081131,8050</coordinates>
          </Point>
        </Placemark>
        <Placemark>
          <name>JAVAN66 (TEX2)</name>
          <description>Branch: &#xA;Altitude: 4925 ft&#xA;Speed: 228.9 kts&#xA;Heading: 95.0&#xA;Mission: </description>
          <Point>
            <coordinates>-96.904315,30.783646,4925</coordinates>
          </Point>
        </Placemark>
        <Placemark>
          <name>GRAIL41 (TEX2)</name>
          <description>Branch: &#xA;Altitude: 9175 ft&#xA;Speed: 249.4 kts&#xA;Heading: 3.2&#xA;Mission: </description>
          <Point>
            <coordinates>-88.035809,33.342041,9175</coordinates>
          </Point>
        </Placemark>
        <Placemark>
          <name>KATT26 (TEX2)</name>
          <description>Branch: &#xA;Altitude: 13775 ft&#xA;Speed: 219.2 kts&#xA;Heading: 323.0&#xA;Mission: </description>
          <Point>
            <coordinates>-87.38042,30.54418,13775</coordinates>
          </Point>
        </Placemark>
        <Placemark>
          <name>FAB2860 (E290)</name>
          <description>Branch: &#xA;Altitude: 13075 ft&#xA;Speed: 315.5 kts&#xA;Heading: 22.8&#xA;Mission: </description>
          <Point>
            <coordinates>-43.978221,-22.942991,13075</coordinates>
          </Point>
        </Placemark>
        <Placemark>
          <name>MCUE12 (B762)</name>
          <description>Branch: &#xA;Altitude: 32008 ft&#xA;Speed: 0.0 kts&#xA;Heading: 242.1&#xA;Mission: </description>
          <Point>
            <coordinates>-1.150475,36.629963,32008</coordinates>
          </Point>
        </Placemark>
        <Placemark>
          <name>BOLT79 (C150)</name>
          <description>Branch: &#xA;Altitude: 6850 ft&#xA;Speed: 71.8 kts&#xA;Heading: 167.1&#xA;Mission: </description>
          <Point>
            <coordinates>-104.815601,38.964661,6850</coordinates>
          </Point>
        </Placemark>
        <Placemark>
          <name>G026022 (H60)</name>
          <description>Branch: &#xA;Altitude: 4800 ft&#xA;Speed: 70.1 kts&#xA;Heading: 357.6&#xA;Mission: </description>
          <Point>
            <coordinates>-111.990173,40.603043,4800</coordinates>
          </Point>
        </Placemark>
        <Placemark>
          <name>BB141 (TEX2)</name>
          <description>Branch: &#xA;Altitude: 1775 ft&#xA;Speed: 222.7 kts&#xA;Heading: 56.2&#xA;Mission: </description>
          <Point>
            <coordinates>-88.137927,30.711116,1775</coordinates>
          </Point>
        </Placemark>
        <Placemark>
          <name>HAF356C (C130)</name>
          <description>Branch: &#xA;Altitude: 18000 ft&#xA;Speed: 0.0 kts&#xA;Heading: 0.0&#xA;Mission: </description>
          <Point>
            <coordinates>0,0,18000</coordinates>
          </Point>
        </Placemark>
        <Placemark>
          <name> (C17)</name>
          <description>Branch: &#xA;Altitude: 0 ft&#xA;Speed: 0.0 kts&#xA;Heading: 0.0&#xA;Mission: </description>
          <Point>
            <coordinates>0,0,0</coordinates>
          </Point>
        </Placemark>
        <Placemark>
          <name> (H60)</name>
          <description>Branch: &#xA;Altitude: 0 ft&#xA;Speed: 0.0 kts&#xA;Heading: 0.0&#xA;Mission: </description>
          <Point>
            <coordinates>0,0,0</coordinates>
          </Point>
        </Placemark>
        <Placemark>
          <name>TRON11 (GLF5)</name>
          <description>Branch: &#xA;Altitude: 23800 ft&#xA;Speed: 425.0 kts&#xA;Heading: 96.8&#xA;Mission: </description>
          <Point>
            <coordinates>-112.082245,32.903778,23800</coordinates>
          </Point>
        </Placemark>
        <Placemark>
          <name>E83173 (C30J)</name>
          <description>Branch: &#xA;Altitude: 25025 ft&#xA;Speed: 299.0 kts&#xA;Heading: 186.0&#xA;Mission: </description>
          <Point>
            <coordinates>-97.292983,32.127803,25025</coordinates>
          </Point>
        </Placemark>
        <Placemark>
          <name>VV8E725 (A119)</name>
          <description>Branch: &#xA;Altitude: 2725 ft&#xA;Speed: 74.7 kts&#xA;Heading: 296.2&#xA;Mission: </description>
          <Point>
            <coordinates>-87.906335,30.293403,2725</coordinates>
          </Point>
        </Placemark>
        <Placemark>
          <name>TEXN142 (TEX2)</name>
          <description>Branch: &#xA;Altitude: 3375 ft&#xA;Speed: 157.2 kts&#xA;Heading: 246.4&#xA;Mission: </description>
          <Point>
            <coordinates>-85.615593,30.822922,3375</coordinates>
          </Point>
        </Placemark>
        <Placemark>
          <name>BOYER92 (TEX2)</name>
          <description>Branch: &#xA;Altitude: 2200 ft&#xA;Speed: 108.2 kts&#xA;Heading: 136.1&#xA;Mission: </description>
          <Point>
            <coordinates>-100.838541,29.412369,2200</coordinates>
          </Point>
        </Placemark>
        <Placemark>
          <name>JEDDA75 (TEX2)</name>
          <description>Branch: &#xA;Altitude: 6000 ft&#xA;Speed: 217.1 kts&#xA;Heading: 247.8&#xA;Mission: </description>
          <Point>
            <coordinates>-100.78642,29.653915,6000</coordinates>
          </Point>
        </Placemark>
        <Placemark>
          <name>BALL24 (TEX2)</name>
          <description>Branch: &#xA;Altitude: 2575 ft&#xA;Speed: 133.0 kts&#xA;Heading: 0.9&#xA;Mission: </description>
          <Point>
            <coordinates>-97.382412,35.283554,2575</coordinates>
          </Point>
        </Placemark>
        <Placemark>
          <name>RAIDR72 (C30J)</name>
          <description>Branch: &#xA;Altitude: 20950 ft&#xA;Speed: 348.6 kts&#xA;Heading: 111.2&#xA;Mission: </description>
          <Point>
            <coordinates>-92.145767,33.906043,20950</coordinates>
          </Point>
        </Placemark>
        <Placemark>
          <name>FFAB123 (H60)</name>
          <description>Branch: &#xA;Altitude: -100 ft&#xA;Speed: 92.5 kts&#xA;Heading: 338.4&#xA;Mission: </description>
          <Point>
            <coordinates>-81.304871,30.128701,-100</coordinates>
          </Point>
        </Placemark>
        <Placemark>
          <name>RCH284 (C17)</name>
          <description>Branch: &#xA;Altitude: 31000 ft&#xA;Speed: 0.0 kts&#xA;Heading: 0.0&#xA;Mission: </description>
          <Point>
            <coordinates>0,0,31000</coordinates>
          </Point>
        </Placemark>
        <Placemark>
          <name>GAFTT07 ()</name>
          <description>Branch: &#xA;Altitude: 62700 ft&#xA;Speed: 0.0 kts&#xA;Heading: 0.0&#xA;Mission: </description>
          <Point>
            <coordinates>0,0,62700</coordinates>
          </Point>
        </Placemark>
        <Placemark>
          <name>TEST1234 ()</name>
          <description>Branch: &#xA;Altitude: 0 ft&#xA;Speed: 0.0 kts&#xA;Heading: 0.0&#xA;Mission: </description>
          <Point>
            <coordinates>0,0,0</coordinates>
          </Point>
        </Placemark>
        <Placemark>
          <name>FANGS63 (TEX2)</name>
          <description>Branch: &#xA;Altitude: 12950 ft&#xA;Speed: 287.1 kts&#xA;Heading: 161.3&#xA;Mission: </description>
          <Point>
            <coordinates>-98.11953,29.058792,12950</coordinates>
          </Point>
        </Placemark>
        <Placemark>
          <name>HOOK51 (TEX2)</name>
          <description>Branch: &#xA;Altitude: 3825 ft&#xA;Speed: 203.1 kts&#xA;Heading: 212.1&#xA;Mission: </description>
          <Point>
            <coordinates>-97.778262,36.141668,3825</coordinates>
          </Point>
        </Placemark>
        <Placemark>
          <name> (TEX2)</name>
          <description>Branch: &#xA;Altitude: 10200 ft&#xA;Speed: 122.4 kts&#xA;Heading: 137.3&#xA;Mission: </description>
          <Point>
            <coordinates>-97.355188,27.694531,10200</coordinates>
          </Point>
        </Placemark>
        <Placemark>
          <name> (K35R)</name>
          <description>Branch: &#xA;Altitude: 34900 ft&#xA;Speed: 557.0 kts&#xA;Heading: 110.0&#xA;Mission: </description>
          <Point>
            <coordinates>-75.198452,44.153003,34900</coordinates>
          </Point>
        </Placemark>
        <Placemark>
          <name>GAFTT33 ()</name>
          <description>Branch: &#xA;Altitude: 62700 ft&#xA;Speed: 0.0 kts&#xA;Heading: 0.0&#xA;Mission: </description>
          <Point>
            <coordinates>0,0,62700</coordinates>
          </Point>
        </Placemark>
        <Placemark>
          <name>CADDO43 (C17)</name>
          <description>Branch: &#xA;Altitude: 4975 ft&#xA;Speed: 0.0 kts&#xA;Heading: 0.0&#xA;Mission: </description>
          <Point>
            <coordinates>0,0,4975</coordinates>
          </Point>
        </Placemark>
        <Placemark>
          <name>JOLLY92 (H60)</name>
          <description>Branch: &#xA;Altitude: -50 ft&#xA;Speed: 51.4 kts&#xA;Heading: 346.5&#xA;Mission: </description>
          <Point>
            <coordinates>-122.220972,36.788604,-50</coordinates>
          </Point>
        </Placemark>
        <Placemark>
          <name>BLCKFM (G120)</name>
          <description>Branch: &#xA;Altitude: 3300 ft&#xA;Speed: 132.0 kts&#xA;Heading: 294.6&#xA;Mission: </description>
          <Point>
            <coordinates>-98.573022,49.925079,3300</coordinates>
          </Point>
        </Placemark>
        <Placemark>
          <name>EASY61 (BE20)</name>
          <description>Branch: &#xA;Altitude: 1800 ft&#xA;Speed: 216.3 kts&#xA;Heading: 356.8&#xA;Mission: </description>
          <Point>
            <coordinates>-89.521772,30.43396,1800</coordinates>
          </Point>
        </Placemark>
        <Placemark>
          <name>KATT24 (TEX2)</name>
          <description>Branch: &#xA;Altitude: 8200 ft&#xA;Speed: 296.1 kts&#xA;Heading: 268.4&#xA;Mission: </description>
          <Point>
            <coordinates>-88.110405,30.448792,8200</coordinates>
          </Point>
        </Placemark>
        <Placemark>
          <name>RN163 (TEX2)</name>
          <description>Branch: &#xA;Altitude: 3800 ft&#xA;Speed: 227.4 kts&#xA;Heading: 289.0&#xA;Mission: </description>
          <Point>
            <coordinates>-87.181952,30.878611,3800</coordinates>
          </Point>
        </Placemark>
        <Placemark>
          <name> (C30J)</name>
          <description>Branch: &#xA;Altitude: 5800 ft&#xA;Speed: 0.0 kts&#xA;Heading: 0.0&#xA;Mission: </description>
          <Point>
            <coordinates>-84.202759,30.393947,5800</coordinates>
          </Point>
        </Placemark>
        <Placemark>
          <name>TROJ16 (C30J)</name>
          <description>Branch: &#xA;Altitude: 11525 ft&#xA;Speed: 212.9 kts&#xA;Heading: 354.6&#xA;Mission: </description>
          <Point>
            <coordinates>150.686389,-33.362137,11525</coordinates>
          </Point>
        </Placemark>
        <Placemark>
          <name> (K35R)</name>
          <description>Branch: &#xA;Altitude: 34000 ft&#xA;Speed: 0.0 kts&#xA;Heading: 0.0&#xA;Mission: </description>
          <Point>
            <coordinates>0,0,34000</coordinates>
          </Point>
        </Placemark>
        <Placemark>
          <name>CTM1388 (CN35)</name>
          <description>Branch: &#xA;Altitude: 15000 ft&#xA;Speed: 0.0 kts&#xA;Heading: 0.0&#xA;Mission: </description>
          <Point>
            <coordinates>0,0,15000</coordinates>
          </Point>
        </Placemark>
        <Placemark>
          <name>SHINR81 (TEX2)</name>
          <description>Branch: &#xA;Altitude: 10000 ft&#xA;Speed: 187.3 kts&#xA;Heading: 301.9&#xA;Mission: </description>
          <Point>
            <coordinates>-97.524875,36.375965,10000</coordinates>
          </Point>
        </Placemark>
        <Placemark>
          <name> (P8 ?)</name>
          <description>Branch: &#xA;Altitude: 34000 ft&#xA;Speed: 383.5 kts&#xA;Heading: 276.6&#xA;Mission: </description>
          <Point>
            <coordinates>-112.503433,47.315643,34000</coordinates>
          </Point>
        </Placemark>
        <Placemark>
          <name>SHARK68 (SR20)</name>
          <description>Branch: &#xA;Altitude: 8650 ft&#xA;Speed: 117.1 kts&#xA;Heading: 238.6&#xA;Mission: </description>
          <Point>
            <coordinates>-104.766724,39.101506,8650</coordinates>
          </Point>
        </Placemark>
        <Placemark>
          <name>HAWK201 (HAWK)</name>
          <description>Branch: &#xA;Altitude: 11925 ft&#xA;Speed: 367.0 kts&#xA;Heading: 318.5&#xA;Mission: </description>
          <Point>
            <coordinates>-98.079667,27.665451,11925</coordinates>
          </Point>
        </Placemark>
        <Placemark>
          <name>ROKT31 (HAWK)</name>
          <description>Branch: &#xA;Altitude: 11300 ft&#xA;Speed: 304.7 kts&#xA;Heading: 138.7&#xA;Mission: </description>
          <Point>
            <coordinates>-87.896172,30.259918,11300</coordinates>
          </Point>
        </Placemark>
        <Placemark>
          <name>GRZLY23 (H47)</name>
          <description>Branch: &#xA;Altitude: 0 ft&#xA;Speed: 0.0 kts&#xA;Heading: 0.0&#xA;Mission: </description>
          <Point>
            <coordinates>0,0,0</coordinates>
          </Point>
        </Placemark>
        <Placemark>
          <name>TEST1234 ()</name>
          <description>Branch: &#xA;Altitude: 0 ft&#xA;Speed: 0.0 kts&#xA;Heading: 0.0&#xA;Mission: </description>
          <Point>
            <coordinates>0,0,0</coordinates>
          </Point>
        </Placemark>
        <Placemark>
          <name> ()</name>
          <description>Branch: &#xA;Altitude: 83000 ft&#xA;Speed: 0.0 kts&#xA;Heading: 0.0&#xA;Mission: </description>
          <Point>
            <coordinates>0,0,83000</coordinates>
          </Point>
        </Placemark>
        <Placemark>
          <name>YODA42 (TEX2)</name>
          <description>Branch: &#xA;Altitude: 2050 ft&#xA;Speed: 106.1 kts&#xA;Heading: 118.7&#xA;Mission: </description>
          <Point>
            <coordinates>-105.585443,50.34159,2050</coordinates>
          </Point>
        </Placemark>
        <Placemark>
          <name>FLEDG81 (TEX2)</name>
          <description>Branch: &#xA;Altitude: 8875 ft&#xA;Speed: 228.0 kts&#xA;Heading: 212.6&#xA;Mission: </description>
          <Point>
            <coordinates>-100.258695,29.226196,8875</coordinates>
          </Point>
        </Placemark>
        <Placemark>
          <name>MNTNA57 (BE9L)</name>
          <description>Branch: &#xA;Altitude: 1725 ft&#xA;Speed: 134.0 kts&#xA;Heading: 135.1&#xA;Mission: </description>
          <Point>
            <coordinates>-97.596634,27.852814,1725</coordinates>
          </Point>
        </Placemark>
        <Placemark>
          <name>CHEWY10 (TEX2)</name>
          <description>Branch: &#xA;Altitude: 3250 ft&#xA;Speed: 256.8 kts&#xA;Heading: 162.6&#xA;Mission: </description>
          <Point>
            <coordinates>-87.939404,30.47896,3250</coordinates>
          </Point>
        </Placemark>
        <Placemark>
          <name> (R135)</name>
          <description>Branch: &#xA;Altitude: 33450 ft&#xA;Speed: 0.0 kts&#xA;Heading: 0.0&#xA;Mission: </description>
          <Point>
            <coordinates>0,0,33450</coordinates>
          </Point>
        </Placemark>
        <Placemark>
          <name>LANCE71 (T38)</name>
          <description>Branch: &#xA;Altitude: 17325 ft&#xA;Speed: 522.0 kts&#xA;Heading: 324.5&#xA;Mission: </description>
          <Point>
            <coordinates>-99.38821,33.506858,17325</coordinates>
          </Point>
        </Placemark>
        <Placemark>
          <name>TEMAN71 (T38)</name>
          <description>Branch: &#xA;Altitude: 36175 ft&#xA;Speed: 524.8 kts&#xA;Heading: 114.9&#xA;Mission: </description>
          <Point>
            <coordinates>-97.304271,29.546585,36175</coordinates>
          </Point>
        </Placemark>
        <Placemark>
          <name> (K35R)</name>
          <description>Branch: &#xA;Altitude: 0 ft&#xA;Speed: 0.0 kts&#xA;Heading: 0.0&#xA;Mission: </description>
          <Point>
            <coordinates>0,0,0</coordinates>
          </Point>
        </Placemark>
        <Placemark>
          <name>KNIFE12 (H60)</name>
          <description>Branch: &#xA;Altitude: 5950 ft&#xA;Speed: 138.1 kts&#xA;Heading: 124.4&#xA;Mission: </description>
          <Point>
            <coordinates>-117.654076,33.650658,5950</coordinates>
          </Point>
        </Placemark>
        <Placemark>
          <name>KATT19 (TEX2)</name>
          <description>Branch: &#xA;Altitude: 7575 ft&#xA;Speed: 210.6 kts&#xA;Heading: 282.1&#xA;Mission: </description>
          <Point>
            <coordinates>-86.670981,30.769775,7575</coordinates>
          </Point>
        </Placemark>
        <Placemark>
          <name> (P8)</name>
          <description>Branch: &#xA;Altitude: 31000 ft&#xA;Speed: 473.0 kts&#xA;Heading: 97.0&#xA;Mission: </description>
          <Point>
            <coordinates>-84.814062,30.565549,31000</coordinates>
          </Point>
        </Placemark>
        <Placemark>
          <name>TEST1234 (TWR)</name>
          <description>Branch: &#xA;Altitude: 0 ft&#xA;Speed: 0.0 kts&#xA;Heading: 0.0&#xA;Mission: </description>
          <Point>
            <coordinates>0,0,0</coordinates>
          </Point>
        </Placemark>
        <Placemark>
          <name>WING14 (BE20)</name>
          <description>Branch: &#xA;Altitude: 3400 ft&#xA;Speed: 0.0 kts&#xA;Heading: 0.0&#xA;Mission: </description>
          <Point>
            <coordinates>0,0,3400</coordinates>
          </Point>
        </Placemark>
        <Placemark>
          <name> (K35R)</name>
          <description>Branch: &#xA;Altitude: 0 ft&#xA;Speed: 0.0 kts&#xA;Heading: 0.0&#xA;Mission: </description>
          <Point>
            <coordinates>0,0,0</coordinates>
          </Point>
        </Placemark>
        <Placemark>
          <name>N7870N (C172)</name>
          <description>Branch: &#xA;Altitude: 9100 ft&#xA;Speed: 67.6 kts&#xA;Heading: 7.7&#xA;Mission: </description>
          <Point>
            <coordinates>-104.242341,38.889725,9100</coordinates>
          </Point>
        </Placemark>
        <Placemark>
          <name>TROL81 (TEX2)</name>
          <description>Branch: &#xA;Altitude: 6900 ft&#xA;Speed: 225.9 kts&#xA;Heading: 262.6&#xA;Mission: </description>
          <Point>
            <coordinates>-105.545076,49.878845,6900</coordinates>
          </Point>
        </Placemark>
        <Placemark>
          <name>SHARK72 (SR20)</name>
          <description>Branch: &#xA;Altitude: 8325 ft&#xA;Speed: 94.4 kts&#xA;Heading: 229.7&#xA;Mission: </description>
          <Point>
            <coordinates>-104.94278,38.597534,8325</coordinates>
          </Point>
        </Placemark>
        <Placemark>
          <name>HAWK208 ()</name>
          <description>Branch: &#xA;Altitude: 0 ft&#xA;Speed: 271.3 kts&#xA;Heading: 119.1&#xA;Mission: </description>
          <Point>
            <coordinates>-98.116256,27.762637,0</coordinates>
          </Point>
        </Placemark>
        <Placemark>
          <name>FAST35 (T38)</name>
          <description>Branch: &#xA;Altitude: 2900 ft&#xA;Speed: 259.1 kts&#xA;Heading: 34.3&#xA;Mission: </description>
          <Point>
            <coordinates>-94.957103,39.294067,2900</coordinates>
          </Point>
        </Placemark>
        <Placemark>
          <name>DEALS98 (EC45)</name>
          <description>Branch: &#xA;Altitude: 675 ft&#xA;Speed: 82.0 kts&#xA;Heading: 201.9&#xA;Mission: </description>
          <Point>
            <coordinates>-85.991966,31.402929,675</coordinates>
          </Point>
        </Placemark>
        <Placemark>
          <name>R23481 (H64)</name>
          <description>Branch: &#xA;Altitude: 500 ft&#xA;Speed: 129.7 kts&#xA;Heading: 250.2&#xA;Mission: </description>
          <Point>
            <coordinates>-78.840637,35.162247,500</coordinates>
          </Point>
        </Placemark>
        <Placemark>
          <name>IBIS73 (C295)</name>
          <description>Branch: &#xA;Altitude: 4150 ft&#xA;Speed: 154.3 kts&#xA;Heading: 183.3&#xA;Mission: </description>
          <Point>
            <coordinates>-3.413757,40.786514,4150</coordinates>
          </Point>
        </Placemark>
        <Placemark>
          <name>CFC3360 (A310)</name>
          <description>Branch: &#xA;Altitude: 0 ft&#xA;Speed: 0.0 kts&#xA;Heading: 0.0&#xA;Mission: </description>
          <Point>
            <coordinates>-147.857437,64.821477,0</coordinates>
          </Point>
        </Placemark>
        <Placemark>
          <name>R08478 (H47)</name>
          <description>Branch: &#xA;Altitude: 2950 ft&#xA;Speed: 119.5 kts&#xA;Heading: 71.0&#xA;Mission: </description>
          <Point>
            <coordinates>-117.056636,32.860154,2950</coordinates>
          </Point>
        </Placemark>
        <Placemark>
          <name>FAST22 (B762)</name>
          <description>Branch: &#xA;Altitude: 6800 ft&#xA;Speed: 330.2 kts&#xA;Heading: 109.1&#xA;Mission: </description>
          <Point>
            <coordinates>-94.405762,39.20825,6800</coordinates>
          </Point>
        </Placemark>
        <Placemark>
          <name>BGST307 (BE20)</name>
          <description>Branch: &#xA;Altitude: 18000 ft&#xA;Speed: 204.2 kts&#xA;Heading: 255.8&#xA;Mission: </description>
          <Point>
            <coordinates>-92.495851,29.664871,18000</coordinates>
          </Point>
        </Placemark>
        <Placemark>
          <name>MORPH16 (EC45)</name>
          <description>Branch: &#xA;Altitude: 750 ft&#xA;Speed: 99.5 kts&#xA;Heading: 300.2&#xA;Mission: </description>
          <Point>
            <coordinates>-85.643207,31.244791,750</coordinates>
          </Point>
        </Placemark>
        <Placemark>
          <name>C2309 (CN35)</name>
          <description>Branch: &#xA;Altitude: 850 ft&#xA;Speed: 180.0 kts&#xA;Heading: 12.0&#xA;Mission: </description>
          <Point>
            <coordinates>-70.330063,42.694267,850</coordinates>
          </Point>
        </Placemark>
        <Placemark>
          <name> ()</name>
          <description>Branch: &#xA;Altitude: 0 ft&#xA;Speed: 0.0 kts&#xA;Heading: 0.0&#xA;Mission: </description>
          <Point>
            <coordinates>0,0,0</coordinates>
          </Point>
        </Placemark>
        <Placemark>
          <name>WING23 (C560)</name>
          <description>Branch: &#xA;Altitude: 39000 ft&#xA;Speed: 435.4 kts&#xA;Heading: 49.3&#xA;Mission: </description>
          <Point>
            <coordinates>-79.830905,40.346359,39000</coordinates>
          </Point>
        </Placemark>
        <Placemark>
          <name>R20063 (H60)</name>
          <description>Branch: &#xA;Altitude: 525 ft&#xA;Speed: 104.0 kts&#xA;Heading: 90.0&#xA;Mission: </description>
          <Point>
            <coordinates>-78.849564,35.142517,525</coordinates>
          </Point>
        </Placemark>
        <Placemark>
          <name>C6597 (AS65)</name>
          <description>Branch: &#xA;Altitude: 0 ft&#xA;Speed: 0.7 kts&#xA;Heading: 0.0&#xA;Mission: </description>
          <Point>
            <coordinates>0,0,0</coordinates>
          </Point>
        </Placemark>
        <Placemark>
          <name> (P8)</name>
          <description>Branch: &#xA;Altitude: 37000 ft&#xA;Speed: 387.2 kts&#xA;Heading: 12.5&#xA;Mission: </description>
          <Point>
            <coordinates>-126.665391,47.037405,37000</coordinates>
          </Point>
        </Placemark>
        <Placemark>
          <name>CTM1013 (A332)</name>
          <description>Branch: &#xA;Altitude: 9625 ft&#xA;Speed: 263.9 kts&#xA;Heading: 244.9&#xA;Mission: </description>
          <Point>
            <coordinates>-123.381597,48.977749,9625</coordinates>
          </Point>
        </Placemark>
        <Placemark>
          <name>PAT123 (BE20)</name>
          <description>Branch: &#xA;Altitude: 25000 ft&#xA;Speed: 271.2 kts&#xA;Heading: 11.3&#xA;Mission: </description>
          <Point>
            <coordinates>-98.17218,31.958908,25000</coordinates>
          </Point>
        </Placemark>
        <Placemark>
          <name>MNTNA71 (BE9L)</name>
          <description>Branch: &#xA;Altitude: 2950 ft&#xA;Speed: 158.5 kts&#xA;Heading: 60.5&#xA;Mission: </description>
          <Point>
            <coordinates>-97.823692,26.35932,2950</coordinates>
          </Point>
        </Placemark>
        <Placemark>
          <name>VEGA21 (TEX2)</name>
          <description>Branch: &#xA;Altitude: 8475 ft&#xA;Speed: 223.0 kts&#xA;Heading: 338.1&#xA;Mission: </description>
          <Point>
            <coordinates>-97.782177,36.061179,8475</coordinates>
          </Point>
        </Placemark>
        <Placemark>
          <name>JEDI43 (TEX2)</name>
          <description>Branch: &#xA;Altitude: 8300 ft&#xA;Speed: 208.3 kts&#xA;Heading: 183.0&#xA;Mission: </description>
          <Point>
            <coordinates>-87.974451,30.672106,8300</coordinates>
          </Point>
        </Placemark>
        <Placemark>
          <name>VV8E644Z ()</name>
          <description>Branch: &#xA;Altitude: 475 ft&#xA;Speed: 72.0 kts&#xA;Heading: 117.3&#xA;Mission: </description>
          <Point>
            <coordinates>-87.758405,30.238891,475</coordinates>
          </Point>
        </Placemark>
        <Placemark>
          <name>SPUD13 (H60)</name>
          <description>Branch: &#xA;Altitude: 0 ft&#xA;Speed: 100.0 kts&#xA;Heading: 82.9&#xA;Mission: </description>
          <Point>
            <coordinates>-85.994827,31.313782,0</coordinates>
          </Point>
        </Placemark>
        <Placemark>
          <name>COBRA12 (T38)</name>
          <description>Branch: &#xA;Altitude: 4825 ft&#xA;Speed: 227.8 kts&#xA;Heading: 241.4&#xA;Mission: </description>
          <Point>
            <coordinates>-117.735786,34.97977,4825</coordinates>
          </Point>
        </Placemark>
        <Placemark>
          <name>HAWK211 (HAWK)</name>
          <description>Branch: &#xA;Altitude: 13950 ft&#xA;Speed: 352.3 kts&#xA;Heading: 195.8&#xA;Mission: </description>
          <Point>
            <coordinates>-98.407921,26.637051,13950</coordinates>
          </Point>
        </Placemark>
        <Placemark>
          <name>CHATAH1 (T38)</name>
          <description>Branch: &#xA;Altitude: 2800 ft&#xA;Speed: 325.6 kts&#xA;Heading: 296.6&#xA;Mission: </description>
          <Point>
            <coordinates>-98.201132,29.630965,2800</coordinates>
          </Point>
        </Placemark>
        <Placemark>
          <name>GUNDOG5 (T38)</name>
          <description>Branch: &#xA;Altitude: 7150 ft&#xA;Speed: 333.0 kts&#xA;Heading: 179.1&#xA;Mission: </description>
          <Point>
            <coordinates>-89.060445,34.325272,7150</coordinates>
          </Point>
        </Placemark>
        <Placemark>
          <name>BB158 (TEX2)</name>
          <description>Branch: &#xA;Altitude: 2325 ft&#xA;Speed: 213.4 kts&#xA;Heading: 232.8&#xA;Mission: </description>
          <Point>
            <coordinates>-87.903012,30.502304,2325</coordinates>
          </Point>
        </Placemark>
        <Placemark>
          <name>R20764 (H60)</name>
          <description>Branch: &#xA;Altitude: 3725 ft&#xA;Speed: 100.0 kts&#xA;Heading: 181.1&#xA;Mission: </description>
          <Point>
            <coordinates>-87.473679,37.437263,3725</coordinates>
          </Point>
        </Placemark>
        <Placemark>
          <name> ()</name>
          <description>Branch: &#xA;Altitude: 1350 ft&#xA;Speed: 171.8 kts&#xA;Heading: 298.5&#xA;Mission: </description>
          <Point>
            <coordinates>-74.677979,39.414802,1350</coordinates>
          </Point>
        </Placemark>
        <Placemark>
          <name> ()</name>
          <description>Branch: &#xA;Altitude: 4500 ft&#xA;Speed: 199.7 kts&#xA;Heading: 336.4&#xA;Mission: </description>
          <Point>
            <coordinates>-114.319321,48.299948,4500</coordinates>
          </Point>
        </Placemark>
        <Placemark>
          <name>VV7E642 (A119)</name>
          <description>Branch: &#xA;Altitude: 650 ft&#xA;Speed: 115.0 kts&#xA;Heading: 295.9&#xA;Mission: </description>
          <Point>
            <coordinates>-87.045753,30.687286,650</coordinates>
          </Point>
        </Placemark>
        <Placemark>
          <name>QUESO29 (BE20)</name>
          <description>Branch: &#xA;Altitude: 9825 ft&#xA;Speed: 175.9 kts&#xA;Heading: 278.5&#xA;Mission: </description>
          <Point>
            <coordinates>-86.53222,30.929027,9825</coordinates>
          </Point>
        </Placemark>
        <Placemark>
          <name>CFC2569 (C30J)</name>
          <description>Branch: &#xA;Altitude: 29000 ft&#xA;Speed: 342.3 kts&#xA;Heading: 158.8&#xA;Mission: </description>
          <Point>
            <coordinates>-84.594834,31.401123,29000</coordinates>
          </Point>
        </Placemark>
        <Placemark>
          <name>SPAR18 (B737)</name>
          <description>Branch: &#xA;Altitude: 36000 ft&#xA;Speed: 411.1 kts&#xA;Heading: 258.6&#xA;Mission: </description>
          <Point>
            <coordinates>-146.851894,60.885346,36000</coordinates>
          </Point>
        </Placemark>
        <Placemark>
          <name>LOGIC510 (C295)</name>
          <description>Branch: &#xA;Altitude: 12825 ft&#xA;Speed: 280.8 kts&#xA;Heading: 74.1&#xA;Mission: </description>
          <Point>
            <coordinates>-99.458771,50.794171,12825</coordinates>
          </Point>
        </Placemark>
        <Placemark>
          <name>CODE21 (TEX2)</name>
          <description>Branch: &#xA;Altitude: 9600 ft&#xA;Speed: 195.4 kts&#xA;Heading: 282.1&#xA;Mission: </description>
          <Point>
            <coordinates>-97.446919,36.651834,9600</coordinates>
          </Point>
        </Placemark>
        <Placemark>
          <name>CAPE20 (H60)</name>
          <description>Branch: &#xA;Altitude: 0 ft&#xA;Speed: 89.0 kts&#xA;Heading: 87.5&#xA;Mission: </description>
          <Point>
            <coordinates>-86.017349,31.371273,0</coordinates>
          </Point>
        </Placemark>
        <Placemark>
          <name>CAPE32 (H60)</name>
          <description>Branch: &#xA;Altitude: 0 ft&#xA;Speed: 103.0 kts&#xA;Heading: 270.0&#xA;Mission: </description>
          <Point>
            <coordinates>-86.001625,31.361298,0</coordinates>
          </Point>
        </Placemark>
        <Placemark>
          <name> (HAWK)</name>
          <description>Branch: &#xA;Altitude: 0 ft&#xA;Speed: 44.5 kts&#xA;Heading: 210.9&#xA;Mission: </description>
          <Point>
            <coordinates>0,0,0</coordinates>
          </Point>
        </Placemark>
        <Placemark>
          <name> ()</name>
          <description>Branch: &#xA;Altitude: 0 ft&#xA;Speed: 0.0 kts&#xA;Heading: 0.0&#xA;Mission: </description>
          <Point>
            <coordinates>0,0,0</coordinates>
          </Point>
        </Placemark>
        <Placemark>
          <name>EASY04 (B350)</name>
          <description>Branch: &#xA;Altitude: 23000 ft&#xA;Speed: 297.9 kts&#xA;Heading: 101.4&#xA;Mission: </description>
          <Point>
            <coordinates>-91.943341,30.18544,23000</coordinates>
          </Point>
        </Placemark>
        <Placemark>
          <name>SPOOKY5 (T38)</name>
          <description>Branch: &#xA;Altitude: 15900 ft&#xA;Speed: 384.1 kts&#xA;Heading: 43.4&#xA;Mission: </description>
          <Point>
            <coordinates>-88.191891,33.760474,15900</coordinates>
          </Point>
        </Placemark>
        <Placemark>
          <name>RCH713 (K35R)</name>
          <description>Branch: &#xA;Altitude: 31000 ft&#xA;Speed: 0.0 kts&#xA;Heading: 0.0&#xA;Mission: </description>
          <Point>
            <coordinates>-77.773767,45.688145,31000</coordinates>
          </Point>
        </Placemark>
        <Placemark>
          <name>GAF701 (A21N)</name>
          <description>Branch: &#xA;Altitude: 10975 ft&#xA;Speed: 304.8 kts&#xA;Heading: 157.2&#xA;Mission: </description>
          <Point>
            <coordinates>-77.622707,39.748856,10975</coordinates>
          </Point>
        </Placemark>
        <Placemark>
          <name>COSMO42 (C30J)</name>
          <description>Branch: &#xA;Altitude: 650 ft&#xA;Speed: 159.0 kts&#xA;Heading: 126.8&#xA;Mission: </description>
          <Point>
            <coordinates>10.441916,43.57634,650</coordinates>
          </Point>
        </Placemark>
        <Placemark>
          <name>C6507 (AS65)</name>
          <description>Branch: &#xA;Altitude: 150 ft&#xA;Speed: 114.0 kts&#xA;Heading: 153.4&#xA;Mission: </description>
          <Point>
            <coordinates>-158.03823,21.261658,150</coordinates>
          </Point>
        </Placemark>
        <Placemark>
          <name> (P8)</name>
          <description>Branch: &#xA;Altitude: 33000 ft&#xA;Speed: 470.8 kts&#xA;Heading: 106.7&#xA;Mission: </description>
          <Point>
            <coordinates>-118.383108,47.86962,33000</coordinates>
          </Point>
        </Placemark>
        <Placemark>
          <name>COUGR56 (LJ35)</name>
          <description>Branch: &#xA;Altitude: 0 ft&#xA;Speed: 0.0 kts&#xA;Heading: 0.0&#xA;Mission: </description>
          <Point>
            <coordinates>-98.484946,29.53807,0</coordinates>
          </Point>
        </Placemark>
        <Placemark>
          <name>C6584 (AS65)</name>
          <description>Branch: &#xA;Altitude: 450 ft&#xA;Speed: 64.6 kts&#xA;Heading: 248.2&#xA;Mission: </description>
          <Point>
            <coordinates>-95.06137,29.759171,450</coordinates>
          </Point>
        </Placemark>
        <Placemark>
          <name>BELLS50 (EC45)</name>
          <description>Branch: &#xA;Altitude: 2725 ft&#xA;Speed: 129.5 kts&#xA;Heading: 329.9&#xA;Mission: </description>
          <Point>
            <coordinates>-85.563301,31.65271,2725</coordinates>
          </Point>
        </Placemark>
        <Placemark>
          <name>PAT245 (BE20)</name>
          <description>Branch: &#xA;Altitude: 25000 ft&#xA;Speed: 320.1 kts&#xA;Heading: 88.9&#xA;Mission: </description>
          <Point>
            <coordinates>-81.144714,40.011475,25000</coordinates>
          </Point>
        </Placemark>
        <Placemark>
          <name>G20909 (H60)</name>
          <description>Branch: &#xA;Altitude: 600 ft&#xA;Speed: 98.7 kts&#xA;Heading: 76.5&#xA;Mission: </description>
          <Point>
            <coordinates>-76.566093,40.41791,600</coordinates>
          </Point>
        </Placemark>
        <Placemark>
          <name> (K35R)</name>
          <description>Branch: &#xA;Altitude: 0 ft&#xA;Speed: 0.0 kts&#xA;Heading: 0.0&#xA;Mission: </description>
          <Point>
            <coordinates>0,0,0</coordinates>
          </Point>
        </Placemark>
        <Placemark>
          <name>TEST1234 ()</name>
          <description>Branch: &#xA;Altitude: 0 ft&#xA;Speed: 0.0 kts&#xA;Heading: 0.0&#xA;Mission: </description>
          <Point>
            <coordinates>0,0,0</coordinates>
          </Point>
        </Placemark>
        <Placemark>
          <name>ZORO52 (AT8T)</name>
          <description>Branch: &#xA;Altitude: 0 ft&#xA;Speed: 8.8 kts&#xA;Heading: 0.0&#xA;Mission: </description>
          <Point>
            <coordinates>-97.608232,35.40406,0</coordinates>
          </Point>
        </Placemark>
        <Placemark>
          <name>CASH11 (TEX2)</name>
          <description>Branch: &#xA;Altitude: 12300 ft&#xA;Speed: 186.4 kts&#xA;Heading: 214.3&#xA;Mission: </description>
          <Point>
            <coordinates>-99.856989,32.227753,12300</coordinates>
          </Point>
        </Placemark>
        <Placemark>
          <name>PAIN11 (BE40)</name>
          <description>Branch: &#xA;Altitude: 2850 ft&#xA;Speed: 207.0 kts&#xA;Heading: 12.6&#xA;Mission: </description>
          <Point>
            <coordinates>-97.928506,36.151537,2850</coordinates>
          </Point>
        </Placemark>
        <Placemark>
          <name>BONES21 (T38)</name>
          <description>Branch: &#xA;Altitude: 16800 ft&#xA;Speed: 461.4 kts&#xA;Heading: 162.1&#xA;Mission: </description>
          <Point>
            <coordinates>-87.802792,34.370681,16800</coordinates>
          </Point>
        </Placemark>
        <Placemark>
          <name>PAT375 (BE20)</name>
          <description>Branch: &#xA;Altitude: 26000 ft&#xA;Speed: 236.2 kts&#xA;Heading: 251.5&#xA;Mission: </description>
          <Point>
            <coordinates>-87.042996,33.629791,26000</coordinates>
          </Point>
        </Placemark>
        <Placemark>
          <name>VV1E628 (A119)</name>
          <description>Branch: &#xA;Altitude: 500 ft&#xA;Speed: 114.0 kts&#xA;Heading: 187.6&#xA;Mission: </description>
          <Point>
            <coordinates>-86.935945,30.621002,500</coordinates>
          </Point>
        </Placemark>