<?xml version="1.0" encoding="UTF-8"?>
<kml xmlns="http://www.opengis.net/kml/2.2">
  <Document>
    <name>US Military Tracker</name>
    <description>Generated: 2026-03-02T20:38:49Z | Chairman: groq | Score: 0.00</description>
    <Folder>
      <name>Aircraft (430 tracked)</name>
      <Folder>
        <name>Unknown</name>
        <Placemark>
          <name>LEPD31 (TEX2)</name>
          <description>Branch: &#xA;Altitude: 11950 ft&#xA;Speed: 234.1 kts&#xA;Heading: 268.8&#xA;Mission: </description>
          <Point>
            <coordinates>-106.030209,50.223633,11950</coordinates>
          </Point>
        </Placemark>
        <Placemark>
          <name>STMPD19 (B350)</name>
          <description>Branch: &#xA;Altitude: 11925 ft&#xA;Speed: 223.2 kts&#xA;Heading: 298.1&#xA;Mission: </description>
          <Point>
            <coordinates>-116.500593,33.099805,11925</coordinates>
          </Point>
        </Placemark>
        <Placemark>
          <name>DRAGN76 (TEX2)</name>
          <description>Branch: &#xA;Altitude: 14800 ft&#xA;Speed: 172.7 kts&#xA;Heading: 317.8&#xA;Mission: </description>
          <Point>
            <coordinates>-98.119481,36.749361,14800</coordinates>
          </Point>
        </Placemark>
        <Placemark>
          <name>TEXN142 (TEX2)</name>
          <description>Branch: &#xA;Altitude: 7325 ft&#xA;Speed: 225.1 kts&#xA;Heading: 92.0&#xA;Mission: </description>
          <Point>
            <coordinates>-85.8336,30.807619,7325</coordinates>
          </Point>
        </Placemark>
        <Placemark>
          <name>G21187 (H60)</name>
          <description>Branch: &#xA;Altitude: 0 ft&#xA;Speed: 73.9 kts&#xA;Heading: 129.5&#xA;Mission: </description>
          <Point>
            <coordinates>0,0,0</coordinates>
          </Point>
        </Placemark>
        <Placemark>
          <name>VV8E029 (A119)</name>
          <description>Branch: &#xA;Altitude: 1525 ft&#xA;Speed: 112.0 kts&#xA;Heading: 201.5&#xA;Mission: </description>
          <Point>
            <coordinates>-87.31675,30.63382,1525</coordinates>
          </Point>
        </Placemark>
        <Placemark>
          <name>BGST343 (BE20)</name>
          <description>Branch: &#xA;Altitude: 1575 ft&#xA;Speed: 125.0 kts&#xA;Heading: 179.1&#xA;Mission: </description>
          <Point>
            <coordinates>-99.459954,27.616699,1575</coordinates>
          </Point>
        </Placemark>
        <Placemark>
          <name>CHATAH1 (T38)</name>
          <description>Branch: &#xA;Altitude: 17125 ft&#xA;Speed: 445.5 kts&#xA;Heading: 284.2&#xA;Mission: </description>
          <Point>
            <coordinates>-97.501616,29.232152,17125</coordinates>
          </Point>
        </Placemark>
        <Placemark>
          <name>RRR4946 (A400)</name>
          <description>Branch: &#xA;Altitude: 32000 ft&#xA;Speed: 346.0 kts&#xA;Heading: 331.5&#xA;Mission: </description>
          <Point>
            <coordinates>0,0,32000</coordinates>
          </Point>
        </Placemark>
        <Placemark>
          <name>BALL21 (TEX2)</name>
          <description>Branch: &#xA;Altitude: 4100 ft&#xA;Speed: 204.0 kts&#xA;Heading: 192.7&#xA;Mission: </description>
          <Point>
            <coordinates>-97.572502,36.209169,4100</coordinates>
          </Point>
        </Placemark>
        <Placemark>
          <name>PAT175 (BE20)</name>
          <description>Branch: &#xA;Altitude: 27000 ft&#xA;Speed: 278.1 kts&#xA;Heading: 20.2&#xA;Mission: </description>
          <Point>
            <coordinates>-98.036661,30.929443,27000</coordinates>
          </Point>
        </Placemark>
        <Placemark>
          <name>WIRE31 (TEX2)</name>
          <description>Branch: &#xA;Altitude: 9450 ft&#xA;Speed: 194.7 kts&#xA;Heading: 187.7&#xA;Mission: </description>
          <Point>
            <coordinates>-97.609902,36.211682,9450</coordinates>
          </Point>
        </Placemark>
        <Placemark>
          <name> (K35R)</name>
          <description>Branch: &#xA;Altitude: 1200 ft&#xA;Speed: 185.6 kts&#xA;Heading: 37.1&#xA;Mission: </description>
          <Point>
            <coordinates>-70.773206,42.969717,1200</coordinates>
          </Point>
        </Placemark>
        <Placemark>
          <name>NICAD23 (EC45)</name>
          <description>Branch: &#xA;Altitude: 225 ft&#xA;Speed: 31.0 kts&#xA;Heading: 119.1&#xA;Mission: </description>
          <Point>
            <coordinates>-85.651993,31.233294,225</coordinates>
          </Point>
        </Placemark>
        <Placemark>
          <name>QUESO82 (C560)</name>
          <description>Branch: &#xA;Altitude: 36000 ft&#xA;Speed: 359.9 kts&#xA;Heading: 265.9&#xA;Mission: </description>
          <Point>
            <coordinates>-86.843336,33.673508,36000</coordinates>
          </Point>
        </Placemark>
        <Placemark>
          <name>SPAR320 (LJ35)</name>
          <description>Branch: &#xA;Altitude: 13650 ft&#xA;Speed: 307.7 kts&#xA;Heading: 74.2&#xA;Mission: </description>
          <Point>
            <coordinates>-85.613098,39.588023,13650</coordinates>
          </Point>
        </Placemark>
        <Placemark>
          <name>BOXER04 (TEX2)</name>
          <description>Branch: &#xA;Altitude: 1075 ft&#xA;Speed: 94.8 kts&#xA;Heading: 135.9&#xA;Mission: </description>
          <Point>
            <coordinates>-100.789597,29.366921,1075</coordinates>
          </Point>
        </Placemark>
        <Placemark>
          <name>MNTNA71 (BE9L)</name>
          <description>Branch: &#xA;Altitude: 3950 ft&#xA;Speed: 161.0 kts&#xA;Heading: 358.9&#xA;Mission: </description>
          <Point>
            <coordinates>-97.356878,26.276783,3950</coordinates>
          </Point>
        </Placemark>
        <Placemark>
          <name> (C30J)</name>
          <description>Branch: &#xA;Altitude: 1750 ft&#xA;Speed: 0.0 kts&#xA;Heading: 0.0&#xA;Mission: </description>
          <Point>
            <coordinates>-93.202999,30.318924,1750</coordinates>
          </Point>
        </Placemark>
        <Placemark>
          <name>N5916J (C172)</name>
          <description>Branch: &#xA;Altitude: 3825 ft&#xA;Speed: 101.3 kts&#xA;Heading: 41.4&#xA;Mission: </description>
          <Point>
            <coordinates>-86.331859,30.928162,3825</coordinates>
          </Point>
        </Placemark>
        <Placemark>
          <name> ()</name>
          <description>Branch: &#xA;Altitude: 28000 ft&#xA;Speed: 370.0 kts&#xA;Heading: 180.0&#xA;Mission: </description>
          <Point>
            <coordinates>-80.0266,33.4902,28000</coordinates>
          </Point>
        </Placemark>
        <Placemark>
          <name>RECON21 (LYNX)</name>
          <description>Branch: &#xA;Altitude: 0 ft&#xA;Speed: 0.0 kts&#xA;Heading: 0.0&#xA;Mission: </description>
          <Point>
            <coordinates>0,0,0</coordinates>
          </Point>
        </Placemark>
        <Placemark>
          <name> (H60)</name>
          <description>Branch: &#xA;Altitude: 1350 ft&#xA;Speed: 0.0 kts&#xA;Heading: 0.0&#xA;Mission: </description>
          <Point>
            <coordinates>0,0,1350</coordinates>
          </Point>
        </Placemark>
        <Placemark>
          <name> (EC45)</name>
          <description>Branch: &#xA;Altitude: 0 ft&#xA;Speed: 0.0 kts&#xA;Heading: 0.0&#xA;Mission: </description>
          <Point>
            <coordinates>0,0,0</coordinates>
          </Point>
        </Placemark>
        <Placemark>
          <name>SHARK75 (SR20)</name>
          <description>Branch: &#xA;Altitude: 8900 ft&#xA;Speed: 107.0 kts&#xA;Heading: 240.3&#xA;Mission: </description>
          <Point>
            <coordinates>-104.823363,38.842438,8900</coordinates>
          </Point>
        </Placemark>
        <Placemark>
          <name>STRKE85 (TEX2)</name>
          <description>Branch: &#xA;Altitude: 2100 ft&#xA;Speed: 234.8 kts&#xA;Heading: 315.4&#xA;Mission: </description>
          <Point>
            <coordinates>-100.825195,29.340758,2100</coordinates>
          </Point>
        </Placemark>
        <Placemark>
          <name>TUNAV01 (AT76)</name>
          <description>Branch: &#xA;Altitude: 3800 ft&#xA;Speed: 183.1 kts&#xA;Heading: 268.1&#xA;Mission: </description>
          <Point>
            <coordinates>15.460101,37.302567,3800</coordinates>
          </Point>
        </Placemark>
        <Placemark>
          <name>TEST1234 (TWR)</name>
          <description>Branch: &#xA;Altitude: 0 ft&#xA;Speed: 0.0 kts&#xA;Heading: 0.0&#xA;Mission: </description>
          <Point>
            <coordinates>0,0,0</coordinates>
          </Point>
        </Placemark>
        <Placemark>
          <name>VGBND20 (LYNX)</name>
          <description>Branch: &#xA;Altitude: 0 ft&#xA;Speed: 0.0 kts&#xA;Heading: 0.0&#xA;Mission: </description>
          <Point>
            <coordinates>0,0,0</coordinates>
          </Point>
        </Placemark>
        <Placemark>
          <name>VV1E628 (A119)</name>
          <description>Branch: &#xA;Altitude: 500 ft&#xA;Speed: 76.0 kts&#xA;Heading: 260.7&#xA;Mission: </description>
          <Point>
            <coordinates>-87.190407,30.668747,500</coordinates>
          </Point>
        </Placemark>
        <Placemark>
          <name>CNV3915 (C130)</name>
          <description>Branch: &#xA;Altitude: 950 ft&#xA;Speed: 143.0 kts&#xA;Heading: 118.2&#xA;Mission: </description>
          <Point>
            <coordinates>-5.061734,50.465836,950</coordinates>
          </Point>
        </Placemark>
        <Placemark>
          <name>HAWK208 ()</name>
          <description>Branch: &#xA;Altitude: 0 ft&#xA;Speed: 380.4 kts&#xA;Heading: 329.9&#xA;Mission: </description>
          <Point>
            <coordinates>-97.954154,27.578151,0</coordinates>
          </Point>
        </Placemark>
        <Placemark>
          <name>BOBCT41 (HAWK)</name>
          <description>Branch: &#xA;Altitude: 13875 ft&#xA;Speed: 221.4 kts&#xA;Heading: 224.1&#xA;Mission: </description>
          <Point>
            <coordinates>-88.503673,32.826078,13875</coordinates>
          </Point>
        </Placemark>
        <Placemark>
          <name>JAVAN66 (TEX2)</name>
          <description>Branch: &#xA;Altitude: 19050 ft&#xA;Speed: 288.9 kts&#xA;Heading: 58.0&#xA;Mission: </description>
          <Point>
            <coordinates>-99.363977,30.531751,19050</coordinates>
          </Point>
        </Placemark>
        <Placemark>
          <name>ASY050 (E737)</name>
          <description>Branch: &#xA;Altitude: 7850 ft&#xA;Speed: 269.8 kts&#xA;Heading: 188.3&#xA;Mission: </description>
          <Point>
            <coordinates>-76.780342,38.957245,7850</coordinates>
          </Point>
        </Placemark>
        <Placemark>
          <name>TEST1234 ()</name>
          <description>Branch: &#xA;Altitude: 0 ft&#xA;Speed: 0.0 kts&#xA;Heading: 0.0&#xA;Mission: </description>
          <Point>
            <coordinates>0,0,0</coordinates>
          </Point>
        </Placemark>
        <Placemark>
          <name> ()</name>
          <description>Branch: &#xA;Altitude: 0 ft&#xA;Speed: 0.0 kts&#xA;Heading: 0.0&#xA;Mission: </description>
          <Point>
            <coordinates>0,0,0</coordinates>
          </Point>
        </Placemark>
        <Placemark>
          <name>CTM1574 (CN35)</name>
          <description>Branch: &#xA;Altitude: 10000 ft&#xA;Speed: 0.0 kts&#xA;Heading: 0.0&#xA;Mission: </description>
          <Point>
            <coordinates>0,0,10000</coordinates>
          </Point>
        </Placemark>
        <Placemark>
          <name>RCH400 (C17)</name>
          <description>Branch: &#xA;Altitude: 31000 ft&#xA;Speed: 463.0 kts&#xA;Heading: 114.0&#xA;Mission: </description>
          <Point>
            <coordinates>-3.192933,54.162371,31000</coordinates>
          </Point>
        </Placemark>
        <Placemark>
          <name> (BE9L)</name>
          <description>Branch: &#xA;Altitude: 0 ft&#xA;Speed: 0.0 kts&#xA;Heading: 0.0&#xA;Mission: </description>
          <Point>
            <coordinates>0,0,0</coordinates>
          </Point>
        </Placemark>
        <Placemark>
          <name> (H64)</name>
          <description>Branch: &#xA;Altitude: 0 ft&#xA;Speed: 0.0 kts&#xA;Heading: 0.0&#xA;Mission: </description>
          <Point>
            <coordinates>0,0,0</coordinates>
          </Point>
        </Placemark>
        <Placemark>
          <name> ()</name>
          <description>Branch: &#xA;Altitude: 9025 ft&#xA;Speed: 260.6 kts&#xA;Heading: 276.4&#xA;Mission: </description>
          <Point>
            <coordinates>-121.911742,48.324063,9025</coordinates>
          </Point>
        </Placemark>
        <Placemark>
          <name>SHARK51 (SR20)</name>
          <description>Branch: &#xA;Altitude: 8825 ft&#xA;Speed: 102.4 kts&#xA;Heading: 170.4&#xA;Mission: </description>
          <Point>
            <coordinates>-104.79936,38.841888,8825</coordinates>
          </Point>
        </Placemark>
        <Placemark>
          <name>SHINR81 (TEX2)</name>
          <description>Branch: &#xA;Altitude: 9575 ft&#xA;Speed: 185.3 kts&#xA;Heading: 255.0&#xA;Mission: </description>
          <Point>
            <coordinates>-97.585183,36.329878,9575</coordinates>
          </Point>
        </Placemark>
        <Placemark>
          <name>SKUNK46 (TEX2)</name>
          <description>Branch: &#xA;Altitude: 6925 ft&#xA;Speed: 263.8 kts&#xA;Heading: 19.9&#xA;Mission: </description>
          <Point>
            <coordinates>-88.629119,33.181737,6925</coordinates>
          </Point>
        </Placemark>
        <Placemark>
          <name>GUNDOG2 (T38)</name>
          <description>Branch: &#xA;Altitude: 18850 ft&#xA;Speed: 499.8 kts&#xA;Heading: 307.0&#xA;Mission: </description>
          <Point>
            <coordinates>-88.567405,34.077438,18850</coordinates>
          </Point>
        </Placemark>
        <Placemark>
          <name>WING23 (C560)</name>
          <description>Branch: &#xA;Altitude: 39000 ft&#xA;Speed: 492.1 kts&#xA;Heading: 91.4&#xA;Mission: </description>
          <Point>
            <coordinates>-86.619973,39.819992,39000</coordinates>
          </Point>
        </Placemark>
        <Placemark>
          <name> (H60)</name>
          <description>Branch: &#xA;Altitude: 100 ft&#xA;Speed: 89.3 kts&#xA;Heading: 347.1&#xA;Mission: </description>
          <Point>
            <coordinates>-81.848749,30.345961,100</coordinates>
          </Point>
        </Placemark>
        <Placemark>
          <name>CHAOS21 (H64)</name>
          <description>Branch: &#xA;Altitude: 100 ft&#xA;Speed: 83.1 kts&#xA;Heading: 2.8&#xA;Mission: </description>
          <Point>
            <coordinates>-80.854912,34.061528,100</coordinates>
          </Point>
        </Placemark>
        <Placemark>
          <name>HOBBY05 (C30J)</name>
          <description>Branch: &#xA;Altitude: 9600 ft&#xA;Speed: 0.0 kts&#xA;Heading: 0.0&#xA;Mission: </description>
          <Point>
            <coordinates>-157.185872,21.097847,9600</coordinates>
          </Point>
        </Placemark>
        <Placemark>
          <name>C6058 (H60)</name>
          <description>Branch: &#xA;Altitude: -75 ft&#xA;Speed: 40.3 kts&#xA;Heading: 224.0&#xA;Mission: </description>
          <Point>
            <coordinates>-119.109285,34.13031,-75</coordinates>
          </Point>
        </Placemark>
        <Placemark>
          <name>TEXN763 (TEX2)</name>
          <description>Branch: &#xA;Altitude: 24075 ft&#xA;Speed: 313.7 kts&#xA;Heading: 138.2&#xA;Mission: </description>
          <Point>
            <coordinates>-98.686171,29.011734,24075</coordinates>
          </Point>
        </Placemark>
        <Placemark>
          <name>DRAG971 ()</name>
          <description>Branch: &#xA;Altitude: 50 ft&#xA;Speed: 8.6 kts&#xA;Heading: 125.5&#xA;Mission: </description>
          <Point>
            <coordinates>-61.518239,16.260929,50</coordinates>
          </Point>
        </Placemark>
        <Placemark>
          <name>CO96 (TUCA)</name>
          <description>Branch: &#xA;Altitude: 10000 ft&#xA;Speed: 206.5 kts&#xA;Heading: 319.9&#xA;Mission: </description>
          <Point>
            <coordinates>-46.618856,-22.482915,10000</coordinates>
          </Point>
        </Placemark>
        <Placemark>
          <name>APACHE1 (H64)</name>
          <description>Branch: &#xA;Altitude: 0 ft&#xA;Speed: 0.0 kts&#xA;Heading: 0.0&#xA;Mission: </description>
          <Point>
            <coordinates>4.929447,51.567613,0</coordinates>
          </Point>
        </Placemark>
        <Placemark>
          <name> (K35R)</name>
          <description>Branch: &#xA;Altitude: 34975 ft&#xA;Speed: 590.0 kts&#xA;Heading: 100.7&#xA;Mission: </description>
          <Point>
            <coordinates>0,0,34975</coordinates>
          </Point>
        </Placemark>
        <Placemark>
          <name> (H64)</name>
          <description>Branch: &#xA;Altitude: 6300 ft&#xA;Speed: 0.0 kts&#xA;Heading: 0.0&#xA;Mission: </description>
          <Point>
            <coordinates>0,0,6300</coordinates>
          </Point>
        </Placemark>
        <Placemark>
          <name>ZORO52 (AT8T)</name>
          <description>Branch: &#xA;Altitude: 3175 ft&#xA;Speed: 146.0 kts&#xA;Heading: 359.6&#xA;Mission: </description>
          <Point>
            <coordinates>-97.969068,34.92691,3175</coordinates>
          </Point>
        </Placemark>
        <Placemark>
          <name> (E290)</name>
          <description>Branch: &#xA;Altitude: 27025 ft&#xA;Speed: 444.8 kts&#xA;Heading: 44.0&#xA;Mission: </description>
          <Point>
            <coordinates>-45.133565,-24.751099,27025</coordinates>
          </Point>
        </Placemark>
        <Placemark>
          <name> ()</name>
          <description>Branch: &#xA;Altitude: 3825 ft&#xA;Speed: 0.0 kts&#xA;Heading: 0.0&#xA;Mission: </description>
          <Point>
            <coordinates>0,0,3825</coordinates>
          </Point>
        </Placemark>
        <Placemark>
          <name>G20671 (H60)</name>
          <description>Branch: &#xA;Altitude: 1675 ft&#xA;Speed: 145.7 kts&#xA;Heading: 316.1&#xA;Mission: </description>
          <Point>
            <coordinates>-92.248044,44.343753,1675</coordinates>
          </Point>
        </Placemark>
        <Placemark>
          <name>TALON61 ()</name>
          <description>Branch: &#xA;Altitude: 17600 ft&#xA;Speed: 156.0 kts&#xA;Heading: 308.9&#xA;Mission: </description>
          <Point>
            <coordinates>-89.576187,33.085049,17600</coordinates>
          </Point>
        </Placemark>
        <Placemark>
          <name>MAMUT33 (A400)</name>
          <description>Branch: &#xA;Altitude: 2475 ft&#xA;Speed: 299.0 kts&#xA;Heading: 298.2&#xA;Mission: </description>
          <Point>
            <coordinates>-1.486463,41.921585,2475</coordinates>
          </Point>
        </Placemark>
        <Placemark>
          <name>AAC319 (H64)</name>
          <description>Branch: &#xA;Altitude: 100 ft&#xA;Speed: 133.1 kts&#xA;Heading: 352.7&#xA;Mission: </description>
          <Point>
            <coordinates>0.950867,52.381649,100</coordinates>
          </Point>
        </Placemark>
        <Placemark>
          <name>FOOL1 (T38)</name>
          <description>Branch: &#xA;Altitude: 6375 ft&#xA;Speed: 366.5 kts&#xA;Heading: 11.7&#xA;Mission: </description>
          <Point>
            <coordinates>-98.73785,34.594877,6375</coordinates>
          </Point>
        </Placemark>
        <Placemark>
          <name>HOBO61 (AT8T)</name>
          <description>Branch: &#xA;Altitude: 3400 ft&#xA;Speed: 109.2 kts&#xA;Heading: 3.7&#xA;Mission: </description>
          <Point>
            <coordinates>-98.000268,35.470524,3400</coordinates>
          </Point>
        </Placemark>
        <Placemark>
          <name>RN033 (TEX2)</name>
          <description>Branch: &#xA;Altitude: 8575 ft&#xA;Speed: 172.4 kts&#xA;Heading: 82.7&#xA;Mission: </description>
          <Point>
            <coordinates>-86.466064,31.156448,8575</coordinates>
          </Point>
        </Placemark>
        <Placemark>
          <name>G21203 (H60)</name>
          <description>Branch: &#xA;Altitude: 925 ft&#xA;Speed: 109.8 kts&#xA;Heading: 249.8&#xA;Mission: </description>
          <Point>
            <coordinates>-76.764526,40.366104,925</coordinates>
          </Point>
        </Placemark>
        <Placemark>
          <name>KANZA02 (B762)</name>
          <description>Branch: &#xA;Altitude: 3375 ft&#xA;Speed: 160.0 kts&#xA;Heading: 193.0&#xA;Mission: </description>
          <Point>
            <coordinates>-97.229982,37.767681,3375</coordinates>
          </Point>
        </Placemark>
        <Placemark>
          <name>HAWK252 ()</name>
          <description>Branch: &#xA;Altitude: 775 ft&#xA;Speed: 180.0 kts&#xA;Heading: 141.9&#xA;Mission: </description>
          <Point>
            <coordinates>-98.232986,26.168131,775</coordinates>
          </Point>
        </Placemark>
        <Placemark>
          <name> (H60)</name>
          <description>Branch: &#xA;Altitude: 225 ft&#xA;Speed: 0.0 kts&#xA;Heading: 0.0&#xA;Mission: </description>
          <Point>
            <coordinates>-88.24138,30.697815,225</coordinates>
          </Point>
        </Placemark>
        <Placemark>
          <name>WEIRD42 (EC45)</name>
          <description>Branch: &#xA;Altitude: 350 ft&#xA;Speed: 44.0 kts&#xA;Heading: 101.2&#xA;Mission: </description>
          <Point>
            <coordinates>-85.745216,31.151966,350</coordinates>
          </Point>
        </Placemark>
        <Placemark>
          <name>COUGR56 (LJ35)</name>
          <description>Branch: &#xA;Altitude: 37975 ft&#xA;Speed: 424.8 kts&#xA;Heading: 215.2&#xA;Mission: </description>
          <Point>
            <coordinates>-96.72149,31.969025,37975</coordinates>
          </Point>
        </Placemark>
        <Placemark>
          <name>GRIT20 (H47)</name>
          <description>Branch: &#xA;Altitude: 2100 ft&#xA;Speed: 105.1 kts&#xA;Heading: 243.4&#xA;Mission: </description>
          <Point>
            <coordinates>10.606948,49.321884,2100</coordinates>
          </Point>
        </Placemark>
        <Placemark>
          <name> (K35R)</name>
          <description>Branch: &#xA;Altitude: 33000 ft&#xA;Speed: 0.0 kts&#xA;Heading: 0.0&#xA;Mission: </description>
          <Point>
            <coordinates>0,0,33000</coordinates>
          </Point>
        </Placemark>
        <Placemark>
          <name>BOMR705 (TEX2)</name>
          <description>Branch: &#xA;Altitude: 1375 ft&#xA;Speed: 141.0 kts&#xA;Heading: 155.7&#xA;Mission: </description>
          <Point>
            <coordinates>-97.042778,28.102236,1375</coordinates>
          </Point>
        </Placemark>
        <Placemark>
          <name> ()</name>
          <description>Branch: &#xA;Altitude: 1500 ft&#xA;Speed: 0.0 kts&#xA;Heading: 0.0&#xA;Mission: </description>
          <Point>
            <coordinates>0,0,1500</coordinates>
          </Point>
        </Placemark>
        <Placemark>
          <name>RUDY30 (V22)</name>
          <description>Branch: &#xA;Altitude: 0 ft&#xA;Speed: 0.0 kts&#xA;Heading: 0.0&#xA;Mission: </description>
          <Point>
            <coordinates>-117.211902,32.709371,0</coordinates>
          </Point>
        </Placemark>
        <Placemark>
          <name>CHETAH3 (T38)</name>
          <description>Branch: &#xA;Altitude: 17550 ft&#xA;Speed: 444.4 kts&#xA;Heading: 280.5&#xA;Mission: </description>
          <Point>
            <coordinates>-97.500493,29.247803,17550</coordinates>
          </Point>
        </Placemark>
        <Placemark>
          <name>EVAL78 (H64)</name>
          <description>Branch: &#xA;Altitude: 1400 ft&#xA;Speed: 114.0 kts&#xA;Heading: 232.1&#xA;Mission: </description>
          <Point>
            <coordinates>-96.719109,31.692581,1400</coordinates>
          </Point>
        </Placemark>
        <Placemark>
          <name>ROKT41 (HAWK)</name>
          <description>Branch: &#xA;Altitude: 9750 ft&#xA;Speed: 275.1 kts&#xA;Heading: 271.9&#xA;Mission: </description>
          <Point>
            <coordinates>-87.838709,30.295715,9750</coordinates>
          </Point>
        </Placemark>
        <Placemark>
          <name>EVAL47 ()</name>
          <description>Branch: &#xA;Altitude: 1225 ft&#xA;Speed: 144.0 kts&#xA;Heading: 290.3&#xA;Mission: </description>
          <Point>
            <coordinates>-86.592837,34.69986,1225</coordinates>
          </Point>
        </Placemark>
        <Placemark>
          <name>BELLS09 (EC45)</name>
          <description>Branch: &#xA;Altitude: 775 ft&#xA;Speed: 87.0 kts&#xA;Heading: 261.4&#xA;Mission: </description>
          <Point>
            <coordinates>-86.343222,30.805023,775</coordinates>
          </Point>
        </Placemark>
        <Placemark>
          <name>MESSY47 (EC45)</name>
          <description>Branch: &#xA;Altitude: 600 ft&#xA;Speed: 79.3 kts&#xA;Heading: 346.1&#xA;Mission: </description>
          <Point>
            <coordinates>-85.584358,31.212387,600</coordinates>
          </Point>
        </Placemark>
        <Placemark>
          <name>SGE61 (R66)</name>
          <description>Branch: &#xA;Altitude: 3150 ft&#xA;Speed: 94.2 kts&#xA;Heading: 132.0&#xA;Mission: </description>
          <Point>
            <coordinates>-84.89195,30.825989,3150</coordinates>
          </Point>
        </Placemark>
        <Placemark>
          <name>EASY04 (B350)</name>
          <description>Branch: &#xA;Altitude: 19475 ft&#xA;Speed: 234.1 kts&#xA;Heading: 99.3&#xA;Mission: </description>
          <Point>
            <coordinates>-95.526453,30.745891,19475</coordinates>
          </Point>
        </Placemark>
        <Placemark>
          <name>RCH1848 (C17)</name>
          <description>Branch: &#xA;Altitude: 35000 ft&#xA;Speed: 553.0 kts&#xA;Heading: 123.0&#xA;Mission: </description>
          <Point>
            <coordinates>-92.275389,39.56473,35000</coordinates>
          </Point>
        </Placemark>
        <Placemark>
          <name>PAT423 (BE20)</name>
          <description>Branch: &#xA;Altitude: 3725 ft&#xA;Speed: 221.8 kts&#xA;Heading: 4.9&#xA;Mission: </description>
          <Point>
            <coordinates>-86.071074,38.02708,3725</coordinates>
          </Point>
        </Placemark>
        <Placemark>
          <name>PAT245 (BE20)</name>
          <description>Branch: &#xA;Altitude: 25000 ft&#xA;Speed: 304.7 kts&#xA;Heading: 86.0&#xA;Mission: </description>
          <Point>
            <coordinates>-85.548401,39.860028,25000</coordinates>
          </Point>
        </Placemark>
        <Placemark>
          <name>MAKO6 (TEX2)</name>
          <description>Branch: &#xA;Altitude: 3125 ft&#xA;Speed: 269.0 kts&#xA;Heading: 245.6&#xA;Mission: </description>
          <Point>
            <coordinates>-81.223682,30.319985,3125</coordinates>
          </Point>
        </Placemark>
        <Placemark>
          <name>PAT171 (BE20)</name>
          <description>Branch: &#xA;Altitude: 20000 ft&#xA;Speed: 263.4 kts&#xA;Heading: 183.1&#xA;Mission: </description>
          <Point>
            <coordinates>-80.037811,32.789767,20000</coordinates>
          </Point>
        </Placemark>
        <Placemark>
          <name>R20191 (H60)</name>
          <description>Branch: &#xA;Altitude: 3550 ft&#xA;Speed: 97.7 kts&#xA;Heading: 202.9&#xA;Mission: </description>
          <Point>
            <coordinates>-78.976536,34.865438,3550</coordinates>
          </Point>
        </Placemark>
        <Placemark>
          <name>N5345U (H47)</name>
          <description>Branch: &#xA;Altitude: 1200 ft&#xA;Speed: 0.0 kts&#xA;Heading: 0.0&#xA;Mission: </description>
          <Point>
            <coordinates>0,0,1200</coordinates>
          </Point>
        </Placemark>
        <Placemark>
          <name>RCH1825 (C17)</name>
          <description>Branch: &#xA;Altitude: 34000 ft&#xA;Speed: 455.1 kts&#xA;Heading: 246.7&#xA;Mission: </description>
          <Point>
            <coordinates>-173.529419,59.203491,34000</coordinates>
          </Point>
        </Placemark>
        <Placemark>
          <name>TEST1234 ()</name>
          <description>Branch: &#xA;Altitude: 0 ft&#xA;Speed: 0.0 kts&#xA;Heading: 0.0&#xA;Mission: </description>
          <Point>
            <coordinates>0,0,0</coordinates>
          </Point>
        </Placemark>
        <Placemark>
          <name>TEST1234 (TWR)</name>
          <description>Branch: &#xA;Altitude: 0 ft&#xA;Speed: 0.0 kts&#xA;Heading: 0.0&#xA;Mission: </description>
          <Point>
            <coordinates>0,0,0</coordinates>
          </Point>
        </Placemark>
        <Placemark>
          <name>TEST1234 ()</name>
          <description>Branch: &#xA;Altitude: 0 ft&#xA;Speed: 0.0 kts&#xA;Heading: 0.0&#xA;Mission: </description>
          <Point>
            <coordinates>0,0,0</coordinates>
          </Point>
        </Placemark>
        <Placemark>
          <name>RGR840Z (TEX2)</name>
          <description>Branch: &#xA;Altitude: 4350 ft&#xA;Speed: 202.0 kts&#xA;Heading: 348.4&#xA;Mission: </description>
          <Point>
            <coordinates>-97.231277,27.719437,4350</coordinates>
          </Point>
        </Placemark>
        <Placemark>
          <name>PISTOL1 (T38)</name>
          <description>Branch: &#xA;Altitude: 3375 ft&#xA;Speed: 300.0 kts&#xA;Heading: 206.6&#xA;Mission: </description>
          <Point>
            <coordinates>-88.474274,34.012833,3375</coordinates>
          </Point>
        </Placemark>
        <Placemark>
          <name>CAPE67 (H60)</name>
          <description>Branch: &#xA;Altitude: 0 ft&#xA;Speed: 95.0 kts&#xA;Heading: 298.3&#xA;Mission: </description>
          <Point>
            <coordinates>-86.024765,31.292833,0</coordinates>
          </Point>
        </Placemark>
        <Placemark>
          <name>RRR6102 (C17)</name>
          <description>Branch: &#xA;Altitude: 23000 ft&#xA;Speed: 469.7 kts&#xA;Heading: 11.7&#xA;Mission: </description>
          <Point>
            <coordinates>-115.322365,34.810318,23000</coordinates>
          </Point>
        </Placemark>
        <Placemark>
          <name>RAIDR71 (C30J)</name>
          <description>Branch: &#xA;Altitude: 21000 ft&#xA;Speed: 340.9 kts&#xA;Heading: 109.2&#xA;Mission: </description>
          <Point>
            <coordinates>-94.779277,34.729111,21000</coordinates>
          </Point>
        </Placemark>
        <Placemark>
          <name> (EC35)</name>
          <description>Branch: &#xA;Altitude: 0 ft&#xA;Speed: 0.4 kts&#xA;Heading: 0.0&#xA;Mission: </description>
          <Point>
            <coordinates>-45.869431,-23.220646,0</coordinates>
          </Point>
        </Placemark>
        <Placemark>
          <name> ()</name>
          <description>Branch: &#xA;Altitude: -375 ft&#xA;Speed: 0.0 kts&#xA;Heading: 0.0&#xA;Mission: </description>
          <Point>
            <coordinates>0,0,-375</coordinates>
          </Point>
        </Placemark>
        <Placemark>
          <name>TEST1234 ()</name>
          <description>Branch: &#xA;Altitude: 0 ft&#xA;Speed: 0.0 kts&#xA;Heading: 0.0&#xA;Mission: </description>
          <Point>
            <coordinates>0,0,0</coordinates>
          </Point>
        </Placemark>
        <Placemark>
          <name>JEDI01 ()</name>
          <description>Branch: &#xA;Altitude: 0 ft&#xA;Speed: 258.0 kts&#xA;Heading: 269.8&#xA;Mission: </description>
          <Point>
            <coordinates>0,0,0</coordinates>
          </Point>
        </Placemark>
        <Placemark>
          <name>C6547 (AS65)</name>
          <description>Branch: &#xA;Altitude: -25 ft&#xA;Speed: 34.0 kts&#xA;Heading: 208.1&#xA;Mission: </description>
          <Point>
            <coordinates>-124.110863,40.975233,-25</coordinates>
          </Point>
        </Placemark>
        <Placemark>
          <name>RCH409 (C17)</name>
          <description>Branch: &#xA;Altitude: 0 ft&#xA;Speed: 0.0 kts&#xA;Heading: 0.0&#xA;Mission: </description>
          <Point>
            <coordinates>0,0,0</coordinates>
          </Point>
        </Placemark>
        <Placemark>
          <name>PAT123 (BE20)</name>
          <description>Branch: &#xA;Altitude: 8525 ft&#xA;Speed: 191.1 kts&#xA;Heading: 6.0&#xA;Mission: </description>
          <Point>
            <coordinates>-98.477484,29.418961,8525</coordinates>
          </Point>
        </Placemark>
        <Placemark>
          <name>RCH719 (K35R)</name>
          <description>Branch: &#xA;Altitude: 31000 ft&#xA;Speed: 523.0 kts&#xA;Heading: 80.0&#xA;Mission: </description>
          <Point>
            <coordinates>-79.786455,40.670986,31000</coordinates>
          </Point>
        </Placemark>
        <Placemark>
          <name>G26676 (H60)</name>
          <description>Branch: &#xA;Altitude: 500 ft&#xA;Speed: 0.0 kts&#xA;Heading: 0.0&#xA;Mission: </description>
          <Point>
            <coordinates>0,0,500</coordinates>
          </Point>
        </Placemark>
        <Placemark>
          <name>TEST1234 (TWR)</name>
          <description>Branch: &#xA;Altitude: 0 ft&#xA;Speed: 0.0 kts&#xA;Heading: 0.0&#xA;Mission: </description>
          <Point>
            <coordinates>0,0,0</coordinates>
          </Point>
        </Placemark>
        <Placemark>
          <name>TEST1234 ()</name>
          <description>Branch: &#xA;Altitude: 0 ft&#xA;Speed: 0.0 kts&#xA;Heading: 0.0&#xA;Mission: </description>
          <Point>
            <coordinates>0,0,0</coordinates>
          </Point>
        </Placemark>
        <Placemark>
          <name> (B737)</name>
          <description>Branch: &#xA;Altitude: 0 ft&#xA;Speed: 0.0 kts&#xA;Heading: 0.0&#xA;Mission: </description>
          <Point>
            <coordinates>0,0,0</coordinates>
          </Point>
        </Placemark>
        <Placemark>
          <name>CASH21 (TEX2)</name>
          <description>Branch: &#xA;Altitude: 8950 ft&#xA;Speed: 218.8 kts&#xA;Heading: 108.9&#xA;Mission: </description>
          <Point>
            <coordinates>-100.051359,29.124197,8950</coordinates>
          </Point>
        </Placemark>
        <Placemark>
          <name>STEWY78 (TEX2)</name>
          <description>Branch: &#xA;Altitude: 7875 ft&#xA;Speed: 205.4 kts&#xA;Heading: 208.8&#xA;Mission: </description>
          <Point>
            <coordinates>-97.727091,36.90289,7875</coordinates>
          </Point>
        </Placemark>
        <Placemark>
          <name> (EC45)</name>
          <description>Branch: &#xA;Altitude: 725 ft&#xA;Speed: 85.0 kts&#xA;Heading: 268.6&#xA;Mission: </description>
          <Point>
            <coordinates>-85.729889,31.136185,725</coordinates>
          </Point>
        </Placemark>
        <Placemark>
          <name>MESSY80 (EC45)</name>
          <description>Branch: &#xA;Altitude: 675 ft&#xA;Speed: 71.8 kts&#xA;Heading: 321.2&#xA;Mission: </description>
          <Point>
            <coordinates>-85.553119,31.241253,675</coordinates>
          </Point>
        </Placemark>
        <Placemark>
          <name> ()</name>
          <description>Branch: &#xA;Altitude: 0 ft&#xA;Speed: 0.0 kts&#xA;Heading: 0.0&#xA;Mission: </description>
          <Point>
            <coordinates>0,0,0</coordinates>
          </Point>
        </Placemark>
        <Placemark>
          <name> ()</name>
          <description>Branch: &#xA;Altitude: 0 ft&#xA;Speed: 0.0 kts&#xA;Heading: 0.0&#xA;Mission: </description>
          <Point>
            <coordinates>0,0,0</coordinates>
          </Point>
        </Placemark>
        <Placemark>
          <name> (C30J)</name>
          <description>Branch: &#xA;Altitude: 950 ft&#xA;Speed: 0.0 kts&#xA;Heading: 0.0&#xA;Mission: </description>
          <Point>
            <coordinates>0,0,950</coordinates>
          </Point>
        </Placemark>
        <Placemark>
          <name> (H64)</name>
          <description>Branch: &#xA;Altitude: 0 ft&#xA;Speed: 3.8 kts&#xA;Heading: 0.0&#xA;Mission: </description>
          <Point>
            <coordinates>0,0,0</coordinates>
          </Point>
        </Placemark>
        <Placemark>
          <name>HUSK42 (A332)</name>
          <description>Branch: &#xA;Altitude: 41000 ft&#xA;Speed: 561.5 kts&#xA;Heading: 109.9&#xA;Mission: </description>
          <Point>
            <coordinates>-81.484962,47.209183,41000</coordinates>
          </Point>
        </Placemark>
        <Placemark>
          <name>CODY06 (C17)</name>
          <description>Branch: &#xA;Altitude: 10975 ft&#xA;Speed: 497.0 kts&#xA;Heading: 126.0&#xA;Mission: </description>
          <Point>
            <coordinates>-104.506087,38.689159,10975</coordinates>
          </Point>
        </Placemark>
        <Placemark>
          <name>BGST344 (BE20)</name>
          <description>Branch: &#xA;Altitude: 9900 ft&#xA;Speed: 165.4 kts&#xA;Heading: 197.2&#xA;Mission: </description>
          <Point>
            <coordinates>-96.713333,29.436401,9900</coordinates>
          </Point>
        </Placemark>
        <Placemark>
          <name>WEIRD19 (EC45)</name>
          <description>Branch: &#xA;Altitude: 825 ft&#xA;Speed: 0.0 kts&#xA;Heading: 0.0&#xA;Mission: </description>
          <Point>
            <coordinates>-85.765147,31.163589,825</coordinates>
          </Point>
        </Placemark>
        <Placemark>
          <name>SHF470 (H47)</name>
          <description>Branch: &#xA;Altitude: 875 ft&#xA;Speed: 95.0 kts&#xA;Heading: 192.0&#xA;Mission: </description>
          <Point>
            <coordinates>-0.876783,51.281161,875</coordinates>
          </Point>
        </Placemark>
        <Placemark>
          <name> (EC45)</name>
          <description>Branch: &#xA;Altitude: 0 ft&#xA;Speed: 6.2 kts&#xA;Heading: 0.0&#xA;Mission: </description>
          <Point>
            <coordinates>0,0,0</coordinates>
          </Point>
        </Placemark>
        <Placemark>
          <name>JOLLY92 (H60)</name>
          <description>Branch: &#xA;Altitude: 900 ft&#xA;Speed: 93.9 kts&#xA;Heading: 333.4&#xA;Mission: </description>
          <Point>
            <coordinates>-122.044022,37.407715,900</coordinates>
          </Point>
        </Placemark>
        <Placemark>
          <name>CHEWY44 (TEX2)</name>
          <description>Branch: &#xA;Altitude: 1500 ft&#xA;Speed: 227.0 kts&#xA;Heading: 45.9&#xA;Mission: </description>
          <Point>
            <coordinates>-88.495697,30.811483,1500</coordinates>
          </Point>
        </Placemark>
        <Placemark>
          <name>RCH284 (C17)</name>
          <description>Branch: &#xA;Altitude: 22750 ft&#xA;Speed: 472.0 kts&#xA;Heading: 69.0&#xA;Mission: </description>
          <Point>
            <coordinates>16.309768,37.714043,22750</coordinates>
          </Point>
        </Placemark>
        <Placemark>
          <name> (K35R)</name>
          <description>Branch: &#xA;Altitude: 0 ft&#xA;Speed: 0.0 kts&#xA;Heading: 0.0&#xA;Mission: </description>
          <Point>
            <coordinates>0,0,0</coordinates>
          </Point>
        </Placemark>
        <Placemark>
          <name>HRCLS61 (C30J)</name>
          <description>Branch: &#xA;Altitude: 25000 ft&#xA;Speed: 322.0 kts&#xA;Heading: 61.9&#xA;Mission: </description>
          <Point>
            <coordinates>-152.113449,22.231247,25000</coordinates>
          </Point>
        </Placemark>
        <Placemark>
          <name> (H60)</name>
          <description>Branch: &#xA;Altitude: 750 ft&#xA;Speed: 104.0 kts&#xA;Heading: 83.4&#xA;Mission: </description>
          <Point>
            <coordinates>-86.01503,31.337814,750</coordinates>
          </Point>
        </Placemark>
        <Placemark>
          <name>JOLLY91 (H60)</name>
          <description>Branch: &#xA;Altitude: 400 ft&#xA;Speed: 103.5 kts&#xA;Heading: 159.6&#xA;Mission: </description>
          <Point>
            <coordinates>-122.030757,37.406937,400</coordinates>
          </Point>
        </Placemark>
        <Placemark>
          <name>TOPCT26 (R135)</name>
          <description>Branch: &#xA;Altitude: 30975 ft&#xA;Speed: 428.7 kts&#xA;Heading: 159.7&#xA;Mission: </description>
          <Point>
            <coordinates>-101.054927,44.973999,30975</coordinates>
          </Point>
        </Placemark>
        <Placemark>
          <name>BAT31 (TEX2)</name>
          <description>Branch: &#xA;Altitude: 2975 ft&#xA;Speed: 235.3 kts&#xA;Heading: 239.6&#xA;Mission: </description>
          <Point>
            <coordinates>-100.880162,29.557755,2975</coordinates>
          </Point>
        </Placemark>
        <Placemark>
          <name> ()</name>
          <description>Branch: &#xA;Altitude: 5050 ft&#xA;Speed: 259.9 kts&#xA;Heading: 304.2&#xA;Mission: </description>
          <Point>
            <coordinates>-94.551311,32.407573,5050</coordinates>
          </Point>
        </Placemark>
        <Placemark>
          <name>EASY61 (BE20)</name>
          <description>Branch: &#xA;Altitude: 4850 ft&#xA;Speed: 184.2 kts&#xA;Heading: 41.5&#xA;Mission: </description>
          <Point>
            <coordinates>-89.944699,29.873154,4850</coordinates>
          </Point>
        </Placemark>
        <Placemark>
          <name>VV4E631 (A119)</name>
          <description>Branch: &#xA;Altitude: 500 ft&#xA;Speed: 83.1 kts&#xA;Heading: 357.9&#xA;Mission: </description>
          <Point>
            <coordinates>-86.950415,30.598832,500</coordinates>
          </Point>
        </Placemark>
        <Placemark>
          <name>PAT841 (BE20)</name>
          <description>Branch: &#xA;Altitude: 26975 ft&#xA;Speed: 302.0 kts&#xA;Heading: 56.2&#xA;Mission: </description>
          <Point>
            <coordinates>-77.57135,39.925781,26975</coordinates>
          </Point>
        </Placemark>
        <Placemark>
          <name>APACHE2 (H64)</name>
          <description>Branch: &#xA;Altitude: 200 ft&#xA;Speed: 170.1 kts&#xA;Heading: 61.2&#xA;Mission: </description>
          <Point>
            <coordinates>5.058462,51.725006,200</coordinates>
          </Point>
        </Placemark>
        <Placemark>
          <name> (P8)</name>
          <description>Branch: &#xA;Altitude: 28200 ft&#xA;Speed: 472.0 kts&#xA;Heading: 273.3&#xA;Mission: </description>
          <Point>
            <coordinates>-121.839403,43.316046,28200</coordinates>
          </Point>
        </Placemark>
        <Placemark>
          <name>RUDY36 (V22)</name>
          <description>Branch: &#xA;Altitude: 3975 ft&#xA;Speed: 207.7 kts&#xA;Heading: 347.8&#xA;Mission: </description>
          <Point>
            <coordinates>-117.508228,33.115219,3975</coordinates>
          </Point>
        </Placemark>
        <Placemark>
          <name>N66MJ (C182)</name>
          <description>Branch: &#xA;Altitude: 6700 ft&#xA;Speed: 83.7 kts&#xA;Heading: 172.4&#xA;Mission: </description>
          <Point>
            <coordinates>-104.816162,38.965713,6700</coordinates>
          </Point>
        </Placemark>
        <Placemark>
          <name>LOOT77 (BE40)</name>
          <description>Branch: &#xA;Altitude: 2950 ft&#xA;Speed: 192.4 kts&#xA;Heading: 3.9&#xA;Mission: </description>
          <Point>
            <coordinates>-98.061218,31.228777,2950</coordinates>
          </Point>
        </Placemark>
        <Placemark>
          <name>EVIL81 (TEX2)</name>
          <description>Branch: &#xA;Altitude: 16025 ft&#xA;Speed: 244.1 kts&#xA;Heading: 97.5&#xA;Mission: </description>
          <Point>
            <coordinates>-97.628632,36.740341,16025</coordinates>
          </Point>
        </Placemark>
        <Placemark>
          <name>CEF624 (C295)</name>
          <description>Branch: &#xA;Altitude: 21000 ft&#xA;Speed: 245.8 kts&#xA;Heading: 131.5&#xA;Mission: </description>
          <Point>
            <coordinates>19.53679,47.236183,21000</coordinates>
          </Point>
        </Placemark>
        <Placemark>
          <name>TEST1234 ()</name>
          <description>Branch: &#xA;Altitude: 0 ft&#xA;Speed: 0.0 kts&#xA;Heading: 0.0&#xA;Mission: </description>
          <Point>
            <coordinates>0,0,0</coordinates>
          </Point>
        </Placemark>
        <Placemark>
          <name> (Q1)</name>
          <description>Branch: &#xA;Altitude: 0 ft&#xA;Speed: 0.0 kts&#xA;Heading: 0.0&#xA;Mission: </description>
          <Point>
            <coordinates>0,0,0</coordinates>
          </Point>
        </Placemark>
        <Placemark>
          <name> (C130)</name>
          <description>Branch: &#xA;Altitude: 19100 ft&#xA;Speed: 316.0 kts&#xA;Heading: 159.0&#xA;Mission: </description>
          <Point>
            <coordinates>-102.941819,39.714184,19100</coordinates>
          </Point>
        </Placemark>
        <Placemark>
          <name>VV1E638 (A119)</name>
          <description>Branch: &#xA;Altitude: 550 ft&#xA;Speed: 65.0 kts&#xA;Heading: 59.5&#xA;Mission: </description>
          <Point>
            <coordinates>-86.947227,30.610004,550</coordinates>
          </Point>
        </Placemark>
        <Placemark>
          <name>EVAL53 (TEX2)</name>
          <description>Branch: &#xA;Altitude: 2400 ft&#xA;Speed: 148.8 kts&#xA;Heading: 174.2&#xA;Mission: </description>
          <Point>
            <coordinates>-86.707134,34.792305,2400</coordinates>
          </Point>
        </Placemark>
        <Placemark>
          <name>FOXX373 (BE20)</name>
          <description>Branch: &#xA;Altitude: 2375 ft&#xA;Speed: 234.3 kts&#xA;Heading: 357.3&#xA;Mission: </description>
          <Point>
            <coordinates>-74.704524,39.697861,2375</coordinates>
          </Point>
        </Placemark>
        <Placemark>
          <name>TEST1234 ()</name>
          <description>Branch: &#xA;Altitude: 0 ft&#xA;Speed: 0.0 kts&#xA;Heading: 0.0&#xA;Mission: </description>
          <Point>
            <coordinates>0,0,0</coordinates>
          </Point>
        </Placemark>
        <Placemark>
          <name> ()</name>
          <description>Branch: &#xA;Altitude: 0 ft&#xA;Speed: 466.2 kts&#xA;Heading: 268.4&#xA;Mission: </description>
          <Point>
            <coordinates>0,0,0</coordinates>
          </Point>
        </Placemark>
        <Placemark>
          <name>CNV7456 (BE20)</name>
          <description>Branch: &#xA;Altitude: 28000 ft&#xA;Speed: 0.0 kts&#xA;Heading: 0.0&#xA;Mission: </description>
          <Point>
            <coordinates>0,0,28000</coordinates>
          </Point>
        </Placemark>
        <Placemark>
          <name>WAYLN37 (BE20)</name>
          <description>Branch: &#xA;Altitude: 2775 ft&#xA;Speed: 127.6 kts&#xA;Heading: 236.2&#xA;Mission: </description>
          <Point>
            <coordinates>-117.830601,34.93238,2775</coordinates>
          </Point>
        </Placemark>
        <Placemark>
          <name>TETON38 (C130)</name>
          <description>Branch: &#xA;Altitude: 21000 ft&#xA;Speed: 311.3 kts&#xA;Heading: 159.7&#xA;Mission: </description>
          <Point>
            <coordinates>-103.207626,40.077287,21000</coordinates>
          </Point>
        </Placemark>
        <Placemark>
          <name>BLZR222 (HAWK)</name>
          <description>Branch: &#xA;Altitude: 0 ft&#xA;Speed: 369.0 kts&#xA;Heading: 247.5&#xA;Mission: </description>
          <Point>
            <coordinates>-98.736455,28.101105,0</coordinates>
          </Point>
        </Placemark>
        <Placemark>
          <name>RMAF256 (C130)</name>
          <description>Branch: &#xA;Altitude: 19750 ft&#xA;Speed: 245.7 kts&#xA;Heading: 48.1&#xA;Mission: </description>
          <Point>
            <coordinates>-12.613237,27.652771,19750</coordinates>
          </Point>
        </Placemark>
        <Placemark>
          <name>YETI31 (B762)</name>
          <description>Branch: &#xA;Altitude: 0 ft&#xA;Speed: 0.0 kts&#xA;Heading: 0.0&#xA;Mission: </description>
          <Point>
            <coordinates>0,0,0</coordinates>
          </Point>
        </Placemark>
        <Placemark>
          <name> ()</name>
          <description>Branch: &#xA;Altitude: 5625 ft&#xA;Speed: 204.0 kts&#xA;Heading: 226.1&#xA;Mission: </description>
          <Point>
            <coordinates>-111.419975,47.44574,5625</coordinates>
          </Point>
        </Placemark>
        <Placemark>
          <name>BLACK34 (H60)</name>
          <description>Branch: &#xA;Altitude: 3950 ft&#xA;Speed: 112.0 kts&#xA;Heading: 215.0&#xA;Mission: </description>
          <Point>
            <coordinates>-8.162467,40.735397,3950</coordinates>
          </Point>
        </Placemark>
        <Placemark>
          <name>R21200 (H60)</name>
          <description>Branch: &#xA;Altitude: 150 ft&#xA;Speed: 1.6 kts&#xA;Heading: 135.0&#xA;Mission: </description>
          <Point>
            <coordinates>-147.602856,64.833344,150</coordinates>
          </Point>
        </Placemark>
        <Placemark>
          <name>MMF35 (A332)</name>
          <description>Branch: &#xA;Altitude: 25475 ft&#xA;Speed: 423.9 kts&#xA;Heading: 278.7&#xA;Mission: </description>
          <Point>
            <coordinates>-114.592285,40.594574,25475</coordinates>
          </Point>
        </Placemark>
        <Placemark>
          <name>UHAUL12 (C5M)</name>
          <description>Branch: &#xA;Altitude: 1700 ft&#xA;Speed: 207.5 kts&#xA;Heading: 337.0&#xA;Mission: </description>
          <Point>
            <coordinates>-98.564054,29.419647,1700</coordinates>
          </Point>
        </Placemark>
        <Placemark>
          <name>HOOK43 (TEX2)</name>
          <description>Branch: &#xA;Altitude: 1775 ft&#xA;Speed: 122.6 kts&#xA;Heading: 311.4&#xA;Mission: </description>
          <Point>
            <coordinates>-97.347221,35.38385,1775</coordinates>
          </Point>
        </Placemark>
        <Placemark>
          <name>AVLON43 (B737)</name>
          <description>Branch: &#xA;Altitude: 35000 ft&#xA;Speed: 431.7 kts&#xA;Heading: 17.8&#xA;Mission: </description>
          <Point>
            <coordinates>-91.602309,36.158566,35000</coordinates>
          </Point>
        </Placemark>
        <Placemark>
          <name>TALON48 (HAWK)</name>
          <description>Branch: &#xA;Altitude: 3050 ft&#xA;Speed: 269.3 kts&#xA;Heading: 105.1&#xA;Mission: </description>
          <Point>
            <coordinates>-88.620095,32.706345,3050</coordinates>
          </Point>
        </Placemark>
        <Placemark>
          <name>SGE62 (R66)</name>
          <description>Branch: &#xA;Altitude: 1600 ft&#xA;Speed: 111.2 kts&#xA;Heading: 266.4&#xA;Mission: </description>
          <Point>
            <coordinates>-85.010214,30.854919,1600</coordinates>
          </Point>
        </Placemark>
        <Placemark>
          <name>COVET15 (H64)</name>
          <description>Branch: &#xA;Altitude: 900 ft&#xA;Speed: 49.2 kts&#xA;Heading: 77.1&#xA;Mission: </description>
          <Point>
            <coordinates>10.076987,50.09221,900</coordinates>
          </Point>
        </Placemark>
        <Placemark>
          <name>JEDDA55 (TEX2)</name>
          <description>Branch: &#xA;Altitude: 12900 ft&#xA;Speed: 281.9 kts&#xA;Heading: 138.4&#xA;Mission: </description>
          <Point>
            <coordinates>-100.30132,28.887909,12900</coordinates>
          </Point>
        </Placemark>
        <Placemark>
          <name>CHETAH4 (T38)</name>
          <description>Branch: &#xA;Altitude: 18000 ft&#xA;Speed: 434.8 kts&#xA;Heading: 280.9&#xA;Mission: </description>
          <Point>
            <coordinates>-97.497694,29.271423,18000</coordinates>
          </Point>
        </Placemark>
        <Placemark>
          <name>RAIDR72 (C30J)</name>
          <description>Branch: &#xA;Altitude: 21000 ft&#xA;Speed: 340.9 kts&#xA;Heading: 108.1&#xA;Mission: </description>
          <Point>
            <coordinates>-96.357994,35.166957,21000</coordinates>
          </Point>
        </Placemark>
        <Placemark>
          <name>DALLAS1 (T38)</name>
          <description>Branch: &#xA;Altitude: 18825 ft&#xA;Speed: 132.7 kts&#xA;Heading: 260.9&#xA;Mission: </description>
          <Point>
            <coordinates>-87.979202,33.669837,18825</coordinates>
          </Point>
        </Placemark>
        <Placemark>
          <name>SH046 (TEX2)</name>
          <description>Branch: &#xA;Altitude: 3275 ft&#xA;Speed: 221.4 kts&#xA;Heading: 256.1&#xA;Mission: </description>
          <Point>
            <coordinates>-87.450073,31.110488,3275</coordinates>
          </Point>
        </Placemark>
        <Placemark>
          <name> ()</name>
          <description>Branch: &#xA;Altitude: 0 ft&#xA;Speed: 0.0 kts&#xA;Heading: 0.0&#xA;Mission: </description>
          <Point>
            <coordinates>0,0,0</coordinates>
          </Point>
        </Placemark>
        <Placemark>
          <name>TEST1234 ()</name>
          <description>Branch: &#xA;Altitude: 0 ft&#xA;Speed: 0.0 kts&#xA;Heading: 0.0&#xA;Mission: </description>
          <Point>
            <coordinates>0,0,0</coordinates>
          </Point>
        </Placemark>
        <Placemark>
          <name> (B350)</name>
          <description>Branch: &#xA;Altitude: 0 ft&#xA;Speed: 0.0 kts&#xA;Heading: 0.0&#xA;Mission: </description>
          <Point>
            <coordinates>0,0,0</coordinates>
          </Point>
        </Placemark>
        <Placemark>
          <name>THNDR06 (DG1T)</name>
          <description>Branch: &#xA;Altitude: 8025 ft&#xA;Speed: 71.8 kts&#xA;Heading: 77.1&#xA;Mission: </description>
          <Point>
            <coordinates>-104.84038,38.994598,8025</coordinates>
          </Point>
        </Placemark>
        <Placemark>
          <name>DEVIL02 (TEX2)</name>
          <description>Branch: &#xA;Altitude: 10375 ft&#xA;Speed: 77.1 kts&#xA;Heading: 213.9&#xA;Mission: </description>
          <Point>
            <coordinates>-100.472823,28.98262,10375</coordinates>
          </Point>
        </Placemark>
        <Placemark>
          <name>TALON47 ()</name>
          <description>Branch: &#xA;Altitude: 13175 ft&#xA;Speed: 257.0 kts&#xA;Heading: 129.9&#xA;Mission: </description>
          <Point>
            <coordinates>-89.247601,32.693161,13175</coordinates>
          </Point>
        </Placemark>
        <Placemark>
          <name>SH157 (TEX2)</name>
          <description>Branch: &#xA;Altitude: 3900 ft&#xA;Speed: 231.4 kts&#xA;Heading: 356.8&#xA;Mission: </description>
          <Point>
            <coordinates>-87.00304,30.917995,3900</coordinates>
          </Point>
        </Placemark>
        <Placemark>
          <name>PAT375 (BE20)</name>
          <description>Branch: &#xA;Altitude: 26000 ft&#xA;Speed: 222.3 kts&#xA;Heading: 251.7&#xA;Mission: </description>
          <Point>
            <coordinates>-84.18728,34.454681,26000</coordinates>
          </Point>
        </Placemark>
        <Placemark>
          <name>OLIVE27 (C135)</name>
          <description>Branch: &#xA;Altitude: 32650 ft&#xA;Speed: 328.2 kts&#xA;Heading: 230.4&#xA;Mission: </description>
          <Point>
            <coordinates>-68.813268,44.544067,32650</coordinates>
          </Point>
        </Placemark>
        <Placemark>
          <name>TEST1234 ()</name>
          <description>Branch: &#xA;Altitude: 0 ft&#xA;Speed: 0.0 kts&#xA;Heading: 0.0&#xA;Mission: </description>
          <Point>
            <coordinates>0,0,0</coordinates>
          </Point>
        </Placemark>
        <Placemark>
          <name>BOMR822 (TEX2)</name>
          <description>Branch: &#xA;Altitude: 350 ft&#xA;Speed: 100.0 kts&#xA;Heading: 130.3&#xA;Mission: </description>
          <Point>
            <coordinates>-97.529053,27.791107,350</coordinates>
          </Point>
        </Placemark>
        <Placemark>
          <name>STRKE41 (TEX2)</name>
          <description>Branch: &#xA;Altitude: 3100 ft&#xA;Speed: 236.8 kts&#xA;Heading: 329.0&#xA;Mission: </description>
          <Point>
            <coordinates>-100.736812,29.203033,3100</coordinates>
          </Point>
        </Placemark>
        <Placemark>
          <name>DEVIL20 (TEX2)</name>
          <description>Branch: &#xA;Altitude: 10150 ft&#xA;Speed: 164.5 kts&#xA;Heading: 345.2&#xA;Mission: </description>
          <Point>
            <coordinates>-100.350283,29.108688,10150</coordinates>
          </Point>
        </Placemark>
        <Placemark>
          <name>RN148 (TEX2)</name>
          <description>Branch: &#xA;Altitude: 3300 ft&#xA;Speed: 218.3 kts&#xA;Heading: 193.8&#xA;Mission: </description>
          <Point>
            <coordinates>-87.49641,31.314789,3300</coordinates>
          </Point>
        </Placemark>
        <Placemark>
          <name>R08461 (H47)</name>
          <description>Branch: &#xA;Altitude: 4400 ft&#xA;Speed: 140.0 kts&#xA;Heading: 45.6&#xA;Mission: </description>
          <Point>
            <coordinates>-75.411898,44.3978,4400</coordinates>
          </Point>
        </Placemark>
        <Placemark>
          <name> (H47)</name>
          <description>Branch: &#xA;Altitude: -125 ft&#xA;Speed: 0.0 kts&#xA;Heading: 0.0&#xA;Mission: </description>
          <Point>
            <coordinates>0,0,-125</coordinates>
          </Point>
        </Placemark>
        <Placemark>
          <name>WING14 (BE20)</name>
          <description>Branch: &#xA;Altitude: 2350 ft&#xA;Speed: 170.0 kts&#xA;Heading: 1.1&#xA;Mission: </description>
          <Point>
            <coordinates>-75.458472,39.221985,2350</coordinates>
          </Point>
        </Placemark>
        <Placemark>
          <name>R20764 (H60)</name>
          <description>Branch: &#xA;Altitude: 4725 ft&#xA;Speed: 118.3 kts&#xA;Heading: 356.1&#xA;Mission: </description>
          <Point>
            <coordinates>-87.623564,37.672531,4725</coordinates>
          </Point>
        </Placemark>
        <Placemark>
          <name>DEALS24 (EC45)</name>
          <description>Branch: &#xA;Altitude: 425 ft&#xA;Speed: 67.0 kts&#xA;Heading: 115.0&#xA;Mission: </description>
          <Point>
            <coordinates>-85.980293,31.392334,425</coordinates>
          </Point>
        </Placemark>
        <Placemark>
          <name> ()</name>
          <description>Branch: &#xA;Altitude: 4025 ft&#xA;Speed: 163.5 kts&#xA;Heading: 109.7&#xA;Mission: </description>
          <Point>
            <coordinates>-114.236996,48.366518,4025</coordinates>
          </Point>
        </Placemark>
        <Placemark>
          <name>DEVIL26 (TEX2)</name>
          <description>Branch: &#xA;Altitude: 17700 ft&#xA;Speed: 102.0 kts&#xA;Heading: 318.2&#xA;Mission: </description>
          <Point>
            <coordinates>-100.207645,28.927235,17700</coordinates>
          </Point>
        </Placemark>
        <Placemark>
          <name>LOGIC510 (C295)</name>
          <description>Branch: &#xA;Altitude: 22975 ft&#xA;Speed: 135.2 kts&#xA;Heading: 328.3&#xA;Mission: </description>
          <Point>
            <coordinates>-97.668385,50.466797,22975</coordinates>
          </Point>
        </Placemark>
        <Placemark>
          <name>EVIL16 (TEX2)</name>
          <description>Branch: &#xA;Altitude: 4875 ft&#xA;Speed: 173.9 kts&#xA;Heading: 325.3&#xA;Mission: </description>
          <Point>
            <coordinates>-97.372456,35.154714,4875</coordinates>
          </Point>
        </Placemark>
        <Placemark>
          <name>DRAGN77 (TEX2)</name>
          <description>Branch: &#xA;Altitude: 5925 ft&#xA;Speed: 239.0 kts&#xA;Heading: 0.0&#xA;Mission: </description>
          <Point>
            <coordinates>-97.839661,36.610565,5925</coordinates>
          </Point>
        </Placemark>
        <Placemark>
          <name> (C30J)</name>
          <description>Branch: &#xA;Altitude: 1325 ft&#xA;Speed: 0.0 kts&#xA;Heading: 0.0&#xA;Mission: </description>
          <Point>
            <coordinates>0,0,1325</coordinates>
          </Point>
        </Placemark>
        <Placemark>
          <name> (C17)</name>
          <description>Branch: &#xA;Altitude: 0 ft&#xA;Speed: 0.0 kts&#xA;Heading: 0.0&#xA;Mission: </description>
          <Point>
            <coordinates>0,0,0</coordinates>
          </Point>
        </Placemark>
        <Placemark>
          <name>VV7E261 (A119)</name>
          <description>Branch: &#xA;Altitude: 0 ft&#xA;Speed: 0.0 kts&#xA;Heading: 0.0&#xA;Mission: </description>
          <Point>
            <coordinates>0,0,0</coordinates>
          </Point>
        </Placemark>
        <Placemark>
          <name>CHETAH2 (T38)</name>
          <description>Branch: &#xA;Altitude: 16575 ft&#xA;Speed: 443.5 kts&#xA;Heading: 328.5&#xA;Mission: </description>
          <Point>
            <coordinates>-97.497324,29.227798,16575</coordinates>
          </Point>
        </Placemark>
        <Placemark>
          <name>C6585 (AS65)</name>
          <description>Branch: &#xA;Altitude: 800 ft&#xA;Speed: 84.6 kts&#xA;Heading: 147.1&#xA;Mission: </description>
          <Point>
            <coordinates>-88.130762,30.616837,800</coordinates>
          </Point>
        </Placemark>
        <Placemark>
          <name>POBOY11 (EC45)</name>
          <description>Branch: &#xA;Altitude: 1700 ft&#xA;Speed: 91.2 kts&#xA;Heading: 133.7&#xA;Mission: </description>
          <Point>
            <coordinates>-85.53208,31.390639,1700</coordinates>
          </Point>
        </Placemark>
        <Placemark>
          <name>JDGMT88 (A400)</name>
          <description>Branch: &#xA;Altitude: 850 ft&#xA;Speed: 284.9 kts&#xA;Heading: 64.4&#xA;Mission: </description>
          <Point>
            <coordinates>-1.518784,51.874928,850</coordinates>
          </Point>
        </Placemark>
        <Placemark>
          <name>GEIV01 (E550)</name>
          <description>Branch: &#xA;Altitude: 28875 ft&#xA;Speed: 458.0 kts&#xA;Heading: 351.5&#xA;Mission: </description>
          <Point>
            <coordinates>-60.141441,-1.639664,28875</coordinates>
          </Point>
        </Placemark>
        <Placemark>
          <name> (P1)</name>
          <description>Branch: &#xA;Altitude: 0 ft&#xA;Speed: 0.0 kts&#xA;Heading: 0.0&#xA;Mission: </description>
          <Point>
            <coordinates>0,0,0</coordinates>
          </Point>
        </Placemark>
        <Placemark>
          <name>TRON11 (GLF5)</name>
          <description>Branch: &#xA;Altitude: 41000 ft&#xA;Speed: 494.2 kts&#xA;Heading: 117.1&#xA;Mission: </description>
          <Point>
            <coordinates>-118.467169,33.413727,41000</coordinates>
          </Point>
        </Placemark>
        <Placemark>
          <name>AXEL21 (GLEX)</name>
          <description>Branch: &#xA;Altitude: 40000 ft&#xA;Speed: 410.4 kts&#xA;Heading: 272.4&#xA;Mission: </description>
          <Point>
            <coordinates>-100.795749,31.876552,40000</coordinates>
          </Point>
        </Placemark>
        <Placemark>
          <name>HOOK51 (TEX2)</name>
          <description>Branch: &#xA;Altitude: 9875 ft&#xA;Speed: 269.4 kts&#xA;Heading: 155.4&#xA;Mission: </description>
          <Point>
            <coordinates>-97.673492,35.410812,9875</coordinates>
          </Point>
        </Placemark>
        <Placemark>
          <name>BOBCT11 (HAWK)</name>
          <description>Branch: &#xA;Altitude: 14875 ft&#xA;Speed: 351.5 kts&#xA;Heading: 280.2&#xA;Mission: </description>
          <Point>
            <coordinates>-89.328657,32.181888,14875</coordinates>
          </Point>
        </Placemark>
        <Placemark>
          <name>00000000 ()</name>
          <description>Branch: &#xA;Altitude: 70000 ft&#xA;Speed: 0.7 kts&#xA;Heading: 0.0&#xA;Mission: </description>
          <Point>
            <coordinates>0,0,70000</coordinates>
          </Point>
        </Placemark>
        <Placemark>
          <name> ()</name>
          <description>Branch: &#xA;Altitude: 0 ft&#xA;Speed: 0.0 kts&#xA;Heading: 0.0&#xA;Mission: </description>
          <Point>
            <coordinates>0,0,0</coordinates>
          </Point>
        </Placemark>
        <Placemark>
          <name>RCH137 (C17)</name>
          <description>Branch: &#xA;Altitude: 36000 ft&#xA;Speed: 0.0 kts&#xA;Heading: 0.0&#xA;Mission: </description>
          <Point>
            <coordinates>0,0,36000</coordinates>
          </Point>
        </Placemark>
        <Placemark>
          <name>SH215 (TEX2)</name>
          <description>Branch: &#xA;Altitude: 0 ft&#xA;Speed: 0.0 kts&#xA;Heading: 0.0&#xA;Mission: </description>
          <Point>
            <coordinates>0,0,0</coordinates>
          </Point>
        </Placemark>
        <Placemark>
          <name> ()</name>
          <description>Branch: &#xA;Altitude: 21000 ft&#xA;Speed: 455.0 kts&#xA;Heading: 112.6&#xA;Mission: </description>
          <Point>
            <coordinates>-120.195854,47.972076,21000</coordinates>
          </Point>
        </Placemark>
        <Placemark>
          <name>TEST1234 ()</name>
          <description>Branch: &#xA;Altitude: 0 ft&#xA;Speed: 0.0 kts&#xA;Heading: 0.0&#xA;Mission: </description>
          <Point>
            <coordinates>0,0,0</coordinates>
          </Point>
        </Placemark>
        <Placemark>
          <name> (C30J)</name>
          <description>Branch: &#xA;Altitude: 2625 ft&#xA;Speed: 0.0 kts&#xA;Heading: 0.0&#xA;Mission: </description>
          <Point>
            <coordinates>0,0,2625</coordinates>
          </Point>
        </Placemark>
        <Placemark>
          <name>SH064 (TEX2)</name>
          <description>Branch: &#xA;Altitude: 1125 ft&#xA;Speed: 200.9 kts&#xA;Heading: 136.2&#xA;Mission: </description>
          <Point>
            <coordinates>-87.05352,30.750313,1125</coordinates>
          </Point>
        </Placemark>
        <Placemark>
          <name>RCH199 (C17)</name>
          <description>Branch: &#xA;Altitude: 30000 ft&#xA;Speed: 0.0 kts&#xA;Heading: 0.0&#xA;Mission: </description>
          <Point>
            <coordinates>0,0,30000</coordinates>
          </Point>
        </Placemark>
        <Placemark>
          <name>SH070 (TEX2)</name>
          <description>Branch: &#xA;Altitude: 475 ft&#xA;Speed: 116.1 kts&#xA;Heading: 177.5&#xA;Mission: </description>
          <Point>
            <coordinates>-89.455188,30.409132,475</coordinates>
          </Point>
        </Placemark>
        <Placemark>
          <name> (K35R)</name>
          <description>Branch: &#xA;Altitude: 0 ft&#xA;Speed: 0.0 kts&#xA;Heading: 0.0&#xA;Mission: </description>
          <Point>
            <coordinates>0,0,0</coordinates>
          </Point>
        </Placemark>
        <Placemark>
          <name>CRDO505 (C295)</name>
          <description>Branch: &#xA;Altitude: 3425 ft&#xA;Speed: 124.6 kts&#xA;Heading: 141.8&#xA;Mission: </description>
          <Point>
            <coordinates>-124.923236,49.730685,3425</coordinates>
          </Point>
        </Placemark>
        <Placemark>
          <name>GRZL44 (DH8A)</name>
          <description>Branch: &#xA;Altitude: 6975 ft&#xA;Speed: 266.1 kts&#xA;Heading: 91.7&#xA;Mission: </description>
          <Point>
            <coordinates>-94.730915,49.920776,6975</coordinates>
          </Point>
        </Placemark>
        <Placemark>
          <name>RCH713 (K35R)</name>
          <description>Branch: &#xA;Altitude: 31000 ft&#xA;Speed: 509.0 kts&#xA;Heading: 64.0&#xA;Mission: </description>
          <Point>
            <coordinates>-84.89735,43.473427,31000</coordinates>
          </Point>
        </Placemark>
        <Placemark>
          <name>CEF527 (A319)</name>
          <description>Branch: &#xA;Altitude: 36975 ft&#xA;Speed: 438.9 kts&#xA;Heading: 173.5&#xA;Mission: </description>
          <Point>
            <coordinates>24.063252,41.593819,36975</coordinates>
          </Point>
        </Placemark>
        <Placemark>
          <name> (B412)</name>
          <description>Branch: &#xA;Altitude: 0 ft&#xA;Speed: 0.0 kts&#xA;Heading: 0.0&#xA;Mission: </description>
          <Point>
            <coordinates>0,0,0</coordinates>
          </Point>
        </Placemark>
        <Placemark>
          <name> (C30J)</name>
          <description>Branch: &#xA;Altitude: 0 ft&#xA;Speed: 0.0 kts&#xA;Heading: 0.0&#xA;Mission: </description>
          <Point>
            <coordinates>0,0,0</coordinates>
          </Point>
        </Placemark>
        <Placemark>
          <name>G26689 (H60)</name>
          <description>Branch: &#xA;Altitude: 2200 ft&#xA;Speed: 123.0 kts&#xA;Heading: 0.9&#xA;Mission: </description>
          <Point>
            <coordinates>-85.133572,33.940073,2200</coordinates>
          </Point>
        </Placemark>
        <Placemark>
          <name> (K35R)</name>
          <description>Branch: &#xA;Altitude: 4525 ft&#xA;Speed: 242.0 kts&#xA;Heading: 106.7&#xA;Mission: </description>
          <Point>
            <coordinates>0,0,4525</coordinates>
          </Point>
        </Placemark>
        <Placemark>
          <name>MCUE12 (B762)</name>
          <description>Branch: &#xA;Altitude: 27008 ft&#xA;Speed: 0.0 kts&#xA;Heading: 62.0&#xA;Mission: </description>
          <Point>
            <coordinates>2.498703,38.169079,27008</coordinates>
          </Point>
        </Placemark>
        <Placemark>
          <name>TEST1234 ()</name>
          <description>Branch: &#xA;Altitude: 0 ft&#xA;Speed: 0.0 kts&#xA;Heading: 0.0&#xA;Mission: </description>
          <Point>
            <coordinates>0,0,0</coordinates>
          </Point>
        </Placemark>
        <Placemark>
          <name>N7874N (C172)</name>
          <description>Branch: &#xA;Altitude: 10150 ft&#xA;Speed: 82.0 kts&#xA;Heading: 88.6&#xA;Mission: </description>
          <Point>
            <coordinates>-104.268921,38.688075,10150</coordinates>
          </Point>
        </Placemark>
        <Placemark>
          <name>E83173 (C30J)</name>
          <description>Branch: &#xA;Altitude: 25000 ft&#xA;Speed: 322.0 kts&#xA;Heading: 182.0&#xA;Mission: </description>
          <Point>
            <coordinates>-96.829025,35.588554,25000</coordinates>
          </Point>
        </Placemark>
        <Placemark>
          <name>CRAZY11 (TEX2)</name>
          <description>Branch: &#xA;Altitude: 8525 ft&#xA;Speed: 263.5 kts&#xA;Heading: 138.4&#xA;Mission: </description>
          <Point>
            <coordinates>-88.265057,33.099619,8525</coordinates>
          </Point>
        </Placemark>
        <Placemark>
          <name>GAF701 (A21N)</name>
          <description>Branch: &#xA;Altitude: 36025 ft&#xA;Speed: 441.1 kts&#xA;Heading: 196.5&#xA;Mission: </description>
          <Point>
            <coordinates>-75.843094,44.058517,36025</coordinates>
          </Point>
        </Placemark>
        <Placemark>
          <name>EVAL29 (H60)</name>
          <description>Branch: &#xA;Altitude: 2775 ft&#xA;Speed: 122.8 kts&#xA;Heading: 279.9&#xA;Mission: </description>
          <Point>
            <coordinates>-86.670862,34.951904,2775</coordinates>
          </Point>
        </Placemark>
        <Placemark>
          <name>RCH128 (C17)</name>
          <description>Branch: &#xA;Altitude: 29975 ft&#xA;Speed: 412.0 kts&#xA;Heading: 286.0&#xA;Mission: </description>
          <Point>
            <coordinates>-5.579759,55.35168,29975</coordinates>
          </Point>
        </Placemark>
        <Placemark>
          <name>OMEGA04 (H47)</name>
          <description>Branch: &#xA;Altitude: -100 ft&#xA;Speed: 109.0 kts&#xA;Heading: 114.0&#xA;Mission: </description>
          <Point>
            <coordinates>4.919649,51.570635,-100</coordinates>
          </Point>
        </Placemark>
        <Placemark>
          <name>COSMO42 (C30J)</name>
          <description>Branch: &#xA;Altitude: 1525 ft&#xA;Speed: 197.9 kts&#xA;Heading: 262.2&#xA;Mission: </description>
          <Point>
            <coordinates>10.815401,42.959976,1525</coordinates>
          </Point>
        </Placemark>
        <Placemark>
          <name>NUKED35 (EC45)</name>
          <description>Branch: &#xA;Altitude: 675 ft&#xA;Speed: 100.0 kts&#xA;Heading: 272.9&#xA;Mission: </description>
          <Point>
            <coordinates>-85.745491,31.165421,675</coordinates>
          </Point>
        </Placemark>
        <Placemark>
          <name>SHARK68 (SR20)</name>
          <description>Branch: &#xA;Altitude: 9000 ft&#xA;Speed: 140.2 kts&#xA;Heading: 113.1&#xA;Mission: </description>
          <Point>
            <coordinates>-104.532524,39.094803,9000</coordinates>
          </Point>
        </Placemark>
        <Placemark>
          <name>DRAGN41 (TEX2)</name>
          <description>Branch: &#xA;Altitude: 3900 ft&#xA;Speed: 183.6 kts&#xA;Heading: 325.9&#xA;Mission: </description>
          <Point>
            <coordinates>-97.836992,36.127516,3900</coordinates>
          </Point>
        </Placemark>
        <Placemark>
          <name>BERT10 (C30J)</name>
          <description>Branch: &#xA;Altitude: 25000 ft&#xA;Speed: 327.0 kts&#xA;Heading: 89.1&#xA;Mission: </description>
          <Point>
            <coordinates>-81.871777,35.1441,25000</coordinates>
          </Point>
        </Placemark>
        <Placemark>
          <name> (EUFI)</name>
          <description>Branch: &#xA;Altitude: 825 ft&#xA;Speed: 703.0 kts&#xA;Heading: 172.0&#xA;Mission: </description>
          <Point>
            <coordinates>-0.104528,53.087066,825</coordinates>
          </Point>
        </Placemark>
        <Placemark>
          <name> (EC45)</name>
          <description>Branch: &#xA;Altitude: 0 ft&#xA;Speed: 0.0 kts&#xA;Heading: 0.0&#xA;Mission: </description>
          <Point>
            <coordinates>0,0,0</coordinates>
          </Point>
        </Placemark>
        <Placemark>
          <name> (R135)</name>
          <description>Branch: &#xA;Altitude: 0 ft&#xA;Speed: 0.0 kts&#xA;Heading: 0.0&#xA;Mission: </description>
          <Point>
            <coordinates>0,0,0</coordinates>
          </Point>
        </Placemark>
        <Placemark>
          <name>SHARK71 (SR20)</name>
          <description>Branch: &#xA;Altitude: 8225 ft&#xA;Speed: 95.6 kts&#xA;Heading: 201.5&#xA;Mission: </description>
          <Point>
            <coordinates>-104.815369,38.892952,8225</coordinates>
          </Point>
        </Placemark>
        <Placemark>
          <name>HAWK219 (HAWK)</name>
          <description>Branch: &#xA;Altitude: 14225 ft&#xA;Speed: 379.9 kts&#xA;Heading: 330.0&#xA;Mission: </description>
          <Point>
            <coordinates>-97.953732,27.577918,14225</coordinates>
          </Point>
        </Placemark>
        <Placemark>
          <name>FORGE78 (GLF5)</name>
          <description>Branch: &#xA;Altitude: 11000 ft&#xA;Speed: 333.0 kts&#xA;Heading: 28.7&#xA;Mission: </description>
          <Point>
            <coordinates>-75.816338,42.686462,11000</coordinates>
          </Point>
        </Placemark>
        <Placemark>
          <name> (P3)</name>
          <description>Branch: &#xA;Altitude: 13400 ft&#xA;Speed: 0.0 kts&#xA;Heading: 0.0&#xA;Mission: </description>
          <Point>
            <coordinates>0,0,13400</coordinates>
          </Point>
        </Placemark>
        <Placemark>
          <name> (TEX2)</name>
          <description>Branch: &#xA;Altitude: 8600 ft&#xA;Speed: 0.0 kts&#xA;Heading: 0.0&#xA;Mission: </description>
          <Point>
            <coordinates>0,0,8600</coordinates>
          </Point>
        </Placemark>
        <Placemark>
          <name>VV1E037 (A119)</name>
          <description>Branch: &#xA;Altitude: 925 ft&#xA;Speed: 66.0 kts&#xA;Heading: 336.0&#xA;Mission: </description>
          <Point>
            <coordinates>-87.376801,30.830704,925</coordinates>
          </Point>
        </Placemark>
        <Placemark>
          <name>R00257 (BE20)</name>
          <description>Branch: &#xA;Altitude: 25000 ft&#xA;Speed: 281.4 kts&#xA;Heading: 45.0&#xA;Mission: </description>
          <Point>
            <coordinates>-90.423422,34.649689,25000</coordinates>
          </Point>
        </Placemark>
        <Placemark>
          <name>FAC1222 (B737)</name>
          <description>Branch: &#xA;Altitude: 37000 ft&#xA;Speed: 461.9 kts&#xA;Heading: 144.1&#xA;Mission: </description>
          <Point>
            <coordinates>-89.220657,28.909882,37000</coordinates>
          </Point>
        </Placemark>
        <Placemark>
          <name>IBIS73 ()</name>
          <description>Branch: &#xA;Altitude: 3150 ft&#xA;Speed: 193.6 kts&#xA;Heading: 172.6&#xA;Mission: </description>
          <Point>
            <coordinates>-3.693665,40.180618,3150</coordinates>
          </Point>
        </Placemark>
        <Placemark>
          <name>10630 (MI8)</name>
          <description>Branch: &#xA;Altitude: 1550 ft&#xA;Speed: 49.5 kts&#xA;Heading: 278.1&#xA;Mission: </description>
          <Point>
            <coordinates>19.738023,50.280945,1550</coordinates>
          </Point>
        </Placemark>
        <Placemark>
          <name>POSSE89 (C130)</name>
          <description>Branch: &#xA;Altitude: 11400 ft&#xA;Speed: 0.0 kts&#xA;Heading: 0.0&#xA;Mission: </description>
          <Point>
            <coordinates>0,0,11400</coordinates>
          </Point>
        </Placemark>
        <Placemark>
          <name>MRPHY22 ()</name>
          <description>Branch: &#xA;Altitude: 775 ft&#xA;Speed: 0.0 kts&#xA;Heading: 0.0&#xA;Mission: </description>
          <Point>
            <coordinates>0,0,775</coordinates>
          </Point>
        </Placemark>
        <Placemark>
          <name>TESLA88 (H60)</name>
          <description>Branch: &#xA;Altitude: 0 ft&#xA;Speed: 97.0 kts&#xA;Heading: 261.7&#xA;Mission: </description>
          <Point>
            <coordinates>-86.055305,31.25359,0</coordinates>
          </Point>
        </Placemark>
        <Placemark>
          <name>PAT919 (BE20)</name>
          <description>Branch: &#xA;Altitude: 20000 ft&#xA;Speed: 227.0 kts&#xA;Heading: 275.3&#xA;Mission: </description>
          <Point>
            <coordinates>-116.17281,33.850413,20000</coordinates>
          </Point>
        </Placemark>
        <Placemark>
          <name>BLZR247 (HAWK)</name>
          <description>Branch: &#xA;Altitude: 8225 ft&#xA;Speed: 313.1 kts&#xA;Heading: 17.3&#xA;Mission: </description>
          <Point>
            <coordinates>-98.677099,28.076865,8225</coordinates>
          </Point>
        </Placemark>
        <Placemark>
          <name>JAVAN45 (TEX2)</name>
          <description>Branch: &#xA;Altitude: 1050 ft&#xA;Speed: 116.5 kts&#xA;Heading: 156.7&#xA;Mission: </description>
          <Point>
            <coordinates>-97.830121,31.069708,1050</coordinates>
          </Point>
        </Placemark>
        <Placemark>
          <name> (P8)</name>
          <description>Branch: &#xA;Altitude: 33000 ft&#xA;Speed: 446.0 kts&#xA;Heading: 83.0&#xA;Mission: </description>
          <Point>
            <coordinates>-90.702077,30.542584,33000</coordinates>
          </Point>
        </Placemark>
        <Placemark>
          <name>C2301 (CN35)</name>
          <description>Branch: &#xA;Altitude: 1325 ft&#xA;Speed: 152.6 kts&#xA;Heading: 85.1&#xA;Mission: </description>
          <Point>
            <coordinates>-80.158167,25.922836,1325</coordinates>
          </Point>
        </Placemark>
        <Placemark>
          <name>GRIFN11 ()</name>
          <description>Branch: &#xA;Altitude: 19650 ft&#xA;Speed: 0.0 kts&#xA;Heading: 0.0&#xA;Mission: </description>
          <Point>
            <coordinates>0,0,19650</coordinates>
          </Point>
        </Placemark>
        <Placemark>
          <name>TEST1234 ()</name>
          <description>Branch: &#xA;Altitude: 0 ft&#xA;Speed: 0.0 kts&#xA;Heading: 0.0&#xA;Mission: </description>
          <Point>
            <coordinates>0,0,0</coordinates>
          </Point>
        </Placemark>
        <Placemark>
          <name>TEXSIL (TEX2)</name>
          <description>Branch: &#xA;Altitude: 7050 ft&#xA;Speed: 126.0 kts&#xA;Heading: 118.8&#xA;Mission: </description>
          <Point>
            <coordinates>173.850784,-41.579342,7050</coordinates>
          </Point>
        </Placemark>
        <Placemark>
          <name>TIGER25 (TEX2)</name>
          <description>Branch: &#xA;Altitude: 1850 ft&#xA;Speed: 129.5 kts&#xA;Heading: 265.1&#xA;Mission: </description>
          <Point>
            <coordinates>-100.485499,29.148056,1850</coordinates>
          </Point>
        </Placemark>
        <Placemark>
          <name>VANDY10 (BE40)</name>
          <description>Branch: &#xA;Altitude: 23000 ft&#xA;Speed: 373.1 kts&#xA;Heading: 8.5&#xA;Mission: </description>
          <Point>
            <coordinates>-98.19496,34.77301,23000</coordinates>
          </Point>
        </Placemark>
        <Placemark>
          <name>HAWK250 (HAWK)</name>
          <description>Branch: &#xA;Altitude: 14950 ft&#xA;Speed: 376.0 kts&#xA;Heading: 322.7&#xA;Mission: </description>
          <Point>
            <coordinates>-98.073293,27.71283,14950</coordinates>
          </Point>
        </Placemark>
        <Placemark>
          <name>R40033 (H64)</name>
          <description>Branch: &#xA;Altitude: 2900 ft&#xA;Speed: 133.8 kts&#xA;Heading: 335.7&#xA;Mission: </description>
          <Point>
            <coordinates>-98.001453,31.1191,2900</coordinates>
          </Point>
        </Placemark>
        <Placemark>
          <name> (K35R)</name>
          <description>Branch: &#xA;Altitude: 10900 ft&#xA;Speed: 354.0 kts&#xA;Heading: 44.0&#xA;Mission: </description>
          <Point>
            <coordinates>-95.288251,38.903535,10900</coordinates>
          </Point>
        </Placemark>
        <Placemark>
          <name> (K35R)</name>
          <description>Branch: &#xA;Altitude: 0 ft&#xA;Speed: 0.0 kts&#xA;Heading: 0.0&#xA;Mission: </description>
          <Point>
            <coordinates>0,0,0</coordinates>
          </Point>
        </Placemark>
        <Placemark>
          <name>LOOT44 (TEX2)</name>
          <description>Branch: &#xA;Altitude: 4850 ft&#xA;Speed: 231.2 kts&#xA;Heading: 8.0&#xA;Mission: </description>
          <Point>
            <coordinates>-97.990333,37.750122,4850</coordinates>
          </Point>
        </Placemark>
        <Placemark>
          <name> ()</name>
          <description>Branch: &#xA;Altitude: 0 ft&#xA;Speed: 0.0 kts&#xA;Heading: 0.0&#xA;Mission: </description>
          <Point>
            <coordinates>0,0,0</coordinates>
          </Point>
        </Placemark>
        <Placemark>
          <name>C6562 (AS65)</name>
          <description>Branch: &#xA;Altitude: 250 ft&#xA;Speed: 60.5 kts&#xA;Heading: 325.8&#xA;Mission: </description>
          <Point>
            <coordinates>-121.597473,38.770566,250</coordinates>
          </Point>
        </Placemark>
        <Placemark>
          <name>SWIFT82 (EC45)</name>
          <description>Branch: &#xA;Altitude: 4050 ft&#xA;Speed: 0.0 kts&#xA;Heading: 0.0&#xA;Mission: </description>
          <Point>
            <coordinates>-92.680779,34.995552,4050</coordinates>
          </Point>
        </Placemark>
        <Placemark>
          <name>CHEWY55 (TEX2)</name>
          <description>Branch: &#xA;Altitude: 8800 ft&#xA;Speed: 215.1 kts&#xA;Heading: 101.3&#xA;Mission: </description>
          <Point>
            <coordinates>-88.204724,30.328178,8800</coordinates>
          </Point>
        </Placemark>
        <Placemark>
          <name>MORPH15 (EC45)</name>
          <description>Branch: &#xA;Altitude: 625 ft&#xA;Speed: 74.8 kts&#xA;Heading: 217.9&#xA;Mission: </description>
          <Point>
            <coordinates>-85.641928,31.214539,625</coordinates>
          </Point>
        </Placemark>
        <Placemark>
          <name>VENUS23 (GLF5)</name>
          <description>Branch: &#xA;Altitude: 34000 ft&#xA;Speed: 463.0 kts&#xA;Heading: 29.0&#xA;Mission: </description>
          <Point>
            <coordinates>-78.400239,35.864737,34000</coordinates>
          </Point>
        </Placemark>
        <Placemark>
          <name>GAFTT33 ()</name>
          <description>Branch: &#xA;Altitude: 62700 ft&#xA;Speed: 0.0 kts&#xA;Heading: 0.0&#xA;Mission: </description>
          <Point>
            <coordinates>0,0,62700</coordinates>
          </Point>
        </Placemark>
        <Placemark>
          <name> (H64)</name>
          <description>Branch: &#xA;Altitude: 0 ft&#xA;Speed: 0.0 kts&#xA;Heading: 0.0&#xA;Mission: </description>
          <Point>
            <coordinates>0,0,0</coordinates>
          </Point>
        </Placemark>
        <Placemark>
          <name>ICY97 (H60)</name>
          <description>Branch: &#xA;Altitude: 7900 ft&#xA;Speed: 0.0 kts&#xA;Heading: 0.0&#xA;Mission: </description>
          <Point>
            <coordinates>0,0,7900</coordinates>
          </Point>
        </Placemark>
        <Placemark>
          <name>SAM218 (GLF5)</name>
          <description>Branch: &#xA;Altitude: 41000 ft&#xA;Speed: 534.0 kts&#xA;Heading: 93.5&#xA;Mission: </description>
          <Point>
            <coordinates>-122.146893,34.204514,41000</coordinates>
          </Point>
        </Placemark>
        <Placemark>
          <name>PAT393 (BE20)</name>
          <description>Branch: &#xA;Altitude: 7650 ft&#xA;Speed: 242.7 kts&#xA;Heading: 248.0&#xA;Mission: </description>
          <Point>
            <coordinates>-120.087204,35.194516,7650</coordinates>
          </Point>
        </Placemark>
        <Placemark>
          <name>CFC2569 (C30J)</name>
          <description>Branch: &#xA;Altitude: 28975 ft&#xA;Speed: 347.7 kts&#xA;Heading: 155.3&#xA;Mission: </description>
          <Point>
            <coordinates>-86.540279,34.791699,28975</coordinates>
          </Point>
        </Placemark>
        <Placemark>
          <name>BELLS80 (EC45)</name>
          <description>Branch: &#xA;Altitude: 2375 ft&#xA;Speed: 96.3 kts&#xA;Heading: 12.6&#xA;Mission: </description>
          <Point>
            <coordinates>-86.415924,31.176361,2375</coordinates>
          </Point>
        </Placemark>
        <Placemark>
          <name> (K35R)</name>
          <description>Branch: &#xA;Altitude: 31000 ft&#xA;Speed: 548.0 kts&#xA;Heading: 84.0&#xA;Mission: </description>
          <Point>
            <coordinates>-74.064724,44.646507,31000</coordinates>
          </Point>
        </Placemark>
        <Placemark>
          <name>I2067 (A139)</name>
          <description>Branch: &#xA;Altitude: 1150 ft&#xA;Speed: 126.6 kts&#xA;Heading: 316.6&#xA;Mission: </description>
          <Point>
            <coordinates>18.72052,40.046951,1150</coordinates>
          </Point>
        </Placemark>
        <Placemark>
          <name>MOBIL33 (K35R)</name>
          <description>Branch: &#xA;Altitude: 4875 ft&#xA;Speed: 260.0 kts&#xA;Heading: 289.7&#xA;Mission: </description>
          <Point>
            <coordinates>0,0,4875</coordinates>
          </Point>
        </Placemark>
        <Placemark>
          <name>DRAGN39 (TEX2)</name>
          <description>Branch: &#xA;Altitude: 2050 ft&#xA;Speed: 126.0 kts&#xA;Heading: 8.3&#xA;Mission: </description>
          <Point>
            <coordinates>-97.791481,36.308029,2050</coordinates>
          </Point>
        </Placemark>
        <Placemark>
          <name>CFC3360 (A310)</name>
          <description>Branch: &#xA;Altitude: 0 ft&#xA;Speed: 0.0 kts&#xA;Heading: 0.0&#xA;Mission: </description>
          <Point>
            <coordinates>-147.857466,64.821477,0</coordinates>
          </Point>
        </Placemark>
        <Placemark>
          <name>STGN26 (G120)</name>
          <description>Branch: &#xA;Altitude: 5500 ft&#xA;Speed: 112.4 kts&#xA;Heading: 234.1&#xA;Mission: </description>
          <Point>
            <coordinates>-98.786539,49.968008,5500</coordinates>
          </Point>
        </Placemark>
        <Placemark>
          <name>SNBD16 (CL41)</name>
          <description>Branch: &#xA;Altitude: 1025 ft&#xA;Speed: 131.5 kts&#xA;Heading: 56.8&#xA;Mission: </description>
          <Point>
            <coordinates>-77.534542,44.136978,1025</coordinates>
          </Point>
        </Placemark>
        <Placemark>
          <name>TEST1234 ()</name>
          <description>Branch: &#xA;Altitude: 0 ft&#xA;Speed: 0.0 kts&#xA;Heading: 0.0&#xA;Mission: </description>
          <Point>
            <coordinates>0,0,0</coordinates>
          </Point>
        </Placemark>
        <Placemark>
          <name> (H60)</name>
          <description>Branch: &#xA;Altitude: 550 ft&#xA;Speed: 92.0 kts&#xA;Heading: 262.3&#xA;Mission: </description>
          <Point>
            <coordinates>-86.034706,31.288271,550</coordinates>
          </Point>
        </Placemark>
        <Placemark>
          <name>NATO29 (E3TF)</name>
          <description>Branch: &#xA;Altitude: 25000 ft&#xA;Speed: 398.0 kts&#xA;Heading: 0.0&#xA;Mission: </description>
          <Point>
            <coordinates>35.517632,37.682281,25000</coordinates>
          </Point>
        </Placemark>
        <Placemark>
          <name> (K35R)</name>
          <description>Branch: &#xA;Altitude: 34000 ft&#xA;Speed: 0.0 kts&#xA;Heading: 0.0&#xA;Mission: </description>
          <Point>
            <coordinates>0,0,34000</coordinates>
          </Point>
        </Placemark>
        <Placemark>
          <name> (C17)</name>
          <description>Branch: &#xA;Altitude: 4900 ft&#xA;Speed: 0.0 kts&#xA;Heading: 0.0&#xA;Mission: </description>
          <Point>
            <coordinates>0,0,4900</coordinates>
          </Point>
        </Placemark>
        <Placemark>
          <name> (K35R)</name>
          <description>Branch: &#xA;Altitude: 26550 ft&#xA;Speed: 358.0 kts&#xA;Heading: 294.0&#xA;Mission: </description>
          <Point>
            <coordinates>-122.836514,38.731908,26550</coordinates>
          </Point>
        </Placemark>
        <Placemark>
          <name>JEDDA75 (TEX2)</name>
          <description>Branch: &#xA;Altitude: 10950 ft&#xA;Speed: 260.4 kts&#xA;Heading: 24.5&#xA;Mission: </description>
          <Point>
            <coordinates>-99.962952,30.322033,10950</coordinates>
          </Point>
        </Placemark>
        <Placemark>
          <name>R20614 (H60)</name>
          <description>Branch: &#xA;Altitude: 925 ft&#xA;Speed: 19.2 kts&#xA;Heading: 308.7&#xA;Mission: </description>
          <Point>
            <coordinates>-97.858191,31.148708,925</coordinates>
          </Point>
        </Placemark>
        <Placemark>
          <name>RHODY62 (C30J)</name>
          <description>Branch: &#xA;Altitude: 2025 ft&#xA;Speed: 208.5 kts&#xA;Heading: 176.2&#xA;Mission: </description>
          <Point>
            <coordinates>-89.187341,31.317832,2025</coordinates>
          </Point>
        </Placemark>
        <Placemark>
          <name>C6586 (AS65)</name>
          <description>Branch: &#xA;Altitude: 275 ft&#xA;Speed: 38.1 kts&#xA;Heading: 184.5&#xA;Mission: </description>
          <Point>
            <coordinates>-87.87074,30.535894,275</coordinates>
          </Point>
        </Placemark>
        <Placemark>
          <name> ()</name>
          <description>Branch: &#xA;Altitude: 5875 ft&#xA;Speed: 275.8 kts&#xA;Heading: 14.5&#xA;Mission: </description>
          <Point>
            <coordinates>-74.819701,39.126251,5875</coordinates>
          </Point>
        </Placemark>
        <Placemark>
          <name>TEST1234 (TWR)</name>
          <description>Branch: &#xA;Altitude: 0 ft&#xA;Speed: 0.0 kts&#xA;Heading: 0.0&#xA;Mission: </description>
          <Point>
            <coordinates>0,0,0</coordinates>
          </Point>
        </Placemark>
        <Placemark>
          <name> ()</name>
          <description>Branch: &#xA;Altitude: 0 ft&#xA;Speed: 0.0 kts&#xA;Heading: 0.0&#xA;Mission: </description>
          <Point>
            <coordinates>0,0,0</coordinates>
          </Point>
        </Placemark>
        <Placemark>
          <name>00R27080 (H60)</name>
          <description>Branch: &#xA;Altitude: 900 ft&#xA;Speed: 113.1 kts&#xA;Heading: 314.3&#xA;Mission: </description>
          <Point>
            <coordinates>-118.054486,33.681335,900</coordinates>
          </Point>
        </Placemark>
        <Placemark>
          <name>SKULL82 (H60)</name>
          <description>Branch: &#xA;Altitude: 0 ft&#xA;Speed: 97.0 kts&#xA;Heading: 89.4&#xA;Mission: </description>
          <Point>
            <coordinates>-106.572647,34.981493,0</coordinates>
          </Point>
        </Placemark>
        <Placemark>
          <name>BLZR272 ()</name>
          <description>Branch: &#xA;Altitude: 0 ft&#xA;Speed: 278.9 kts&#xA;Heading: 108.2&#xA;Mission: </description>
          <Point>
            <coordinates>-98.727022,28.061084,0</coordinates>
          </Point>
        </Placemark>
        <Placemark>
          <name>BOYER92 (TEX2)</name>
          <description>Branch: &#xA;Altitude: 3000 ft&#xA;Speed: 221.8 kts&#xA;Heading: 244.4&#xA;Mission: </description>
          <Point>
            <coordinates>-98.618667,29.333077,3000</coordinates>
          </Point>
        </Placemark>
        <Placemark>
          <name>DRAGN47 (TEX2)</name>
          <description>Branch: &#xA;Altitude: 2975 ft&#xA;Speed: 230.8 kts&#xA;Heading: 332.1&#xA;Mission: </description>
          <Point>
            <coordinates>-97.775691,36.171322,2975</coordinates>
          </Point>
        </Placemark>
        <Placemark>
          <name>VV8E725 (A119)</name>
          <description>Branch: &#xA;Altitude: 2350 ft&#xA;Speed: 118.0 kts&#xA;Heading: 251.1&#xA;Mission: </description>
          <Point>
            <coordinates>-87.221611,30.560707,2350</coordinates>
          </Point>
        </Placemark>
        <Placemark>
          <name>VV8E734 (A119)</name>
          <description>Branch: &#xA;Altitude: 1800 ft&#xA;Speed: 97.2 kts&#xA;Heading: 143.4&#xA;Mission: </description>
          <Point>
            <coordinates>-85.679249,31.516205,1800</coordinates>
          </Point>
        </Placemark>
        <Placemark>
          <name>SQUIB77 (EC45)</name>
          <description>Branch: &#xA;Altitude: 600 ft&#xA;Speed: 65.2 kts&#xA;Heading: 94.4&#xA;Mission: </description>
          <Point>
            <coordinates>-85.58443,31.224727,600</coordinates>
          </Point>
        </Placemark>
        <Placemark>
          <name>AXEL10 (GLEX)</name>
          <description>Branch: &#xA;Altitude: 36000 ft&#xA;Speed: 418.1 kts&#xA;Heading: 287.4&#xA;Mission: </description>
          <Point>
            <coordinates>-102.43905,32.766129,36000</coordinates>
          </Point>
        </Placemark>
        <Placemark>
          <name>NORTH48 (BE20)</name>
          <description>Branch: &#xA;Altitude: 6575 ft&#xA;Speed: 206.0 kts&#xA;Heading: 1.1&#xA;Mission: </description>
          <Point>
            <coordinates>-151.305226,60.014008,6575</coordinates>
          </Point>
        </Placemark>
        <Placemark>
          <name>SCRCH51 (V22)</name>
          <description>Branch: &#xA;Altitude: 350 ft&#xA;Speed: 123.0 kts&#xA;Heading: 192.7&#xA;Mission: </description>
          <Point>
            <coordinates>-117.222159,32.675388,350</coordinates>
          </Point>
        </Placemark>
        <Placemark>
          <name>RNGR44 (B06)</name>
          <description>Branch: &#xA;Altitude: 1200 ft&#xA;Speed: 85.7 kts&#xA;Heading: 258.6&#xA;Mission: </description>
          <Point>
            <coordinates>-98.213581,49.961563,1200</coordinates>
          </Point>
        </Placemark>
        <Placemark>
          <name>BRAVE38 (C130)</name>
          <description>Branch: &#xA;Altitude: 23000 ft&#xA;Speed: 350.0 kts&#xA;Heading: 96.1&#xA;Mission: </description>
          <Point>
            <coordinates>-90.624905,34.684071,23000</coordinates>
          </Point>
        </Placemark>
        <Placemark>
          <name>N9358L (C172)</name>
          <description>Branch: &#xA;Altitude: 2150 ft&#xA;Speed: 83.0 kts&#xA;Heading: 81.0&#xA;Mission: </description>
          <Point>
            <coordinates>-86.466632,30.778105,2150</coordinates>
          </Point>
        </Placemark>
        <Placemark>
          <name>MESSY05 (EC45)</name>
          <description>Branch: &#xA;Altitude: 750 ft&#xA;Speed: 95.8 kts&#xA;Heading: 251.8&#xA;Mission: </description>
          <Point>
            <coordinates>-85.571246,31.240322,750</coordinates>
          </Point>
        </Placemark>
        <Placemark>
          <name>TRIPLE42 (EUFI)</name>
          <description>Branch: &#xA;Altitude: -100 ft&#xA;Speed: 318.0 kts&#xA;Heading: 304.0&#xA;Mission: </description>
          <Point>
            <coordinates>-0.131444,53.100521,-100</coordinates>
          </Point>
        </Placemark>
        <Placemark>
          <name>ASY406 (A332)</name>
          <description>Branch: &#xA;Altitude: 5375 ft&#xA;Speed: 282.3 kts&#xA;Heading: 165.2&#xA;Mission: </description>
          <Point>
            <coordinates>-157.847239,21.118702,5375</coordinates>
          </Point>
        </Placemark>
        <Placemark>
          <name>PAIN11 (BE40)</name>
          <description>Branch: &#xA;Altitude: 3100 ft&#xA;Speed: 183.1 kts&#xA;Heading: 178.1&#xA;Mission: </description>
          <Point>
            <coordinates>-95.588476,36.247667,3100</coordinates>
          </Point>
        </Placemark>
        <Placemark>
          <name>BGST307 (BE20)</name>
          <description>Branch: &#xA;Altitude: 18000 ft&#xA;Speed: 208.6 kts&#xA;Heading: 256.7&#xA;Mission: </description>
          <Point>
            <coordinates>-89.994938,30.188736,18000</coordinates>
          </Point>
        </Placemark>
        <Placemark>
          <name>EVAL80 (BE20)</name>
          <description>Branch: &#xA;Altitude: 23000 ft&#xA;Speed: 294.2 kts&#xA;Heading: 174.7&#xA;Mission: </description>
          <Point>
            <coordinates>-86.687508,36.160629,23000</coordinates>
          </Point>
        </Placemark>
        <Placemark>
          <name>COMT451 (A400)</name>
          <description>Branch: &#xA;Altitude: 475 ft&#xA;Speed: 263.2 kts&#xA;Heading: 202.6&#xA;Mission: </description>
          <Point>
            <coordinates>-2.031728,51.506149,475</coordinates>
          </Point>
        </Placemark>
        <Placemark>
          <name> ()</name>
          <description>Branch: &#xA;Altitude: 11100 ft&#xA;Speed: 0.0 kts&#xA;Heading: 0.0&#xA;Mission: </description>
          <Point>
            <coordinates>0,0,11100</coordinates>
          </Point>
        </Placemark>
        <Placemark>
          <name>GAFTT07 ()</name>
          <description>Branch: &#xA;Altitude: 62700 ft&#xA;Speed: 0.0 kts&#xA;Heading: 0.0&#xA;Mission: </description>
          <Point>
            <coordinates>0,0,62700</coordinates>
          </Point>
        </Placemark>
        <Placemark>
          <name>G26604 (H60)</name>
          <description>Branch: &#xA;Altitude: 800 ft&#xA;Speed: 0.0 kts&#xA;Heading: 0.0&#xA;Mission: </description>
          <Point>
            <coordinates>0,0,800</coordinates>
          </Point>
        </Placemark>
        <Placemark>
          <name>ASY405 (A332)</name>
          <description>Branch: &#xA;Altitude: 9225 ft&#xA;Speed: 289.1 kts&#xA;Heading: 250.2&#xA;Mission: </description>
          <Point>
            <coordinates>-158.119354,21.055344,9225</coordinates>
          </Point>
        </Placemark>
        <Placemark>
          <name>PAT421 (BE20)</name>
          <description>Branch: &#xA;Altitude: 2250 ft&#xA;Speed: 132.1 kts&#xA;Heading: 177.8&#xA;Mission: </description>
          <Point>
            <coordinates>-85.977929,38.014557,2250</coordinates>
          </Point>
        </Placemark>
        <Placemark>
          <name>ANVIL76 (C30J)</name>
          <description>Branch: &#xA;Altitude: 16150 ft&#xA;Speed: 281.9 kts&#xA;Heading: 247.3&#xA;Mission: </description>
          <Point>
            <coordinates>-82.716002,40.357718,16150</coordinates>
          </Point>
        </Placemark>